latitude,longitude,altitude(m),ultrasonicHeight(m),speed(mps),distance(m),max_altitude(m),max_ascent(m),max_speed(mps),max_distance(m),time(millisecond),datetime(utc),datetime(local),satellites,pressure(Pa),temperature(F),voltage(v),home_latitude,home_longitude,velocityX(mps),velocityY(mps),velocityZ(mps),pitch(deg),roll(deg),yaw(deg),powerlevel,isflying,istakingphoto,remainPowerPercent,remainLifePercent,currentCurrent,currentElectricity,currentVoltage,batteryTemperature,dischargeCount,flightmode,isMotorsOn,isTakingVideo,Rc_elevator,Rc_aileron,Rc_throttle,Rc_rudder,Rc_gyro,timestamp,Battery_Cell1,Battery_Cell2,Battery_Cell3,Battery_Cell4,Battery_Cell5,Battery_Cell6,Dronetype,AppVersion,Planename,FlyControllerSerialNumber,RemoteSerialNumber,BatterySerialNumber,CENTER_BATTERY.productDate,CENTER_BATTERY.serialNo,CENTER_BATTERY.fullCapacity,CENTER_BATTERY.productDateRaw,pitchRaw,rollRaw,yawRaw,gimbalPitchRaw,gimbalRollRaw,gimbalYawRaw,flyState,altitudeRaw,speedRaw,distanceRaw,velocityXRaw,velocityYRaw,velocityZRaw,data_reuse,App_Tip,App_Warning,downlinkSignalQuality,uplinkSignalQuality,transmissionChannel,rcModeSwitch,rcHome,rcPause,rcTransform,rcJoystickMode,appMode,FlyControllerSerialNumber_legacy,RemoteSerialNumber_legacy,BatterySerialNumber_legacy,Battery2SerialNumber,frontAvoidDist,backAvoidDist,rightAvoidDist,leftAvoidDist,upAvoidDist,downAvoidDist,isBrakingToAvoid
34.182642,-118.129102,0.40,0.40,0.41,0.05,0.40,0.40,0.41,0.05,1,2022-06-05 23:10:46.160,2022-06-05 16:10:46.160,16,0,0,15.516,34.182642,-118.129102,0.10,0.00,-0.40,1.60,-2.20,-15.30,0,1,0,58,100,-7368,2088,15516,3201.50,4,TakeOff,1,0,0,0,0,0,0,1654470646160,3934,3927,3935,3934,0,0,27,Litchi_iOS_2.14.0,Brian-MAVIC 2,163DFCK001S13F,1DUCFB800104PR,0P2AG3L53400KG,,0,3645,0,-16.00,-22.00,-153.00,0.00,0.00,-327.00,11,4.00,4.12,0.51,1.00,0.00,-4.00,0,,,100,100,0,2,0,0,0,1,0,(null),(null),,,0.0,0.0,0.0,0.0,0.0,0.0,0
34.182642,-118.129102,0.40,0.40,0.41,0.08,0.40,0.40,0.41,0.08,101,2022-06-05 23:10:46.260,2022-06-05 16:10:46.260,16,0,0,15.516,34.182642,-118.129102,0.10,0.00,-0.40,1.80,-2.10,-15.40,0,1,0,58,100,-7368,2088,15516,3201.50,4,TakeOff,1,0,0,0,0,0,0,1654470646260,3934,3927,3935,3934,0,0,27,,,,,,,0,0,0,-18.00,-21.00,-154.00,0.00,0.00,-327.00,11,4.00,4.12,0.81,1.00,0.00,-4.00,0,,,100,100,0,2,0,0,0,1,0,,,,,0.0,0.0,0.0,0.0,0.0,0.0,0
34.182643,-118.129102,0.50,0.50,0.51,0.10,0.50,0.50,0.51,0.10,200,2022-06-05 23:10:46.359,2022-06-05 16:10:46.359,16,0,0,15.516,34.182642,-118.129102,0.10,0.00,-0.50,2.50,-1.70,-15.50,0,1,0,58,100,-7368,2088,15516,3201.50,4,TakeOff,1,0,0,0,0,0,0,1654470646359,3934,3927,3935,3934,0,0,27,,,,,,,0,0,0,-25.00,-17.00,-155.00,0.00,0.00,-327.00,11,5.00,5.10,0.96,1.00,0.00,-5.00,0,,,100,100,0,2,0,0,0,1,0,,,,,0.0,0.0,0.0,0.0,0.0,0.0,0
34.182643,-118.129102,0.50,0.50,0.51,0.10,0.50,0.50,0.51,0.10,300,2022-06-05 23:10:46.459,2022-06-05 16:10:46.459,16,0,0,15.516,34.182642,-118.129102,0.10,0.00,-0.50,3.00,-1.50,-15.50,0,1,0,58,100,-7368,2088,15516,3201.50,4,TakeOff,1,0,0,0,0,0,0,1654470646459,3934,3927,3935,3934,0,0,27,,,,,,,0,0,0,-30.00,-15.00,-155.00,0.00,0.00,-327.00,11,5.00,5.10,1.04,1.00,0.00,-5.00,0,,,100,100,0,2,0,0,0,1,0,,,,,0.0,0.0,0.0,0.0,0.0,0.0,0
34.182643,-118.129102,0.60,0.60,0.51,0.12,0.60,0.60,0.51,0.12,399,2022-06-05 23:10:46.559,2022-06-05 16:10:46.559,16,0,0,15.516,34.182642,-118.129102,0.10,0.00,-0.50,3.20,-1.40,-15.60,0,1,0,58,100,-7368,2088,15516,3201.50,4,TakeOff,1,0,0,0,0,0,0,1654470646558,3934,3927,3935,3934,0,0,27,,,,,,,0,0,0,-32.00,-14.00,-156.00,0.00,0.00,-327.00,11,6.00,5.10,1.18,1.00,0.00,-5.00,0,,,100,100,0,2,0,0,0,1,0,,,,,0.0,0.0,0.0,0.0,0.0,0.0,0
34.182643,-118.129102,0.60,0.70,0.51,0.14,0.60,0.60,0.51,0.14,500,2022-06-05 23:10:46.659,2022-06-05 16:10:46.659,16,0,0,15.516,34.182642,-118.129102,0.10,0.00,-0.50,3.50,-0.90,-15.60,0,1,0,58,100,-7368,2088,15516,3201.50,4,TakeOff,1,0,0,0,0,0,0,1654470646659,3934,3927,3935,3934,0,0,27,,,,,,,0,0,0,-35.00,-9.00,-156.00,0.00,0.00,-327.00,11,6.00,5.10,1.41,1.00,0.00,-5.00,0,,,100,100,0,2,0,0,0,1,0,,,,,0.0,0.0,0.0,0.0,0.0,0.0,0
34.182643,-118.129102,0.70,0.70,0.51,0.15,0.70,0.70,0.51,0.15,600,2022-06-05 23:10:46.759,2022-06-05 16:10:46.759,16,0,0,15.516,34.182642,-118.129102,0.10,0.00,-0.50,3.50,-1.30,-15.70,0,1,0,58,100,-7368,2088,15516,3201.50,4,TakeOff,1,0,0,0,0,0,0,1654470646759,3934,3927,3935,3934,0,0,27,,,,,,,0,0,0,-35.00,-13.00,-157.00,0.00,0.00,-327.00,11,7.00,5.10,1.54,1.00,0.00,-5.00,0,,,100,100,0,2,0,0,0,1,0,,,,,0.0,0.0,0.0,0.0,0.0,0.0,0
34.182643,-118.129102,0.70,0.80,0.50,0.17,0.70,0.70,0.51,0.17,700,2022-06-05 23:10:46.859,2022-06-05 16:10:46.859,16,0,0,15.516,34.182642,-118.129102,0.00,0.00,-0.50,3.50,-1.60,-15.70,0,1,0,58,100,-7368,2088,15516,3201.50,4,TakeOff,1,0,0,0,0,0,0,1654470646859,3934,3927,3935,3934,0,0,27,,,,,,,0,0,0,-35.00,-16.00,-157.00,0.00,0.00,-327.00,11,7.00,5.00,1.68,0.00,0.00,-5.00,0,,,100,100,0,2,0,0,0,1,0,,,,,0.0,0.0,0.0,0.0,0.0,0.0,0
34.182643,-118.129102,0.80,0.80,0.50,0.18,0.80,0.80,0.51,0.18,799,2022-06-05 23:10:46.959,2022-06-05 16:10:46.959,16,0,0,15.516,34.182642,-118.129102,0.00,0.00,-0.50,3.30,-1.70,-15.60,0,1,0,58,100,-7368,2088,15516,3201.50,4,TakeOff,1,0,0,0,0,0,0,1654470646958,3934,3927,3935,3934,0,0,27,,,,,,,0,0,0,-33.00,-17.00,-156.00,0.00,0.00,-327.00,11,8.00,5.00,1.79,0.00,0.00,-5.00,0,,,100,100,0,2,0,0,0,1,0,,,,,0.0,0.0,0.0,0.0,0.0,0.0,0
34.182643,-118.129102,0.80,0.90,0.50,0.19,0.80,0.80,0.51,0.19,900,2022-06-05 23:10:47.060,2022-06-05 16:10:47.060,16,0,0,15.516,34.182642,-118.129102,0.00,0.00,-0.50,3.20,-2.00,-15.50,0,1,0,58,100,-7368,2088,15516,3201.50,4,TakeOff,1,0,0,0,0,0,0,1654470647059,3934,3927,3935,3934,0,0,27,,,,,,,0,0,0,-32.00,-20.00,-155.00,0.00,0.00,-327.00,11,8.00,5.00,1.86,0.00,0.00,-5.00,0,,,100,100,0,2,0,0,0,1,0,,,,,0.0,0.0,0.0,0.0,0.0,0.0,0
34.182643,-118.129102,0.90,0.90,0.50,0.20,0.90,0.90,0.51,0.20,1000,2022-06-05 23:10:47.159,2022-06-05 16:10:47.159,16,0,0,15.516,34.182642,-118.129102,0.00,0.00,-0.50,3.00,-2.40,-15.50,0,1,0,58,100,-7368,2088,15516,3201.50,4,TakeOff,1,0,0,0,0,0,0,1654470647159,3934,3927,3935,3934,0,0,27,,,,,,,0,0,0,-30.00,-24.00,-155.00,0.00,0.00,-327.00,11,9.00,5.00,1.95,0.00,0.00,-5.00,0,,,100,100,0,2,0,0,0,1,0,,,,,0.0,0.0,0.0,0.0,0.0,0.0,0
34.182644,-118.129102,0.90,1.00,0.50,0.23,0.90,0.90,0.51,0.23,1100,2022-06-05 23:10:47.260,2022-06-05 16:10:47.260,16,0,0,15.516,34.182642,-118.129102,0.00,0.00,-0.50,3.00,-2.80,-15.60,0,1,0,58,100,-7368,2088,15516,3201.50,4,TakeOff,1,0,0,0,0,0,0,1654470647259,3934,3927,3935,3934,0,0,27,,,,,,,0,0,0,-30.00,-28.00,-156.00,0.00,0.00,-327.00,11,9.00,5.00,2.30,0.00,0.00,-5.00,0,,,100,100,0,2,0,0,0,1,0,,,,,0.0,0.0,0.0,0.0,0.0,0.0,0
34.182644,-118.129102,1.00,1.00,0.40,0.24,1.00,1.00,0.51,0.24,1200,2022-06-05 23:10:47.359,2022-06-05 16:10:47.359,16,0,0,15.516,34.182642,-118.129102,0.00,0.00,-0.40,3.10,-2.80,-15.60,0,1,0,58,100,-7368,2088,15516,3201.50,4,TakeOff,1,0,0,0,0,0,0,1654470647359,3934,3927,3935,3934,0,0,27,,,,,,,0,0,0,-31.00,-28.00,-156.00,0.00,0.00,-327.00,11,10.00,4.00,2.40,0.00,0.00,-4.00,0,,,100,100,0,2,0,0,0,1,0,,,,,0.0,0.0,0.0,0.0,0.0,0.0,0
34.182644,-118.129102,1.00,1.10,0.40,0.25,1.00,1.00,0.51,0.25,1300,2022-06-05 23:10:47.460,2022-06-05 16:10:47.460,16,0,0,15.516,34.182642,-118.129102,0.00,0.00,-0.40,3.30,-2.70,-15.60,0,1,0,58,100,-7368,2088,15516,3201.50,4,TakeOff,1,0,0,0,0,0,0,1654470647459,3934,3927,3935,3934,0,0,27,,,,,,,0,0,0,-33.00,-27.00,-156.00,0.00,0.00,-327.00,11,10.00,4.00,2.47,0.00,0.00,-4.00,0,,,100,100,0,2,0,0,0,1,0,,,,,0.0,0.0,0.0,0.0,0.0,0.0,0
34.182644,-118.129102,1.10,1.10,0.40,0.25,1.10,1.10,0.51,0.25,1400,2022-06-05 23:10:47.560,2022-06-05 16:10:47.560,16,0,0,15.516,34.182642,-118.129102,0.00,0.00,-0.40,1.40,-0.90,-15.80,0,1,0,58,100,-7368,2088,15516,3201.50,4,WP,1,0,0,0,0,0,0,1654470647559,3934,3927,3935,3934,0,0,27,,,,,,,0,0,0,-14.00,-9.00,-158.00,0.00,0.00,-327.00,14,11.00,4.00,2.54,0.00,0.00,-4.00,0,,,100,100,0,2,0,0,0,1,0,,,,,0.0,0.0,0.0,0.0,0.0,0.0,0
34.182644,-118.129102,1.10,1.10,0.40,0.27,1.10,1.10,0.51,0.27,1500,2022-06-05 23:10:47.660,2022-06-05 16:10:47.660,16,0,0,15.516,34.182642,-118.129102,0.00,0.00,-0.40,1.30,-0.60,-16.20,0,1,0,58,100,-7368,2088,15516,3201.50,4,WP,1,0,0,0,0,0,0,1654470647659,3934,3927,3935,3934,0,0,27,,,,,,,0,0,0,-13.00,-6.00,-162.00,0.00,0.00,-327.00,14,11.00,4.00,2.67,0.00,0.00,-4.00,0,,,100,100,0,2,0,0,0,1,0,,,,,0.0,0.0,0.0,0.0,0.0,0.0,0
34.182644,-118.129102,1.20,1.20,0.41,0.28,1.20,1.20,0.51,0.28,1601,2022-06-05 23:10:47.760,2022-06-05 16:10:47.760,16,0,0,15.516,34.182642,-118.129102,0.10,0.00,-0.40,2.40,-1.20,-17.30,0,1,0,58,100,-7368,2088,15516,3201.50,4,WP,1,0,0,0,0,0,0,1654470647760,3934,3927,3935,3934,0,0,27,,,,,,,0,0,0,-24.00,-12.00,-173.00,0.00,0.00,-327.00,14,12.00,4.12,2.79,1.00,0.00,-4.00,0,,,100,100,0,2,0,0,0,1,0,,,,,0.0,0.0,0.0,0.0,0.0,0.0,0
34.182644,-118.129102,1.20,1.30,0.41,0.28,1.20,1.20,0.51,0.28,1700,2022-06-05 23:10:47.860,2022-06-05 16:10:47.860,16,0,0,15.516,34.182642,-118.129102,0.10,0.00,-0.40,3.10,-1.70,-19.00,0,1,0,58,100,-7368,2088,15516,3201.50,4,WP,1,0,0,0,0,0,0,1654470647859,3934,3927,3935,3934,0,0,27,,,,,,,0,0,0,-31.00,-17.00,-190.00,0.00,0.00,-327.00,14,12.00,4.12,2.82,1.00,0.00,-4.00,0,,,100,100,0,2,0,0,0,1,0,,,,,0.0,0.0,0.0,0.0,0.0,0.0,0
34.182644,-118.129102,1.30,1.30,0.41,0.29,1.30,1.30,0.51,0.29,1800,2022-06-05 23:10:47.960,2022-06-05 16:10:47.960,16,0,0,15.516,34.182642,-118.129102,0.10,0.00,-0.40,3.40,-2.10,-21.30,0,1,0,58,100,-7368,2088,15516,3201.50,4,WP,1,0,0,0,0,0,0,1654470647959,3934,3927,3935,3934,0,0,27,,,,,,,0,0,0,-34.00,-21.00,-213.00,0.00,0.00,-330.00,14,13.00,4.12,2.94,1.00,0.00,-4.00,0,,,100,100,0,2,0,0,0,1,0,,,,,0.0,0.0,0.0,0.0,0.0,0.0,0
34.182645,-118.129102,1.30,1.30,0.40,0.33,1.30,1.30,0.51,0.33,1900,2022-06-05 23:10:48.060,2022-06-05 16:10:48.060,16,0,0,15.516,34.182642,-118.129102,0.00,0.00,-0.40,3.30,-2.30,-24.30,0,1,0,58,100,-7368,2088,15516,3201.50,4,WP,1,0,0,0,0,0,0,1654470648059,3934,3927,3935,3934,0,0,27,,,,,,,0,0,0,-33.00,-23.00,-243.00,0.00,0.00,-341.00,14,13.00,4.00,3.25,0.00,0.00,-4.00,0,,,100,100,0,2,0,0,0,1,0,,,,,0.0,0.0,0.0,0.0,0.0,0.0,0
34.182645,-118.129102,1.40,1.40,0.40,0.34,1.40,1.40,0.51,0.34,2001,2022-06-05 23:10:48.160,2022-06-05 16:10:48.160,16,0,0,15.466,34.182642,-118.129102,0.00,0.00,-0.40,3.00,-2.50,-27.80,0,1,0,58,100,-8174,2084,15466,3201.50,4,WP,1,0,0,0,0,0,0,1654470648160,3934,3927,3935,3934,0,0,27,,,,,,,0,0,0,-30.00,-25.00,-278.00,0.00,0.00,-364.00,14,14.00,4.00,3.36,0.00,0.00,-4.00,0,,,100,100,0,2,0,0,0,1,0,,,,,0.0,0.0,0.0,0.0,0.0,0.0,0
34.182645,-118.129102,1.40,1.40,0.40,0.35,1.40,1.40,0.51,0.35,2100,2022-06-05 23:10:48.259,2022-06-05 16:10:48.259,16,0,0,15.466,34.182642,-118.129102,0.00,0.00,-0.40,2.70,-2.90,-31.90,0,1,0,58,100,-8174,2084,15466,3201.50,4,WP,1,0,0,0,0,0,0,1654470648259,3934,3927,3935,3934,0,0,27,,,,,,,0,0,0,-27.00,-29.00,-319.00,0.00,0.00,-401.00,14,14.00,4.00,3.47,0.00,0.00,-4.00,0,,,100,100,0,2,0,0,0,1,0,,,,,0.0,0.0,0.0,0.0,0.0,0.0,0
34.182645,-118.129101,1.40,1.50,0.40,0.36,1.40,1.40,0.51,0.36,2200,2022-06-05 23:10:48.359,2022-06-05 16:10:48.359,16,0,0,15.466,34.182642,-118.129102,0.00,0.00,-0.40,2.40,-3.00,-36.50,0,1,0,58,100,-8174,2084,15466,3201.50,4,WP,1,0,0,0,0,0,0,1654470648359,3934,3927,3935,3934,0,0,27,,,,,,,0,0,0,-24.00,-30.00,-365.00,0.00,0.00,-448.00,14,14.00,4.00,3.56,0.00,0.00,-4.00,0,,,100,100,0,2,0,0,0,1,0,,,,,0.0,0.0,0.0,0.0,0.0,0.0,0
34.182645,-118.129102,1.50,1.50,0.40,0.36,1.50,1.50,0.51,0.36,2300,2022-06-05 23:10:48.460,2022-06-05 16:10:48.460,17,0,0,15.466,34.182642,-118.129102,0.00,0.00,-0.40,2.10,-3.30,-41.60,0,1,0,58,100,-8174,2084,15466,3201.50,4,WP,1,0,0,0,0,0,0,1654470648459,3934,3927,3935,3934,0,0,27,,,,,,,0,0,0,-21.00,-33.00,-416.00,0.00,0.00,-500.00,14,15.00,4.00,3.63,0.00,0.00,-4.00,0,,,100,100,0,2,0,0,0,1,0,,,,,0.0,0.0,0.0,0.0,0.0,0.0,0
34.182645,-118.129101,1.50,1.60,0.40,0.37,1.50,1.50,0.51,0.37,2401,2022-06-05 23:10:48.560,2022-06-05 16:10:48.560,17,0,0,15.466,34.182642,-118.129102,0.00,0.00,-0.40,1.70,-3.50,-47.20,0,1,0,58,100,-8174,2084,15466,3201.50,4,WP,1,0,0,0,0,0,0,1654470648560,3934,3927,3935,3934,0,0,27,,,,,,,0,0,0,-17.00,-35.00,-472.00,0.00,0.00,-557.00,14,15.00,4.00,3.70,0.00,0.00,-4.00,0,,,100,100,0,2,0,0,0,1,0,,,,,0.0,0.0,0.0,0.0,0.0,0.0,0
34.182645,-118.129101,1.60,1.60,0.40,0.39,1.60,1.60,0.51,0.39,2501,2022-06-05 23:10:48.660,2022-06-05 16:10:48.660,17,0,0,15.466,34.182642,-118.129102,0.00,0.00,-0.40,1.20,-3.50,-53.40,0,1,0,58,100,-8174,2084,15466,3201.50,4,WP,1,0,0,0,0,0,0,1654470648660,3934,3927,3935,3934,0,0,27,,,,,,,0,0,0,-12.00,-35.00,-534.00,0.00,0.00,-618.00,14,16.00,4.00,3.87,0.00,0.00,-4.00,0,,,100,100,0,2,0,0,0,1,0,,,,,0.0,0.0,0.0,0.0,0.0,0.0,0
34.182645,-118.129101,1.60,1.70,0.40,0.39,1.60,1.60,0.51,0.39,2601,2022-06-05 23:10:48.761,2022-06-05 16:10:48.761,17,0,0,15.466,34.182642,-118.129102,0.00,0.00,-0.40,0.70,-3.70,-60.20,0,1,0,58,100,-8174,2084,15466,3201.50,4,WP,1,0,0,0,0,0,0,1654470648760,3934,3927,3935,3934,0,0,27,,,,,,,0,0,0,-7.00,-37.00,-602.00,0.00,0.00,-683.00,14,16.00,4.00,3.92,0.00,0.00,-4.00,0,,,100,100,0,2,0,0,0,1,0,,,,,0.0,0.0,0.0,0.0,0.0,0.0,0
34.182645,-118.129101,1.70,1.70,0.30,0.35,1.70,1.70,0.51,0.39,2702,2022-06-05 23:10:48.861,2022-06-05 16:10:48.861,16,0,0,15.466,34.182642,-118.129102,0.00,0.00,-0.30,0.10,-3.50,-67.50,0,1,0,58,100,-8174,2084,15466,3201.50,4,WP,1,0,0,0,0,0,0,1654470648861,3934,3927,3935,3934,0,0,27,,,,,,,0,0,0,-1.00,-35.00,-675.00,0.00,0.00,-755.00,14,17.00,3.00,3.51,0.00,0.00,-3.00,0,,,100,100,0,2,0,0,0,1,0,,,,,0.0,0.0,0.0,0.0,0.0,0.0,0
34.182645,-118.129101,1.70,1.70,0.30,0.35,1.70,1.70,0.51,0.39,2803,2022-06-05 23:10:48.963,2022-06-05 16:10:48.963,16,0,0,15.466,34.182642,-118.129102,0.00,0.00,-0.30,-0.10,-3.30,-75.10,0,1,0,58,100,-8174,2084,15466,3201.50,4,WP,1,0,0,0,0,0,0,1654470648962,3934,3927,3935,3934,0,0,27,,,,,,,0,0,0,1.00,-33.00,-751.00,0.00,0.00,-832.00,14,17.00,3.00,3.51,0.00,0.00,-3.00,0,,,100,100,0,2,0,0,0,1,0,,,,,0.0,0.0,0.0,0.0,0.0,0.0,0
34.182645,-118.129101,1.70,1.80,0.20,0.38,1.70,1.70,0.51,0.39,2906,2022-06-05 23:10:49.065,2022-06-05 16:10:49.065,16,0,0,15.466,34.182642,-118.129102,0.00,0.00,-0.20,-0.50,-3.00,-82.60,0,1,0,58,100,-8174,2084,15466,3201.50,4,WP,1,0,0,0,0,0,0,1654470649065,3934,3927,3935,3934,0,0,27,,,,,,,0,0,0,5.00,-30.00,-826.00,0.00,0.00,-909.00,14,17.00,2.00,3.79,0.00,0.00,-2.00,0,,,100,100,0,2,0,0,0,1,0,,,,,0.0,0.0,0.0,0.0,0.0,0.0,0
34.182645,-118.129101,1.80,1.80,0.20,0.38,1.80,1.80,0.51,0.39,3020,2022-06-05 23:10:49.179,2022-06-05 16:10:49.179,16,0,0,15.466,34.182642,-118.129102,0.00,0.00,-0.20,-1.10,-2.70,-90.10,0,1,0,58,100,-8174,2084,15466,3201.50,4,WP,1,0,0,0,0,0,0,1654470649179,3934,3927,3935,3934,0,0,27,,,,,,,0,0,0,11.00,-27.00,-901.00,0.00,0.00,-987.00,14,18.00,2.00,3.82,0.00,0.00,-2.00,0,,,100,100,0,2,0,0,0,1,0,,,,,0.0,0.0,0.0,0.0,0.0,0.0,0
34.182645,-118.129101,1.80,1.80,0.20,0.37,1.80,1.80,0.51,0.39,3101,2022-06-05 23:10:49.261,2022-06-05 16:10:49.261,17,0,0,15.466,34.182642,-118.129102,0.00,0.00,-0.20,-1.60,-2.60,-97.70,0,1,0,58,100,-8174,2084,15466,3201.50,4,WP,1,0,0,0,0,0,0,1654470649260,3934,3927,3935,3934,0,0,27,,,,,,,0,0,0,16.00,-26.00,-977.00,0.00,0.00,-1063.00,14,18.00,2.00,3.73,0.00,0.00,-2.00,0,,,100,100,0,2,0,0,0,1,0,,,,,0.0,0.0,0.0,0.0,0.0,0.0,0
34.182645,-118.129101,1.80,1.80,0.20,0.37,1.80,1.80,0.51,0.39,3201,2022-06-05 23:10:49.361,2022-06-05 16:10:49.361,17,0,0,15.466,34.182642,-118.129102,0.00,0.00,-0.20,-1.90,-2.30,-105.30,0,1,0,58,100,-8174,2084,15466,3201.50,4,WP,1,0,0,0,0,0,0,1654470649360,3934,3927,3935,3934,0,0,27,,,,,,,0,0,0,19.00,-23.00,-1053.00,0.00,0.00,-1140.00,14,18.00,2.00,3.74,0.00,0.00,-2.00,0,,,100,100,0,2,0,0,0,1,0,,,,,0.0,0.0,0.0,0.0,0.0,0.0,0
34.182645,-118.129101,1.80,1.80,0.10,0.34,1.80,1.80,0.51,0.39,3301,2022-06-05 23:10:49.461,2022-06-05 16:10:49.461,17,0,0,15.466,34.182642,-118.129102,0.00,0.00,-0.10,-2.50,-2.00,-112.80,0,1,0,58,100,-8174,2084,15466,3201.50,4,WP,1,0,0,0,0,0,0,1654470649460,3934,3927,3935,3934,0,0,27,,,,,,,0,0,0,25.00,-20.00,-1128.00,0.00,0.00,-1216.00,14,18.00,1.00,3.44,0.00,0.00,-1.00,0,,,100,100,0,2,0,0,0,1,0,,,,,0.0,0.0,0.0,0.0,0.0,0.0,0
34.182645,-118.129101,1.80,1.90,0.10,0.34,1.80,1.80,0.51,0.39,3401,2022-06-05 23:10:49.561,2022-06-05 16:10:49.561,17,0,0,15.466,34.182642,-118.129102,0.00,0.00,-0.10,-2.60,-1.50,-120.30,0,1,0,58,100,-8174,2084,15466,3201.50,4,WP,1,0,0,0,0,0,0,1654470649560,3934,3927,3935,3934,0,0,27,,,,,,,0,0,0,26.00,-15.00,-1203.00,0.00,0.00,-1292.00,14,18.00,1.00,3.43,0.00,0.00,-1.00,0,,,100,100,0,2,0,0,0,1,0,,,,,0.0,0.0,0.0,0.0,0.0,0.0,0
34.182645,-118.129101,1.90,1.90,0.10,0.35,1.90,1.90,0.51,0.39,3503,2022-06-05 23:10:49.662,2022-06-05 16:10:49.662,17,0,0,15.466,34.182642,-118.129102,0.00,0.00,-0.10,-2.90,-1.10,-127.80,0,1,0,58,100,-8174,2084,15466,3201.50,4,WP,1,0,0,0,0,0,0,1654470649662,3873,3865,3872,3871,0,0,27,,,,,,,0,0,0,29.00,-11.00,-1278.00,0.00,0.00,-1368.00,14,19.00,1.00,3.51,0.00,0.00,-1.00,0,,,100,100,0,2,0,0,0,1,0,,,,,0.0,0.0,0.0,0.0,0.0,0.0,0
34.182645,-118.129101,1.90,1.90,0.10,0.35,1.90,1.90,0.51,0.39,3602,2022-06-05 23:10:49.761,2022-06-05 16:10:49.761,17,0,0,15.466,34.182642,-118.129102,0.00,0.00,-0.10,-2.80,-0.50,-135.30,0,1,0,58,100,-8174,2084,15466,3201.50,4,WP,1,0,0,0,0,0,0,1654470649761,3873,3865,3872,3871,0,0,27,,,,,,,0,0,0,28.00,-5.00,-1353.00,0.00,0.00,-1443.00,14,19.00,1.00,3.49,0.00,0.00,-1.00,0,,,100,100,0,2,0,0,0,1,0,,,,,0.0,0.0,0.0,0.0,0.0,0.0,0
34.182644,-118.129101,1.90,1.90,0.10,0.33,1.90,1.90,0.51,0.39,3702,2022-06-05 23:10:49.861,2022-06-05 16:10:49.862,17,0,0,15.466,34.182642,-118.129102,0.00,0.00,-0.10,-2.60,0.00,-142.80,0,1,0,58,100,-8174,2084,15466,3201.50,4,WP,1,0,0,0,0,0,0,1654470649861,3873,3865,3872,3871,0,0,27,,,,,,,0,0,0,26.00,0.00,-1428.00,0.00,0.00,-1518.00,14,19.00,1.00,3.27,0.00,0.00,-1.00,0,,,100,100,0,2,0,0,0,1,0,,,,,0.0,0.0,0.0,0.0,0.0,0.0,0
34.182644,-118.129101,1.90,1.90,0.10,0.32,1.90,1.90,0.51,0.39,3802,2022-06-05 23:10:49.961,2022-06-05 16:10:49.961,17,0,0,15.466,34.182642,-118.129102,0.00,0.00,-0.10,-2.40,0.00,-150.30,0,1,0,58,100,-8174,2084,15466,3201.50,4,WP,1,0,0,0,0,0,0,1654470649961,3873,3865,3872,3871,0,0,27,,,,,,,0,0,0,24.00,0.00,-1503.00,0.00,0.00,-1593.00,14,19.00,1.00,3.22,0.00,0.00,-1.00,0,,,100,100,0,2,0,0,0,1,0,,,,,0.0,0.0,0.0,0.0,0.0,0.0,0
34.182644,-118.129101,1.90,1.90,0.00,0.32,1.90,1.90,0.51,0.39,3902,2022-06-05 23:10:50.062,2022-06-05 16:10:50.062,17,0,0,15.471,34.182642,-118.129102,0.00,0.00,0.00,-2.40,0.10,-157.70,0,1,0,58,100,-7628,2079,15471,3201.50,4,WP,1,0,0,0,0,0,0,1654470650061,3873,3865,3872,3871,0,0,27,,,,,,,0,0,0,24.00,1.00,-1577.00,0.00,0.00,-1668.00,14,19.00,0.00,3.23,0.00,0.00,0.00,0,,,100,100,0,2,0,0,0,1,0,,,,,0.0,0.0,0.0,0.0,0.0,0.0,0
34.182644,-118.129101,1.90,1.90,0.00,0.32,1.90,1.90,0.51,0.39,4002,2022-06-05 23:10:50.161,2022-06-05 16:10:50.161,17,0,0,15.471,34.182642,-118.129102,0.00,0.00,0.00,-2.20,0.80,-165.10,0,1,0,58,100,-7628,2079,15471,3201.50,4,WP,1,0,0,0,0,0,0,1654470650161,3873,3865,3872,3871,0,0,27,,,,,,,0,0,0,22.00,8.00,-1651.00,0.00,0.00,-1743.00,14,19.00,0.00,3.16,0.00,0.00,0.00,0,,,100,100,0,2,0,0,0,1,0,,,,,0.0,0.0,0.0,0.0,0.0,0.0,0
34.182644,-118.129101,1.90,1.90,0.00,0.32,1.90,1.90,0.51,0.39,4101,2022-06-05 23:10:50.261,2022-06-05 16:10:50.261,17,0,0,15.471,34.182642,-118.129102,0.00,0.00,0.00,-1.90,0.90,-172.20,0,1,0,58,100,-7628,2079,15471,3201.50,4,WP,1,0,0,0,0,0,0,1654470650260,3873,3865,3872,3871,0,0,27,,,,,,,0,0,0,19.00,9.00,-1722.00,0.00,0.00,1782.00,14,19.00,0.00,3.18,0.00,0.00,0.00,0,,,100,100,0,2,0,0,0,1,0,,,,,0.0,0.0,0.0,0.0,0.0,0.0,0
34.182644,-118.129101,1.90,1.90,0.00,0.31,1.90,1.90,0.51,0.39,4201,2022-06-05 23:10:50.360,2022-06-05 16:10:50.360,17,0,0,15.471,34.182642,-118.129102,0.00,0.00,0.00,-1.70,1.00,-177.50,0,1,0,58,100,-7628,2079,15471,3201.50,4,WP,1,0,0,0,0,0,0,1654470650360,3873,3865,3872,3871,0,0,27,,,,,,,0,0,0,17.00,10.00,-1775.00,0.00,0.00,1715.00,14,19.00,0.00,3.11,0.00,0.00,0.00,0,,,100,100,0,2,0,0,0,1,0,,,,,0.0,0.0,0.0,0.0,0.0,0.0,0
34.182644,-118.129100,1.90,1.90,0.00,0.30,1.90,1.90,0.51,0.39,4303,2022-06-05 23:10:50.462,2022-06-05 16:10:50.462,17,0,0,15.471,34.182642,-118.129102,0.00,0.00,0.00,-1.30,1.90,179.00,0,1,0,58,100,-7628,2079,15471,3201.50,4,WP,1,0,0,0,0,0,0,1654470650462,3873,3865,3872,3871,0,0,27,,,,,,,0,0,0,13.00,19.00,1790.00,0.00,0.00,1665.00,14,19.00,0.00,3.00,0.00,0.00,0.00,0,,,100,100,0,2,0,0,0,1,0,,,,,0.0,0.0,0.0,0.0,0.0,0.0,0
34.182644,-118.129100,1.90,1.90,0.00,0.29,1.90,1.90,0.51,0.39,4401,2022-06-05 23:10:50.560,2022-06-05 16:10:50.560,17,0,0,15.471,34.182642,-118.129102,0.00,0.00,0.00,-0.90,2.10,176.90,0,1,0,58,100,-7628,2079,15471,3201.50,4,WP,1,0,0,0,0,0,0,1654470650560,3873,3865,3872,3871,0,0,27,,,,,,,0,0,0,9.00,21.00,1769.00,0.00,0.00,1632.00,14,19.00,0.00,2.92,0.00,0.00,0.00,0,,,100,100,0,2,0,0,0,1,0,,,,,0.0,0.0,0.0,0.0,0.0,0.0,0
34.182644,-118.129100,1.90,2.00,0.00,0.28,1.90,1.90,0.51,0.39,4502,2022-06-05 23:10:50.661,2022-06-05 16:10:50.661,17,0,0,15.471,34.182642,-118.129102,0.00,0.00,0.00,-0.70,1.70,175.50,0,1,0,58,100,-7628,2079,15471,3201.50,4,WP,1,0,0,0,0,0,0,1654470650661,3873,3865,3872,3871,0,0,27,,,,,,,0,0,0,7.00,17.00,1755.00,0.00,0.00,1611.00,14,19.00,0.00,2.83,0.00,0.00,0.00,0,,,100,100,0,2,0,0,0,1,0,,,,,0.0,0.0,0.0,0.0,0.0,0.0,0
34.182644,-118.129100,1.90,2.00,0.00,0.28,1.90,1.90,0.51,0.39,4602,2022-06-05 23:10:50.761,2022-06-05 16:10:50.761,17,0,0,15.471,34.182642,-118.129102,0.00,0.00,0.00,-0.60,1.40,174.60,0,1,0,58,100,-7628,2079,15471,3201.50,4,WP,1,0,0,0,0,0,0,1654470650761,3873,3865,3872,3871,0,0,27,,,,,,,0,0,0,6.00,14.00,1746.00,0.00,0.00,1596.00,14,19.00,0.00,2.75,0.00,0.00,0.00,0,,,100,100,0,2,0,0,0,1,0,,,,,0.0,0.0,0.0,0.0,0.0,0.0,0
34.182644,-118.129100,1.90,2.00,0.00,0.29,1.90,1.90,0.51,0.39,4702,2022-06-05 23:10:50.861,2022-06-05 16:10:50.861,17,0,0,15.471,34.182642,-118.129102,0.00,0.00,0.00,-0.70,1.60,174.40,0,1,0,58,100,-7628,2079,15471,3201.50,4,WP,1,0,0,0,0,0,0,1654470650861,3873,3865,3872,3871,0,0,27,,,,,,,0,0,0,7.00,16.00,1744.00,0.00,0.00,1587.00,14,19.00,0.00,2.88,0.00,0.00,0.00,0,,,100,100,0,2,0,0,0,1,0,,,,,0.0,0.0,0.0,0.0,0.0,0.0,0
34.182644,-118.129100,1.90,2.00,0.00,0.28,1.90,1.90,0.51,0.39,4802,2022-06-05 23:10:50.961,2022-06-05 16:10:50.961,17,0,0,15.471,34.182642,-118.129102,0.00,0.00,0.00,-0.90,1.70,174.30,0,1,0,58,100,-7628,2079,15471,3201.50,4,WP,1,0,0,0,0,0,0,1654470650961,3873,3865,3872,3871,0,0,27,,,,,,,0,0,0,9.00,17.00,1743.00,0.00,0.00,1583.00,14,19.00,0.00,2.85,0.00,0.00,0.00,0,,,100,100,0,2,0,0,0,1,0,,,,,0.0,0.0,0.0,0.0,0.0,0.0,0
34.182643,-118.129100,1.90,2.00,0.00,0.27,1.90,1.90,0.51,0.39,4902,2022-06-05 23:10:51.062,2022-06-05 16:10:51.062,16,0,0,15.471,34.182642,-118.129102,0.00,0.00,0.00,-1.00,2.00,174.40,0,1,0,58,100,-7628,2079,15471,3201.50,4,WP,1,0,0,0,0,0,0,1654470651061,3873,3865,3872,3871,0,0,27,,,,,,,0,0,0,10.00,20.00,1744.00,0.00,0.00,1581.00,14,19.00,0.00,2.73,0.00,0.00,0.00,0,,,100,100,0,2,0,0,0,1,0,,,,,0.0,0.0,0.0,0.0,0.0,0.0,0
34.182643,-118.129100,1.90,2.00,0.00,0.27,1.90,1.90,0.51,0.39,5001,2022-06-05 23:10:51.161,2022-06-05 16:10:51.161,16,0,0,15.471,34.182642,-118.129102,0.00,0.00,0.00,-0.90,1.70,174.40,0,1,0,58,100,-7628,2079,15471,3201.50,4,WP,1,0,0,0,0,0,0,1654470651160,3873,3865,3872,3871,0,0,27,,,,,,,0,0,0,9.00,17.00,1744.00,0.00,0.00,1580.00,14,19.00,0.00,2.70,0.00,0.00,0.00,0,,,100,100,0,2,0,0,0,1,0,,,,,0.0,0.0,0.0,0.0,0.0,0.0,0
34.182643,-118.129100,1.90,2.00,0.00,0.27,1.90,1.90,0.51,0.39,5101,2022-06-05 23:10:51.261,2022-06-05 16:10:51.261,17,0,0,15.471,34.182642,-118.129102,0.00,0.00,0.00,-5.50,1.20,174.40,0,1,0,58,100,-7628,2079,15471,3201.50,4,WP,1,0,0,0,0,0,0,1654470651260,3873,3865,3872,3871,0,0,27,,,,,,,0,0,0,55.00,12.00,1744.00,0.00,0.00,1580.00,14,19.00,0.00,2.70,0.00,0.00,0.00,0,,,100,100,0,2,0,0,0,1,0,,,,,0.0,0.0,0.0,0.0,0.0,0.0,0
34.182643,-118.129100,1.90,2.00,0.10,0.27,1.90,1.90,0.51,0.39,5201,2022-06-05 23:10:51.361,2022-06-05 16:10:51.361,17,0,0,15.471,34.182642,-118.129102,-0.10,0.00,0.00,-10.60,1.50,174.30,0,1,0,58,100,-7628,2079,15471,3201.50,4,WP,1,0,0,0,0,0,0,1654470651360,3873,3865,3872,3871,0,0,27,,,,,,,0,0,0,106.00,15.00,1743.00,0.00,0.00,1579.00,14,19.00,1.00,2.66,-1.00,0.00,0.00,0,,,100,100,0,2,0,0,0,1,0,,,,,0.0,0.0,0.0,0.0,0.0,0.0,0
34.182643,-118.129100,1.90,1.90,0.30,0.27,1.90,1.90,0.51,0.39,5302,2022-06-05 23:10:51.462,2022-06-05 16:10:51.462,17,0,0,15.471,34.182642,-118.129102,-0.30,0.00,0.00,-14.60,1.70,174.10,0,1,0,58,100,-7628,2079,15471,3201.50,4,WP,1,0,0,0,0,0,0,1654470651461,3873,3865,3872,3871,0,0,27,,,,,,,0,0,0,146.00,17.00,1741.00,0.00,0.00,1579.00,14,19.00,3.00,2.73,-3.00,0.00,0.00,0,,,100,100,0,2,0,0,0,1,0,,,,,0.0,0.0,0.0,0.0,0.0,0.0,0
34.182643,-118.129100,1.90,1.90,0.50,0.26,1.90,1.90,0.51,0.39,5402,2022-06-05 23:10:51.562,2022-06-05 16:10:51.562,17,0,0,15.471,34.182642,-118.129102,-0.50,0.00,0.00,-17.50,1.90,174.00,0,1,0,58,100,-7628,2079,15471,3201.50,4,WP,1,0,0,0,0,0,0,1654470651561,3873,3865,3872,3871,0,0,27,,,,,,,0,0,0,175.00,19.00,1740.00,0.00,0.00,1579.00,14,19.00,5.00,2.56,-5.00,0.00,0.00,0,,,100,100,0,2,0,0,0,1,0,,,,,0.0,0.0,0.0,0.0,0.0,0.0,0
34.182642,-118.129100,1.90,1.90,0.81,0.25,1.90,1.90,0.81,0.39,5502,2022-06-05 23:10:51.661,2022-06-05 16:10:51.662,17,0,0,15.471,34.182642,-118.129102,-0.80,0.10,0.00,-19.50,2.20,173.90,0,1,0,58,100,-7628,2079,15471,3201.50,4,WP,1,0,0,0,0,0,0,1654470651661,3873,3865,3872,3871,0,0,27,,,,,,,0,0,0,195.00,22.00,1739.00,0.00,0.00,1579.00,14,19.00,8.06,2.48,-8.00,1.00,0.00,0,,,100,100,0,2,0,0,0,1,0,,,,,0.0,0.0,0.0,0.0,0.0,0.0,0
34.182641,-118.129100,1.90,1.90,1.10,0.25,1.90,1.90,1.10,0.39,5603,2022-06-05 23:10:51.762,2022-06-05 16:10:51.762,17,0,0,15.471,34.182642,-118.129102,-1.10,0.10,0.00,-20.90,2.10,173.90,0,1,0,58,100,-7628,2079,15471,3201.50,4,WP,1,0,0,0,0,0,0,1654470651762,3873,3865,3872,3871,0,0,27,,,,,,,0,0,0,209.00,21.00,1739.00,0.00,0.00,1579.00,14,19.00,11.05,2.55,-11.00,1.00,0.00,0,,,100,100,0,2,0,0,0,1,0,,,,,0.0,0.0,0.0,0.0,0.0,0.0,0
34.182640,-118.129100,1.90,2.00,1.40,0.30,1.90,1.90,1.40,0.39,5702,2022-06-05 23:10:51.862,2022-06-05 16:10:51.862,17,0,0,15.471,34.182642,-118.129102,-1.40,0.10,0.00,-21.90,1.80,173.90,0,1,0,58,100,-7628,2079,15471,3201.50,4,WP,1,0,0,0,0,0,0,1654470651861,3873,3865,3872,3871,0,0,27,,,,,,,0,0,0,219.00,18.00,1739.00,0.00,0.00,1579.00,14,19.00,14.04,2.98,-14.00,1.00,0.00,0,,,100,100,0,2,0,0,0,1,0,,,,,0.0,0.0,0.0,0.0,0.0,0.0,0
34.182639,-118.129099,1.90,2.00,1.80,0.42,1.90,1.90,1.80,0.42,5802,2022-06-05 23:10:51.962,2022-06-05 16:10:51.962,17,0,0,15.471,34.182642,-118.129102,-1.80,0.10,0.00,-22.50,1.80,174.00,0,1,0,58,100,-7628,2079,15471,3201.50,4,WP,1,0,0,0,0,0,0,1654470651961,3873,3865,3872,3871,0,0,27,,,,,,,0,0,0,225.00,18.00,1740.00,0.00,0.00,1579.00,14,19.00,18.03,4.19,-18.00,1.00,0.00,0,,,100,100,0,2,0,0,0,1,0,,,,,0.0,0.0,0.0,0.0,0.0,0.0,0
34.182637,-118.129099,1.90,2.00,2.11,0.57,1.90,1.90,2.11,0.57,5902,2022-06-05 23:10:52.062,2022-06-05 16:10:52.062,17,0,0,15.471,34.182642,-118.129102,-2.10,0.20,0.00,-22.90,2.10,173.90,0,1,0,58,100,-7628,2079,15471,3201.50,4,WP,1,0,0,0,0,0,0,1654470652061,3873,3865,3872,3871,0,0,27,,,,,,,0,0,0,229.00,21.00,1739.00,0.00,0.00,1579.00,14,19.00,21.10,5.66,-21.00,2.00,0.00,0,,,100,100,0,2,0,0,0,1,0,,,,,0.0,0.0,0.0,0.0,0.0,0.0,0
34.182635,-118.129099,1.90,1.90,2.41,0.78,1.90,1.90,2.41,0.78,6003,2022-06-05 23:10:52.162,2022-06-05 16:10:52.162,17,0,0,15.466,34.182642,-118.129102,-2.40,0.20,0.00,-22.70,2.00,173.90,0,1,0,57,100,-7684,2077,15466,3201.50,4,WP,1,0,0,0,0,0,0,1654470652162,3873,3865,3872,3871,0,0,27,,,,,,,0,0,0,227.00,20.00,1739.00,0.00,0.00,1579.00,14,19.00,24.08,7.85,-24.00,2.00,0.00,0,,,100,100,0,2,0,0,0,1,0,,,,,0.0,0.0,0.0,0.0,0.0,0.0,0
34.182633,-118.129099,1.90,2.00,2.81,1.02,1.90,1.90,2.81,1.02,6102,2022-06-05 23:10:52.261,2022-06-05 16:10:52.261,17,0,0,15.466,34.182642,-118.129102,-2.80,0.20,0.00,-21.80,1.90,174.00,0,1,0,57,100,-7684,2077,15466,3201.50,4,WP,1,0,0,0,0,0,0,1654470652261,3873,3865,3872,3871,0,0,27,,,,,,,0,0,0,218.00,19.00,1740.00,0.00,0.00,1579.00,14,19.00,28.07,10.22,-28.00,2.00,0.00,0,,,100,100,0,2,0,0,0,1,0,,,,,0.0,0.0,0.0,0.0,0.0,0.0,0
34.182630,-118.129099,1.90,2.00,3.11,1.32,1.90,1.90,3.11,1.32,6202,2022-06-05 23:10:52.362,2022-06-05 16:10:52.362,17,0,0,15.466,34.182642,-118.129102,-3.10,0.20,0.00,-21.10,1.10,174.00,0,1,0,57,100,-7684,2077,15466,3201.50,4,WP,1,0,0,0,0,0,0,1654470652361,3873,3865,3872,3871,0,0,27,,,,,,,0,0,0,211.00,11.00,1740.00,0.00,0.00,1579.00,14,19.00,31.06,13.16,-31.00,2.00,0.00,0,,,100,100,0,2,0,0,0,1,0,,,,,0.0,0.0,0.0,0.0,0.0,0.0,0
34.182627,-118.129099,1.90,2.00,3.41,1.62,1.90,1.90,3.41,1.62,6303,2022-06-05 23:10:52.462,2022-06-05 16:10:52.462,17,0,0,15.466,34.182642,-118.129102,-3.40,0.20,0.00,-20.90,0.50,174.30,0,1,0,57,100,-7684,2077,15466,3201.50,4,WP,1,0,0,0,0,0,0,1654470652462,3873,3865,3872,3871,0,0,27,,,,,,,0,0,0,209.00,5.00,1743.00,0.00,0.00,1579.00,14,19.00,34.06,16.24,-34.00,2.00,0.00,0,,,100,100,0,2,0,0,0,1,0,,,,,0.0,0.0,0.0,0.0,0.0,0.0,0
34.182624,-118.129099,2.00,2.00,3.71,1.98,2.00,2.00,3.71,1.98,6403,2022-06-05 23:10:52.562,2022-06-05 16:10:52.562,17,0,0,15.466,34.182642,-118.129102,-3.70,0.30,0.00,-20.90,0.10,174.30,0,1,0,57,100,-7684,2077,15466,3201.50,4,WP,1,0,0,0,0,0,0,1654470652562,3873,3865,3872,3871,0,0,27,,,,,,,0,0,0,209.00,1.00,1743.00,0.00,0.00,1579.00,14,20.00,37.12,19.78,-37.00,3.00,0.00,0,,,100,100,0,2,0,0,0,1,0,,,,,0.0,0.0,0.0,0.0,0.0,0.0,0
34.182621,-118.129099,2.00,2.00,3.91,2.32,2.00,2.00,3.91,2.32,6503,2022-06-05 23:10:52.662,2022-06-05 16:10:52.662,17,0,0,15.466,34.182642,-118.129102,-3.90,0.30,0.00,-18.40,0.20,174.60,0,1,0,57,100,-7684,2077,15466,3201.50,4,WP,1,0,0,0,0,0,0,1654470652662,3873,3865,3872,3871,0,0,27,,,,,,,0,0,0,184.00,2.00,1746.00,0.00,0.00,1579.00,14,20.00,39.12,23.23,-39.00,3.00,0.00,0,,,100,100,0,2,0,0,0,1,0,,,,,0.0,0.0,0.0,0.0,0.0,0.0,0
34.182617,-118.129099,1.90,2.00,4.21,2.73,2.00,2.00,4.21,2.73,6602,2022-06-05 23:10:52.761,2022-06-05 16:10:52.761,17,0,0,15.466,34.182642,-118.129102,-4.20,0.30,0.00,-14.60,-1.00,174.60,0,1,0,57,100,-7684,2077,15466,3201.50,4,WP,1,0,0,0,0,0,0,1654470652761,3873,3865,3872,3871,0,0,27,,,,,,,0,0,0,146.00,-10.00,1746.00,0.00,0.00,1579.00,14,19.00,42.11,27.26,-42.00,3.00,0.00,0,,,100,100,0,2,0,0,0,1,0,,,,,0.0,0.0,0.0,0.0,0.0,0.0,0
34.182613,-118.129099,2.00,2.00,4.31,3.16,2.00,2.00,4.31,3.16,6703,2022-06-05 23:10:52.862,2022-06-05 16:10:52.862,17,0,0,15.466,34.182642,-118.129102,-4.30,0.30,0.00,-11.20,-0.90,174.70,0,1,0,57,100,-7684,2077,15466,3201.50,4,WP,1,0,0,0,0,0,0,1654470652862,3873,3865,3872,3871,0,0,27,,,,,,,0,0,0,112.00,-9.00,1747.00,0.00,0.00,1579.00,14,20.00,43.10,31.59,-43.00,3.00,0.00,0,,,100,100,0,2,0,0,0,1,0,,,,,0.0,0.0,0.0,0.0,0.0,0.0,0
34.182609,-118.129099,2.00,2.00,4.42,3.59,2.00,2.00,4.42,3.59,6803,2022-06-05 23:10:52.962,2022-06-05 16:10:52.962,17,0,0,15.466,34.182642,-118.129102,-4.40,0.40,0.00,-7.90,-0.80,174.50,0,1,0,57,100,-7684,2077,15466,3201.50,4,WP,1,0,0,0,0,0,0,1654470652962,3873,3865,3872,3871,0,0,27,,,,,,,0,0,0,79.00,-8.00,1745.00,0.00,0.00,1579.00,14,20.00,44.18,35.91,-44.00,4.00,0.00,0,,,100,100,0,2,0,0,0,1,0,,,,,0.0,0.0,0.0,0.0,0.0,0.0,0
34.182605,-118.129099,2.00,2.00,4.42,4.05,2.00,2.00,4.42,4.05,6902,2022-06-05 23:10:53.062,2022-06-05 16:10:53.062,17,0,0,15.466,34.182642,-118.129102,-4.40,0.40,0.00,-1.00,-0.50,174.70,0,1,0,57,100,-7684,2077,15466,3201.50,4,WP,1,0,0,0,0,0,0,1654470653061,3873,3865,3872,3871,0,0,27,,,,,,,0,0,0,10.00,-5.00,1747.00,0.00,0.00,1579.00,14,20.00,44.18,40.51,-44.00,4.00,0.00,0,,,100,100,0,2,0,0,0,1,0,,,,,0.0,0.0,0.0,0.0,0.0,0.0,0
34.182601,-118.129099,2.00,2.00,4.33,4.49,2.00,2.00,4.42,4.49,7005,2022-06-05 23:10:53.164,2022-06-05 16:10:53.165,17,0,0,15.466,34.182642,-118.129102,-4.30,0.50,-0.10,5.30,-0.60,174.60,0,1,0,57,100,-7684,2077,15466,3201.50,4,WP,1,0,0,0,0,0,0,1654470653164,3873,3865,3872,3871,0,0,27,,,,,,,0,0,0,-53.00,-6.00,1746.00,0.00,0.00,1579.00,14,20.00,43.30,44.86,-43.00,5.00,-1.00,0,,,100,100,0,2,0,0,0,1,0,,,,,0.0,0.0,0.0,0.0,0.0,0.0,0
34.182598,-118.129099,2.00,2.00,4.22,4.90,2.00,2.00,4.42,4.90,7101,2022-06-05 23:10:53.261,2022-06-05 16:10:53.261,16,0,0,15.466,34.182642,-118.129102,-4.20,0.40,0.00,9.60,-0.30,175.00,0,1,0,57,100,-7684,2077,15466,3201.50,4,WP,1,0,0,0,0,0,0,1654470653260,3873,3865,3872,3871,0,0,27,,,,,,,0,0,0,-96.00,-3.00,1750.00,0.00,0.00,1579.00,14,20.00,42.19,48.98,-42.00,4.00,0.00,0,,,100,100,0,2,0,0,0,1,0,,,,,0.0,0.0,0.0,0.0,0.0,0.0,0
34.182594,-118.129099,2.00,2.00,3.93,5.30,2.00,2.00,4.42,5.30,7202,2022-06-05 23:10:53.362,2022-06-05 16:10:53.362,16,0,0,15.466,34.182642,-118.129102,-3.90,0.50,0.00,12.30,-1.10,174.80,0,1,0,57,100,-7684,2077,15466,3201.50,4,WP,1,0,0,0,0,0,0,1654470653361,3873,3865,3872,3871,0,0,27,,,,,,,0,0,0,-123.00,-11.00,1748.00,0.00,0.00,1579.00,14,20.00,39.32,52.96,-39.00,5.00,0.00,0,,,100,100,0,2,0,0,0,1,0,,,,,0.0,0.0,0.0,0.0,0.0,0.0,0
34.182590,-118.129099,1.90,2.00,3.73,5.71,2.00,2.00,4.42,5.71,7302,2022-06-05 23:10:53.462,2022-06-05 16:10:53.462,16,0,0,15.466,34.182642,-118.129102,-3.70,0.50,0.00,13.80,-1.60,174.90,0,1,0,57,100,-7684,2077,15466,3201.50,4,WP,1,0,0,0,0,0,0,1654470653461,3873,3865,3872,3871,0,0,27,,,,,,,0,0,0,-138.00,-16.00,1749.00,0.00,0.00,1579.00,14,19.00,37.34,57.13,-37.00,5.00,0.00,0,,,100,100,0,2,0,0,0,1,0,,,,,0.0,0.0,0.0,0.0,0.0,0.0,0
34.182587,-118.129098,1.90,2.00,3.44,6.06,2.00,2.00,4.42,6.06,7402,2022-06-05 23:10:53.562,2022-06-05 16:10:53.562,16,0,0,15.466,34.182642,-118.129102,-3.40,0.50,0.00,15.80,-2.00,174.70,0,1,0,57,100,-7684,2077,15466,3201.50,4,WP,1,0,0,0,0,0,0,1654470653561,3873,3865,3872,3871,0,0,27,,,,,,,0,0,0,-158.00,-20.00,1747.00,0.00,0.00,1579.00,14,19.00,34.37,60.62,-34.00,5.00,0.00,0,,,100,100,0,2,0,0,0,1,0,,,,,0.0,0.0,0.0,0.0,0.0,0.0,0
34.182584,-118.129098,1.90,2.00,3.14,6.42,2.00,2.00,4.42,6.42,7502,2022-06-05 23:10:53.661,2022-06-05 16:10:53.661,16,0,0,15.466,34.182642,-118.129102,-3.10,0.50,0.10,17.80,-1.50,174.90,0,1,0,57,100,-7684,2077,15466,3201.50,4,WP,1,0,0,0,0,0,0,1654470653661,3873,3865,3872,3871,0,0,27,,,,,,,0,0,0,-178.00,-15.00,1749.00,0.00,0.00,1579.00,14,19.00,31.42,64.25,-31.00,5.00,1.00,0,,,100,100,0,2,0,0,0,1,0,,,,,0.0,0.0,0.0,0.0,0.0,0.0,0
34.182581,-118.129098,1.90,2.00,2.77,6.71,2.00,2.00,4.42,6.71,7603,2022-06-05 23:10:53.762,2022-06-05 16:10:53.762,16,0,0,15.466,34.182642,-118.129102,-2.70,0.60,0.10,18.30,-1.00,175.00,0,1,0,57,100,-7684,2077,15466,3201.50,4,WP,1,0,0,0,0,0,0,1654470653762,3873,3865,3872,3871,0,0,27,,,,,,,0,0,0,-183.00,-10.00,1750.00,0.00,0.00,1579.00,14,19.00,27.68,67.11,-27.00,6.00,1.00,0,,,100,100,0,2,0,0,0,1,0,,,,,0.0,0.0,0.0,0.0,0.0,0.0,0
34.182579,-118.129097,1.90,2.00,2.38,7.00,2.00,2.00,4.42,7.00,7703,2022-06-05 23:10:53.862,2022-06-05 16:10:53.862,16,0,0,15.466,34.182642,-118.129102,-2.30,0.60,0.10,17.30,0.00,175.10,0,1,0,57,100,-7684,2077,15466,3201.50,4,WP,1,0,0,0,0,0,0,1654470653862,3873,3865,3872,3871,0,0,27,,,,,,,0,0,0,-173.00,0.00,1751.00,0.00,0.00,1579.00,14,19.00,23.79,70.02,-23.00,6.00,1.00,0,,,100,100,0,2,0,0,0,1,0,,,,,0.0,0.0,0.0,0.0,0.0,0.0,0
34.182577,-118.129097,1.80,2.00,2.09,7.22,2.00,2.00,4.42,7.22,7804,2022-06-05 23:10:53.964,2022-06-05 16:10:53.964,16,0,0,15.466,34.182642,-118.129102,-2.00,0.60,0.10,15.40,1.40,175.20,0,1,0,57,100,-7684,2077,15466,3201.50,4,WP,1,0,0,0,0,0,0,1654470653963,3873,3865,3872,3871,0,0,27,,,,,,,0,0,0,-154.00,14.00,1752.00,0.00,0.00,1579.00,14,18.00,20.90,72.21,-20.00,6.00,1.00,0,,,100,100,0,2,0,0,0,1,0,,,,,0.0,0.0,0.0,0.0,0.0,0.0,0
34.182575,-118.129096,1.80,2.00,1.80,7.42,2.00,2.00,4.42,7.42,7903,2022-06-05 23:10:54.062,2022-06-05 16:10:54.062,16,0,0,15.419,34.182642,-118.129102,-1.70,0.60,0.00,11.50,2.20,175.10,0,1,0,57,100,-8787,2072,15419,3201.50,4,WP,1,0,0,0,0,0,0,1654470654062,3873,3865,3872,3871,0,0,27,,,,,,,0,0,0,-115.00,22.00,1751.00,0.00,0.00,1579.00,14,18.00,18.03,74.22,-17.00,6.00,0.00,0,,,100,100,0,2,0,0,0,1,0,,,,,0.0,0.0,0.0,0.0,0.0,0.0,0
34.182574,-118.129096,1.80,2.00,1.58,7.59,2.00,2.00,4.42,7.59,8003,2022-06-05 23:10:54.163,2022-06-05 16:10:54.163,16,0,0,15.419,34.182642,-118.129102,-1.50,0.50,0.00,8.10,2.40,174.80,0,1,0,57,100,-8787,2072,15419,3201.50,4,WP,1,0,0,0,0,0,0,1654470654162,3873,3865,3872,3871,0,0,27,,,,,,,0,0,0,-81.00,24.00,1748.00,0.00,0.00,1579.00,14,18.00,15.81,75.85,-15.00,5.00,0.00,0,,,100,100,0,2,0,0,0,1,0,,,,,0.0,0.0,0.0,0.0,0.0,0.0,0
34.182572,-118.129095,1.80,2.00,1.39,7.75,2.00,2.00,4.42,7.75,8103,2022-06-05 23:10:54.262,2022-06-05 16:10:54.262,16,0,0,15.419,34.182642,-118.129102,-1.30,0.50,0.00,6.40,2.80,174.70,0,1,0,57,100,-8787,2072,15419,3201.50,4,WP,1,0,0,0,0,0,0,1654470654262,3873,3865,3872,3871,0,0,27,,,,,,,0,0,0,-64.00,28.00,1747.00,0.00,0.00,1579.00,14,18.00,13.93,77.53,-13.00,5.00,0.00,0,,,100,100,0,2,0,0,0,1,0,,,,,0.0,0.0,0.0,0.0,0.0,0.0,0
34.182571,-118.129094,1.80,2.00,1.30,7.88,2.00,2.00,4.42,7.88,8203,2022-06-05 23:10:54.362,2022-06-05 16:10:54.362,16,0,0,15.419,34.182642,-118.129102,-1.20,0.50,0.00,6.00,3.00,174.60,0,1,0,57,100,-8787,2072,15419,3201.50,4,WP,1,0,0,0,0,0,0,1654470654362,3873,3865,3872,3871,0,0,27,,,,,,,0,0,0,-60.00,30.00,1746.00,0.00,0.00,1579.00,14,18.00,13.00,78.85,-12.00,5.00,0.00,0,,,100,100,0,2,0,0,0,1,0,,,,,0.0,0.0,0.0,0.0,0.0,0.0,0
34.182570,-118.129094,1.80,2.00,1.08,8.00,2.00,2.00,4.42,8.00,8302,2022-06-05 23:10:54.462,2022-06-05 16:10:54.462,16,0,0,15.419,34.182642,-118.129102,-1.00,0.40,0.00,5.40,3.30,174.60,0,1,0,57,100,-8787,2072,15419,3201.50,4,WP,1,0,0,0,0,0,0,1654470654461,3873,3865,3872,3871,0,0,27,,,,,,,0,0,0,-54.00,33.00,1746.00,0.00,0.00,1579.00,14,18.00,10.77,80.01,-10.00,4.00,0.00,0,,,100,100,0,2,0,0,0,1,0,,,,,0.0,0.0,0.0,0.0,0.0,0.0,0
34.182569,-118.129093,1.80,2.00,0.98,8.11,2.00,2.00,4.42,8.11,8402,2022-06-05 23:10:54.562,2022-06-05 16:10:54.562,16,0,0,15.419,34.182642,-118.129102,-0.90,0.40,0.00,4.40,3.50,174.50,0,1,0,57,100,-8787,2072,15419,3201.50,4,WP,1,0,0,0,0,0,0,1654470654561,3873,3865,3872,3871,0,0,27,,,,,,,0,0,0,-44.00,35.00,1745.00,0.00,0.00,1579.00,14,18.00,9.85,81.08,-9.00,4.00,0.00,0,,,100,100,0,2,0,0,0,1,0,,,,,0.0,0.0,0.0,0.0,0.0,0.0,0
34.182568,-118.129092,1.80,2.00,0.89,8.20,2.00,2.00,4.42,8.20,8504,2022-06-05 23:10:54.664,2022-06-05 16:10:54.664,16,0,0,15.419,34.182642,-118.129102,-0.80,0.40,0.00,3.60,3.90,174.50,0,1,0,57,100,-8787,2072,15419,3201.50,4,WP,1,0,0,0,0,0,0,1654470654663,3873,3865,3872,3871,0,0,27,,,,,,,0,0,0,-36.00,39.00,1745.00,0.00,0.00,1578.00,14,18.00,8.94,82.03,-8.00,4.00,0.00,0,,,100,100,0,2,0,0,0,1,0,,,,,0.0,0.0,0.0,0.0,0.0,0.0,0
34.182567,-118.129092,1.80,2.00,0.76,8.29,2.00,2.00,4.42,8.29,8606,2022-06-05 23:10:54.766,2022-06-05 16:10:54.766,16,0,0,15.419,34.182642,-118.129102,-0.70,0.30,0.00,3.00,4.50,174.50,0,1,0,57,100,-8787,2072,15419,3201.50,4,WP,1,0,0,0,0,0,0,1654470654765,3873,3865,3872,3871,0,0,27,,,,,,,0,0,0,-30.00,45.00,1745.00,0.00,0.00,1578.00,14,18.00,7.62,82.92,-7.00,3.00,0.00,0,,,100,100,0,2,0,0,0,1,0,,,,,0.0,0.0,0.0,0.0,0.0,0.0,0
34.182567,-118.129091,1.80,2.00,0.67,8.34,2.00,2.00,4.42,8.34,8702,2022-06-05 23:10:54.862,2022-06-05 16:10:54.862,16,0,0,15.419,34.182642,-118.129102,-0.60,0.30,0.00,2.20,4.60,174.50,0,1,0,57,100,-8787,2072,15419,3201.50,4,WP,1,0,0,0,0,0,0,1654470654861,3873,3865,3872,3871,0,0,27,,,,,,,0,0,0,-22.00,46.00,1745.00,0.00,0.00,1578.00,14,18.00,6.71,83.37,-6.00,3.00,0.00,0,,,100,100,0,2,0,0,0,1,0,,,,,0.0,0.0,0.0,0.0,0.0,0.0,0
34.182566,-118.129091,1.80,2.00,0.63,8.41,2.00,2.00,4.42,8.41,8802,2022-06-05 23:10:54.962,2022-06-05 16:10:54.962,16,0,0,15.419,34.182642,-118.129102,-0.60,0.20,0.00,1.80,5.00,174.50,0,1,0,57,100,-8787,2072,15419,3201.50,4,WP,1,0,0,0,0,0,0,1654470654961,3873,3865,3872,3871,0,0,27,,,,,,,0,0,0,-18.00,50.00,1745.00,0.00,0.00,1578.00,14,18.00,6.32,84.09,-6.00,2.00,0.00,0,,,100,100,0,2,0,0,0,1,0,,,,,0.0,0.0,0.0,0.0,0.0,0.0,0
34.182566,-118.129091,1.80,2.00,0.54,8.48,2.00,2.00,4.42,8.48,8902,2022-06-05 23:10:55.062,2022-06-05 16:10:55.062,16,0,0,15.419,34.182642,-118.129102,-0.50,0.20,0.00,2.30,4.90,174.50,0,1,0,57,100,-8787,2072,15419,3201.50,4,WP,1,0,0,0,0,0,0,1654470655061,3873,3865,3872,3871,0,0,27,,,,,,,0,0,0,-23.00,49.00,1745.00,0.00,0.00,1578.00,14,18.00,5.39,84.77,-5.00,2.00,0.00,0,,,100,100,0,2,0,0,0,1,0,,,,,0.0,0.0,0.0,0.0,0.0,0.0,0
34.182565,-118.129090,1.80,2.00,0.51,8.54,2.00,2.00,4.42,8.54,9003,2022-06-05 23:10:55.163,2022-06-05 16:10:55.163,16,0,0,15.419,34.182642,-118.129102,-0.50,0.10,0.00,2.70,4.90,174.60,0,1,0,57,100,-8787,2072,15419,3201.50,4,WP,1,0,0,0,0,0,0,1654470655162,3873,3865,3872,3871,0,0,27,,,,,,,0,0,0,-27.00,49.00,1746.00,0.00,0.00,1578.00,14,18.00,5.10,85.37,-5.00,1.00,0.00,0,,,100,100,0,2,0,0,0,1,0,,,,,0.0,0.0,0.0,0.0,0.0,0.0,0
34.182565,-118.129090,1.80,2.00,0.41,8.56,2.00,2.00,4.42,8.56,9103,2022-06-05 23:10:55.262,2022-06-05 16:10:55.262,16,0,0,15.419,34.182642,-118.129102,-0.40,0.10,0.00,2.50,4.70,174.50,0,1,0,57,100,-8787,2072,15419,3201.50,4,WP,1,0,0,0,0,0,0,1654470655262,3873,3865,3872,3871,0,0,27,,,,,,,0,0,0,-25.00,47.00,1745.00,0.00,0.00,1578.00,14,18.00,4.12,85.55,-4.00,1.00,0.00,0,,,100,100,0,2,0,0,0,1,0,,,,,0.0,0.0,0.0,0.0,0.0,0.0,0
34.182565,-118.129090,1.80,1.90,0.30,8.60,2.00,2.00,4.42,8.60,9203,2022-06-05 23:10:55.362,2022-06-05 16:10:55.362,16,0,0,15.419,34.182642,-118.129102,-0.30,0.00,0.00,2.00,4.30,174.40,0,1,0,57,100,-8787,2072,15419,3201.50,4,WP,1,0,0,0,0,0,0,1654470655362,3873,3865,3872,3871,0,0,27,,,,,,,0,0,0,-20.00,43.00,1744.00,0.00,0.00,1578.00,14,18.00,3.00,85.99,-3.00,0.00,0.00,0,,,100,100,0,2,0,0,0,1,0,,,,,0.0,0.0,0.0,0.0,0.0,0.0,0
34.182565,-118.129090,1.70,1.90,0.30,8.64,2.00,2.00,4.42,8.64,9302,2022-06-05 23:10:55.462,2022-06-05 16:10:55.462,16,0,0,15.419,34.182642,-118.129102,-0.30,0.00,0.00,3.10,2.60,174.30,0,1,0,57,100,-8787,2072,15419,3201.50,4,WP,1,0,0,0,0,0,0,1654470655461,3873,3865,3872,3871,0,0,27,,,,,,,0,0,0,-31.00,26.00,1743.00,0.00,0.00,1578.00,14,17.00,3.00,86.42,-3.00,0.00,0.00,0,,,100,100,0,2,0,0,0,1,0,,,,,0.0,0.0,0.0,0.0,0.0,0.0,0
34.182564,-118.129090,1.70,1.90,0.20,8.67,2.00,2.00,4.42,8.67,9403,2022-06-05 23:10:55.562,2022-06-05 16:10:55.562,16,0,0,15.419,34.182642,-118.129102,-0.20,0.00,0.00,5.20,-0.10,174.40,0,1,0,57,100,-8787,2072,15419,3201.50,4,WP,1,0,0,0,0,0,0,1654470655562,3873,3865,3872,3871,0,0,27,,,,,,,0,0,0,-52.00,-1.00,1744.00,0.00,0.00,1578.00,14,17.00,2.00,86.74,-2.00,0.00,0.00,0,,,100,100,0,2,0,0,0,1,0,,,,,0.0,0.0,0.0,0.0,0.0,0.0,0
34.182564,-118.129090,1.70,1.90,0.10,8.66,2.00,2.00,4.42,8.67,9503,2022-06-05 23:10:55.662,2022-06-05 16:10:55.662,16,0,0,15.419,34.182642,-118.129102,-0.10,0.00,0.00,3.50,0.70,174.30,0,1,0,57,100,-8787,2072,15419,3201.50,4,WP,1,0,0,0,0,0,0,1654470655662,3873,3865,3872,3871,0,0,27,,,,,,,0,0,0,-35.00,7.00,1743.00,0.00,0.00,1578.00,14,17.00,1.00,86.64,-1.00,0.00,0.00,0,,,100,100,0,2,0,0,0,1,0,,,,,0.0,0.0,0.0,0.0,0.0,0.0,0
34.182564,-118.129090,1.70,1.90,0.00,8.68,2.00,2.00,4.42,8.68,9602,2022-06-05 23:10:55.761,2022-06-05 16:10:55.761,16,0,0,15.419,34.182642,-118.129102,0.00,0.00,0.00,2.00,0.90,173.50,0,1,0,57,100,-8787,2072,15419,3201.50,4,WP,1,0,0,0,0,0,0,1654470655761,3873,3865,3872,3871,0,0,27,,,,,,,0,0,0,-20.00,9.00,1735.00,0.00,0.00,1578.00,14,17.00,0.00,86.75,0.00,0.00,0.00,0,,,100,100,0,2,0,0,0,1,0,,,,,0.0,0.0,0.0,0.0,0.0,0.0,0
34.182564,-118.129090,1.70,1.90,0.00,8.68,2.00,2.00,4.42,8.68,9703,2022-06-05 23:10:55.862,2022-06-05 16:10:55.863,16,0,0,15.419,34.182642,-118.129102,0.00,0.00,0.00,1.00,1.10,166.10,0,1,0,57,100,-8787,2072,15419,3201.50,4,WP,1,0,0,0,0,0,0,1654470655862,3873,3865,3872,3871,0,0,27,,,,,,,0,0,0,-10.00,11.00,1661.00,0.00,0.00,1576.00,14,17.00,0.00,86.79,0.00,0.00,0.00,0,,,100,100,0,2,0,0,0,1,0,,,,,0.0,0.0,0.0,0.0,0.0,0.0,0
34.182564,-118.129090,1.70,1.90,0.00,8.68,2.00,2.00,4.42,8.68,9803,2022-06-05 23:10:55.962,2022-06-05 16:10:55.962,16,0,0,15.419,34.182642,-118.129102,0.00,0.00,0.00,0.40,0.80,158.60,0,1,0,57,100,-8787,2072,15419,3201.50,4,WP,1,0,0,0,0,0,0,1654470655962,3873,3865,3872,3871,0,0,27,,,,,,,0,0,0,-4.00,8.00,1586.00,0.00,0.00,1535.00,14,17.00,0.00,86.84,0.00,0.00,0.00,0,,,100,100,0,2,0,0,0,1,0,,,,,0.0,0.0,0.0,0.0,0.0,0.0,0
34.182564,-118.129090,1.70,1.90,0.00,8.67,2.00,2.00,4.42,8.68,9903,2022-06-05 23:10:56.062,2022-06-05 16:10:56.062,16,0,0,15.422,34.182642,-118.129102,0.00,0.00,0.00,0.50,0.80,151.10,0,1,0,57,100,-8042,2068,15422,3201.50,4,WP,1,0,0,0,0,0,0,1654470656062,3873,3865,3872,3871,0,0,27,,,,,,,0,0,0,-5.00,8.00,1511.00,0.00,0.00,1454.00,14,17.00,0.00,86.67,0.00,0.00,0.00,0,,,100,100,0,2,0,0,0,1,0,,,,,0.0,0.0,0.0,0.0,0.0,0.0,0
34.182564,-118.129090,1.70,1.90,0.00,8.67,2.00,2.00,4.42,8.68,10002,2022-06-05 23:10:56.161,2022-06-05 16:10:56.161,16,0,0,15.422,34.182642,-118.129102,0.00,0.00,0.00,0.50,0.80,143.50,0,1,0,57,100,-8042,2068,15422,3201.50,4,WP,1,0,0,0,0,0,0,1654470656161,3873,3865,3872,3871,0,0,27,,,,,,,0,0,0,-5.00,8.00,1435.00,0.00,0.00,1370.00,14,17.00,0.00,86.66,0.00,0.00,0.00,0,,,100,100,0,2,0,0,0,1,0,,,,,0.0,0.0,0.0,0.0,0.0,0.0,0
34.182564,-118.129090,1.70,1.90,0.00,8.67,2.00,2.00,4.42,8.68,10104,2022-06-05 23:10:56.263,2022-06-05 16:10:56.263,16,0,0,15.422,34.182642,-118.129102,0.00,0.00,0.00,0.50,1.00,136.00,0,1,0,57,100,-8042,2068,15422,3201.50,4,WP,1,0,0,0,0,0,0,1654470656263,3873,3865,3872,3871,0,0,27,,,,,,,0,0,0,-5.00,10.00,1360.00,0.00,0.00,1287.00,14,17.00,0.00,86.71,0.00,0.00,0.00,0,,,100,100,0,2,0,0,0,1,0,,,,,0.0,0.0,0.0,0.0,0.0,0.0,0
34.182564,-118.129089,1.70,1.90,0.00,8.67,2.00,2.00,4.42,8.68,10203,2022-06-05 23:10:56.363,2022-06-05 16:10:56.363,16,0,0,15.422,34.182642,-118.129102,0.00,0.00,0.00,0.50,0.90,128.40,0,1,0,57,100,-8042,2068,15422,3201.50,4,WP,1,0,0,0,0,0,0,1654470656362,3873,3865,3872,3871,0,0,27,,,,,,,0,0,0,-5.00,9.00,1284.00,0.00,0.00,1206.00,14,17.00,0.00,86.69,0.00,0.00,0.00,0,,,100,100,0,2,0,0,0,1,0,,,,,0.0,0.0,0.0,0.0,0.0,0.0,0
34.182564,-118.129089,1.70,1.90,0.00,8.66,2.00,2.00,4.42,8.68,10303,2022-06-05 23:10:56.462,2022-06-05 16:10:56.462,16,0,0,15.422,34.182642,-118.129102,0.00,0.00,0.00,0.40,0.90,120.80,0,1,0,57,100,-8042,2068,15422,3201.50,4,WP,1,0,0,0,0,0,0,1654470656462,3873,3865,3872,3871,0,0,27,,,,,,,0,0,0,-4.00,9.00,1208.00,0.00,0.00,1127.00,14,17.00,0.00,86.58,0.00,0.00,0.00,0,,,100,100,0,2,0,0,0,1,0,,,,,0.0,0.0,0.0,0.0,0.0,0.0,0
34.182564,-118.129089,1.70,1.90,0.00,8.65,2.00,2.00,4.42,8.68,10403,2022-06-05 23:10:56.563,2022-06-05 16:10:56.563,16,0,0,15.422,34.182642,-118.129102,0.00,0.00,0.00,0.60,1.00,113.20,0,1,0,57,100,-8042,2068,15422,3201.50,4,WP,1,0,0,0,0,0,0,1654470656562,3873,3865,3872,3871,0,0,27,,,,,,,0,0,0,-6.00,10.00,1132.00,0.00,0.00,1050.00,14,17.00,0.00,86.55,0.00,0.00,0.00,0,,,100,100,0,2,0,0,0,1,0,,,,,0.0,0.0,0.0,0.0,0.0,0.0,0
34.182564,-118.129089,1.70,1.90,0.00,8.66,2.00,2.00,4.42,8.68,10503,2022-06-05 23:10:56.662,2022-06-05 16:10:56.662,16,0,0,15.422,34.182642,-118.129102,0.00,0.00,0.00,0.90,1.00,105.50,0,1,0,57,100,-8042,2068,15422,3201.50,4,WP,1,0,0,0,0,0,0,1654470656662,3873,3865,3872,3871,0,0,27,,,,,,,0,0,0,-9.00,10.00,1055.00,0.00,0.00,971.00,14,17.00,0.00,86.55,0.00,0.00,0.00,0,,,100,100,0,2,0,0,0,1,0,,,,,0.0,0.0,0.0,0.0,0.0,0.0,0
34.182565,-118.129089,1.70,1.90,0.00,8.65,2.00,2.00,4.42,8.68,10605,2022-06-05 23:10:56.765,2022-06-05 16:10:56.765,16,0,0,15.422,34.182642,-118.129102,0.00,0.00,0.00,1.40,1.20,98.00,0,1,0,57,100,-8042,2068,15422,3201.50,4,WP,1,0,0,0,0,0,0,1654470656764,3873,3865,3872,3871,0,0,27,,,,,,,0,0,0,-14.00,12.00,980.00,0.00,0.00,894.00,14,17.00,0.00,86.52,0.00,0.00,0.00,0,,,100,100,0,2,0,0,0,1,0,,,,,0.0,0.0,0.0,0.0,0.0,0.0,0
34.182565,-118.129089,1.70,1.90,0.00,8.64,2.00,2.00,4.42,8.68,10702,2022-06-05 23:10:56.861,2022-06-05 16:10:56.861,16,0,0,15.422,34.182642,-118.129102,0.00,0.00,0.00,1.60,0.90,90.50,0,1,0,57,100,-8042,2068,15422,3201.50,4,WP,1,0,0,0,0,0,0,1654470656861,3873,3865,3872,3871,0,0,27,,,,,,,0,0,0,-16.00,9.00,905.00,0.00,0.00,816.00,14,17.00,0.00,86.43,0.00,0.00,0.00,0,,,100,100,0,2,0,0,0,1,0,,,,,0.0,0.0,0.0,0.0,0.0,0.0,0
34.182565,-118.129089,1.70,1.90,0.00,8.64,2.00,2.00,4.42,8.68,10802,2022-06-05 23:10:56.961,2022-06-05 16:10:56.961,16,0,0,15.422,34.182642,-118.129102,0.00,0.00,0.00,1.30,0.60,82.90,0,1,0,57,100,-8042,2068,15422,3201.50,4,WP,1,0,0,0,0,0,0,1654470656961,3873,3865,3872,3871,0,0,27,,,,,,,0,0,0,-13.00,6.00,829.00,0.00,0.00,741.00,14,17.00,0.00,86.40,0.00,0.00,0.00,0,,,100,100,0,2,0,0,0,1,0,,,,,0.0,0.0,0.0,0.0,0.0,0.0,0
34.182565,-118.129089,1.70,1.90,0.00,8.62,2.00,2.00,4.42,8.68,10902,2022-06-05 23:10:57.062,2022-06-05 16:10:57.062,17,0,0,15.422,34.182642,-118.129102,0.00,0.00,0.00,1.10,0.30,75.30,0,1,0,57,100,-8042,2068,15422,3201.50,4,WP,1,0,0,0,0,0,0,1654470657061,3873,3865,3872,3871,0,0,27,,,,,,,0,0,0,-11.00,3.00,753.00,0.00,0.00,665.00,14,17.00,0.00,86.19,0.00,0.00,0.00,0,,,100,100,0,2,0,0,0,1,0,,,,,0.0,0.0,0.0,0.0,0.0,0.0,0
34.182565,-118.129089,1.70,1.90,0.00,8.61,2.00,2.00,4.42,8.68,11002,2022-06-05 23:10:57.162,2022-06-05 16:10:57.162,17,0,0,15.422,34.182642,-118.129102,0.00,0.00,0.00,1.30,0.20,67.70,0,1,0,57,100,-8042,2068,15422,3201.50,4,WP,1,0,0,0,0,0,0,1654470657161,3873,3865,3872,3871,0,0,27,,,,,,,0,0,0,-13.00,2.00,677.00,0.00,0.00,587.00,14,17.00,0.00,86.13,0.00,0.00,0.00,0,,,100,100,0,2,0,0,0,1,0,,,,,0.0,0.0,0.0,0.0,0.0,0.0,0
34.182565,-118.129088,1.70,1.90,0.00,8.61,2.00,2.00,4.42,8.68,11102,2022-06-05 23:10:57.262,2022-06-05 16:10:57.262,17,0,0,15.422,34.182642,-118.129102,0.00,0.00,0.00,1.60,0.00,60.00,0,1,0,57,100,-8042,2068,15422,3201.50,4,WP,1,0,0,0,0,0,0,1654470657261,3873,3865,3872,3871,0,0,27,,,,,,,0,0,0,-16.00,0.00,600.00,0.00,0.00,510.00,14,17.00,0.00,86.11,0.00,0.00,0.00,0,,,100,100,0,2,0,0,0,1,0,,,,,0.0,0.0,0.0,0.0,0.0,0.0,0
34.182565,-118.129088,1.80,1.90,0.00,8.61,2.00,2.00,4.42,8.68,11203,2022-06-05 23:10:57.362,2022-06-05 16:10:57.362,17,0,0,15.422,34.182642,-118.129102,0.00,0.00,0.00,1.80,-0.50,52.40,0,1,0,57,100,-8042,2068,15422,3201.50,4,WP,1,0,0,0,0,0,0,1654470657362,3873,3865,3872,3871,0,0,27,,,,,,,0,0,0,-18.00,-5.00,524.00,0.00,0.00,434.00,14,18.00,0.00,86.05,0.00,0.00,0.00,0,,,100,100,0,2,0,0,0,1,0,,,,,0.0,0.0,0.0,0.0,0.0,0.0,0
34.182565,-118.129088,1.80,1.90,0.00,8.62,2.00,2.00,4.42,8.68,11303,2022-06-05 23:10:57.462,2022-06-05 16:10:57.462,17,0,0,15.422,34.182642,-118.129102,0.00,0.00,0.00,2.00,-0.70,45.10,0,1,0,57,100,-8042,2068,15422,3201.50,4,WP,1,0,0,0,0,0,0,1654470657462,3873,3865,3872,3871,0,0,27,,,,,,,0,0,0,-20.00,-7.00,451.00,0.00,0.00,359.00,14,18.00,0.00,86.17,0.00,0.00,0.00,0,,,100,100,0,2,0,0,0,1,0,,,,,0.0,0.0,0.0,0.0,0.0,0.0,0
34.182565,-118.129088,1.80,1.90,0.00,8.61,2.00,2.00,4.42,8.68,11403,2022-06-05 23:10:57.562,2022-06-05 16:10:57.562,17,0,0,15.422,34.182642,-118.129102,0.00,0.00,0.00,2.00,-1.00,37.60,0,1,0,57,100,-8042,2068,15422,3201.50,4,WP,1,0,0,0,0,0,0,1654470657562,3873,3865,3872,3871,0,0,27,,,,,,,0,0,0,-20.00,-10.00,376.00,0.00,0.00,284.00,14,18.00,0.00,86.12,0.00,0.00,0.00,0,,,100,100,0,2,0,0,0,1,0,,,,,0.0,0.0,0.0,0.0,0.0,0.0,0
34.182565,-118.129088,1.80,1.90,0.00,8.60,2.00,2.00,4.42,8.68,11505,2022-06-05 23:10:57.665,2022-06-05 16:10:57.665,17,0,0,15.422,34.182642,-118.129102,0.00,0.00,0.00,1.90,-1.50,30.50,0,1,0,57,100,-8042,2068,15422,3201.50,4,WP,1,0,0,0,0,0,0,1654470657664,3873,3865,3872,3871,0,0,27,,,,,,,0,0,0,-19.00,-15.00,305.00,0.00,0.00,210.00,14,18.00,0.00,85.99,0.00,0.00,0.00,0,,,100,100,0,2,0,0,0,1,0,,,,,0.0,0.0,0.0,0.0,0.0,0.0,0
34.182565,-118.129088,1.80,1.90,0.00,8.59,2.00,2.00,4.42,8.68,11603,2022-06-05 23:10:57.763,2022-06-05 16:10:57.763,17,0,0,15.422,34.182642,-118.129102,0.00,0.00,0.00,2.00,-1.80,24.60,0,1,0,57,100,-8042,2068,15422,3201.50,4,WP,1,0,0,0,0,0,0,1654470657762,3873,3865,3872,3871,0,0,27,,,,,,,0,0,0,-20.00,-18.00,246.00,0.00,0.00,142.00,14,18.00,0.00,85.92,0.00,0.00,0.00,0,,,100,100,0,2,0,0,0,1,0,,,,,0.0,0.0,0.0,0.0,0.0,0.0,0
34.182565,-118.129088,1.80,1.90,0.00,8.58,2.00,2.00,4.42,8.68,11704,2022-06-05 23:10:57.864,2022-06-05 16:10:57.864,17,0,0,15.422,34.182642,-118.129102,0.00,0.00,0.00,2.00,-1.70,19.90,0,1,0,57,100,-8042,2068,15422,3201.50,4,WP,1,0,0,0,0,0,0,1654470657863,3873,3865,3872,3871,0,0,27,,,,,,,0,0,0,-20.00,-17.00,199.00,0.00,0.00,84.00,14,18.00,0.00,85.79,0.00,0.00,0.00,0,,,100,100,0,2,0,0,0,1,0,,,,,0.0,0.0,0.0,0.0,0.0,0.0,0
34.182565,-118.129088,1.80,2.00,0.00,8.57,2.00,2.00,4.42,8.68,11803,2022-06-05 23:10:57.962,2022-06-05 16:10:57.962,17,0,0,15.422,34.182642,-118.129102,0.00,0.00,0.00,1.90,-1.60,16.00,0,1,0,57,100,-8042,2068,15422,3201.50,4,WP,1,0,0,0,0,0,0,1654470657962,3873,3865,3872,3871,0,0,27,,,,,,,0,0,0,-19.00,-16.00,160.00,0.00,0.00,39.00,14,18.00,0.00,85.71,0.00,0.00,0.00,0,,,100,100,0,2,0,0,0,1,0,,,,,0.0,0.0,0.0,0.0,0.0,0.0,0
34.182565,-118.129088,1.80,1.90,0.00,8.57,2.00,2.00,4.42,8.68,11903,2022-06-05 23:10:58.063,2022-06-05 16:10:58.063,17,0,0,15.422,34.182642,-118.129102,0.00,0.00,0.00,1.70,-1.80,12.90,0,1,0,57,100,-8042,2068,15422,3201.50,4,WP,1,0,0,0,0,0,0,1654470658062,3873,3865,3872,3871,0,0,27,,,,,,,0,0,0,-17.00,-18.00,129.00,0.00,0.00,2.00,14,18.00,0.00,85.72,0.00,0.00,0.00,0,,,100,100,0,2,0,0,0,1,0,,,,,0.0,0.0,0.0,0.0,0.0,0.0,0
34.182565,-118.129088,1.80,1.90,0.00,8.56,2.00,2.00,4.42,8.68,12003,2022-06-05 23:10:58.162,2022-06-05 16:10:58.162,17,0,0,15.418,34.182642,-118.129102,0.00,0.00,0.00,1.60,-1.80,10.40,0,1,0,57,100,-7745,2063,15418,3201.50,4,WP,1,0,0,0,0,0,0,1654470658162,3873,3865,3872,3871,0,0,27,,,,,,,0,0,0,-16.00,-18.00,104.00,0.00,0.00,-27.00,14,18.00,0.00,85.64,0.00,0.00,0.00,0,,,100,100,0,2,0,0,0,1,0,,,,,0.0,0.0,0.0,0.0,0.0,0.0,0
34.182566,-118.129088,1.80,1.90,0.00,8.55,2.00,2.00,4.42,8.68,12105,2022-06-05 23:10:58.264,2022-06-05 16:10:58.264,16,0,0,15.418,34.182642,-118.129102,0.00,0.00,0.00,1.50,-1.70,8.50,0,1,0,57,100,-7745,2063,15418,3201.50,4,WP,1,0,0,0,0,0,0,1654470658264,3873,3865,3872,3871,0,0,27,,,,,,,0,0,0,-15.00,-17.00,85.00,0.00,0.00,-50.00,14,18.00,0.00,85.48,0.00,0.00,0.00,0,,,100,100,0,2,0,0,0,1,0,,,,,0.0,0.0,0.0,0.0,0.0,0.0,0
34.182566,-118.129088,1.80,1.90,0.00,8.54,2.00,2.00,4.42,8.68,12202,2022-06-05 23:10:58.361,2022-06-05 16:10:58.361,16,0,0,15.418,34.182642,-118.129102,0.00,0.00,0.00,1.60,-1.60,6.80,0,1,0,57,100,-7745,2063,15418,3201.50,4,WP,1,0,0,0,0,0,0,1654470658361,3873,3865,3872,3871,0,0,27,,,,,,,0,0,0,-16.00,-16.00,68.00,0.00,0.00,-69.00,14,18.00,0.00,85.38,0.00,0.00,0.00,0,,,100,100,0,2,0,0,0,1,0,,,,,0.0,0.0,0.0,0.0,0.0,0.0,0
34.182566,-118.129088,1.80,1.90,0.00,8.55,2.00,2.00,4.42,8.68,12302,2022-06-05 23:10:58.461,2022-06-05 16:10:58.461,16,0,0,15.418,34.182642,-118.129102,0.00,0.00,0.00,1.60,-1.50,5.50,0,1,0,57,100,-7745,2063,15418,3201.50,4,WP,1,0,0,0,0,0,0,1654470658461,3873,3865,3872,3871,0,0,27,,,,,,,0,0,0,-16.00,-15.00,55.00,0.00,0.00,-85.00,14,18.00,0.00,85.54,0.00,0.00,0.00,0,,,100,100,0,2,0,0,0,1,0,,,,,0.0,0.0,0.0,0.0,0.0,0.0,0
34.182566,-118.129088,1.80,1.90,0.00,8.55,2.00,2.00,4.42,8.68,12403,2022-06-05 23:10:58.562,2022-06-05 16:10:58.562,16,0,0,15.418,34.182642,-118.129102,0.00,0.00,0.00,1.50,-1.70,4.50,0,1,0,57,100,-7745,2063,15418,3201.50,4,WP,1,0,0,0,0,0,0,1654470658562,3873,3865,3872,3871,0,0,27,,,,,,,0,0,0,-15.00,-17.00,45.00,0.00,0.00,-99.00,14,18.00,0.00,85.47,0.00,0.00,0.00,0,,,100,100,0,2,0,0,0,1,0,,,,,0.0,0.0,0.0,0.0,0.0,0.0,0
34.182566,-118.129088,1.70,1.90,0.00,8.55,2.00,2.00,4.42,8.68,12503,2022-06-05 23:10:58.662,2022-06-05 16:10:58.662,16,0,0,15.418,34.182642,-118.129102,0.00,0.00,0.00,0.70,-1.30,4.40,0,1,0,57,100,-7745,2063,15418,3201.50,4,WP,1,0,0,0,0,0,0,1654470658662,3873,3865,3872,3871,0,0,27,,,,,,,0,0,0,-7.00,-13.00,44.00,0.00,0.00,-108.00,14,17.00,0.00,85.45,0.00,0.00,0.00,0,,,100,100,0,2,0,0,0,1,0,,,,,0.0,0.0,0.0,0.0,0.0,0.0,0
34.182566,-118.129088,1.80,1.90,0.00,8.54,2.00,2.00,4.42,8.68,12602,2022-06-05 23:10:58.761,2022-06-05 16:10:58.761,16,0,0,15.418,34.182642,-118.129102,0.00,0.00,0.00,0.60,-1.40,4.40,0,1,0,57,100,-7745,2063,15418,3201.50,4,WP,1,0,0,0,0,0,0,1654470658761,3873,3865,3872,3871,0,0,27,,,,,,,0,0,0,-6.00,-14.00,44.00,0.00,0.00,-113.00,14,18.00,0.00,85.39,0.00,0.00,0.00,0,,,100,100,0,2,0,0,0,1,0,,,,,0.0,0.0,0.0,0.0,0.0,0.0,0
34.182566,-118.129088,1.80,1.90,0.00,8.53,2.00,2.00,4.42,8.68,12702,2022-06-05 23:10:58.861,2022-06-05 16:10:58.861,16,0,0,15.418,34.182642,-118.129102,0.00,0.00,0.00,0.90,-1.70,4.50,0,1,0,57,100,-7745,2063,15418,3201.50,4,WP,1,0,0,0,0,0,0,1654470658861,3873,3865,3872,3871,0,0,27,,,,,,,0,0,0,-9.00,-17.00,45.00,0.00,0.00,-115.00,14,18.00,0.00,85.35,0.00,0.00,0.00,0,,,100,100,0,2,0,0,0,1,0,,,,,0.0,0.0,0.0,0.0,0.0,0.0,0
34.182566,-118.129088,1.80,1.90,0.00,8.53,2.00,2.00,4.42,8.68,12803,2022-06-05 23:10:58.962,2022-06-05 16:10:58.962,16,0,0,15.418,34.182642,-118.129102,0.00,0.00,0.00,1.20,-1.80,4.50,0,1,0,57,100,-7745,2063,15418,3201.50,4,WP,1,0,0,0,0,0,0,1654470658962,3873,3865,3872,3871,0,0,27,,,,,,,0,0,0,-12.00,-18.00,45.00,0.00,0.00,-115.00,14,18.00,0.00,85.26,0.00,0.00,0.00,0,,,100,100,0,2,0,0,0,1,0,,,,,0.0,0.0,0.0,0.0,0.0,0.0,0
34.182566,-118.129088,1.80,1.90,0.00,8.54,2.00,2.00,4.42,8.68,12903,2022-06-05 23:10:59.063,2022-06-05 16:10:59.063,16,0,0,15.418,34.182642,-118.129102,0.00,0.00,0.00,2.30,-2.60,4.20,0,1,0,57,100,-7745,2063,15418,3201.50,4,WP,1,0,0,0,0,0,0,1654470659062,3873,3865,3872,3871,0,0,27,,,,,,,0,0,0,-23.00,-26.00,42.00,0.00,0.00,-116.00,14,18.00,0.00,85.36,0.00,0.00,0.00,0,,,100,100,0,2,0,0,0,1,0,,,,,0.0,0.0,0.0,0.0,0.0,0.0,0
34.182566,-118.129088,1.80,1.90,0.00,8.53,2.00,2.00,4.42,8.68,13004,2022-06-05 23:10:59.163,2022-06-05 16:10:59.163,16,0,0,15.418,34.182642,-118.129102,0.00,0.00,0.00,3.50,-4.30,1.60,0,1,0,57,100,-7745,2063,15418,3201.50,4,WP,1,0,0,0,0,0,0,1654470659163,3873,3865,3872,3871,0,0,27,,,,,,,0,0,0,-35.00,-43.00,16.00,0.00,0.00,-135.00,14,18.00,0.00,85.30,0.00,0.00,0.00,0,,,100,100,0,2,0,0,0,1,0,,,,,0.0,0.0,0.0,0.0,0.0,0.0,0
34.182566,-118.129088,1.80,2.00,0.10,8.54,2.00,2.00,4.42,8.68,13103,2022-06-05 23:10:59.263,2022-06-05 16:10:59.263,16,0,0,15.418,34.182642,-118.129102,0.00,0.00,-0.10,3.10,-3.80,0.60,0,1,0,57,100,-7745,2063,15418,3201.50,4,WP,1,0,0,0,0,0,0,1654470659262,3873,3865,3872,3871,0,0,27,,,,,,,0,0,0,-31.00,-38.00,6.00,0.00,0.00,-148.00,14,18.00,1.00,85.43,0.00,0.00,-1.00,0,,,100,100,0,2,0,0,0,1,0,,,,,0.0,0.0,0.0,0.0,0.0,0.0,0
34.182566,-118.129088,1.80,2.00,0.32,8.54,2.00,2.00,4.42,8.68,13203,2022-06-05 23:10:59.363,2022-06-05 16:10:59.363,16,0,0,15.418,34.182642,-118.129102,0.00,-0.10,-0.30,2.30,-2.70,0.10,0,1,0,57,100,-7745,2063,15418,3201.50,4,WP,1,0,0,0,0,0,0,1654470659362,3873,3865,3872,3871,0,0,27,,,,,,,0,0,0,-23.00,-27.00,1.00,0.00,0.00,-153.00,14,18.00,3.16,85.43,0.00,-1.00,-3.00,0,,,100,100,0,2,0,0,0,1,0,,,,,0.0,0.0,0.0,0.0,0.0,0.0,0
34.182566,-118.129088,1.80,2.00,0.61,8.55,2.00,2.00,4.42,8.68,13302,2022-06-05 23:10:59.461,2022-06-05 16:10:59.461,17,0,0,15.418,34.182642,-118.129102,0.00,-0.10,-0.60,1.90,-2.30,0.00,0,1,0,57,100,-7745,2063,15418,3201.50,4,WP,1,0,0,0,0,0,0,1654470659461,3873,3865,3872,3871,0,0,27,,,,,,,0,0,0,-19.00,-23.00,0.00,0.00,0.00,-155.00,14,18.00,6.08,85.46,0.00,-1.00,-6.00,0,,,100,100,0,2,0,0,0,1,0,,,,,0.0,0.0,0.0,0.0,0.0,0.0,0
34.182566,-118.129088,1.90,2.10,0.71,8.55,2.00,2.00,4.42,8.68,13402,2022-06-05 23:10:59.561,2022-06-05 16:10:59.562,17,0,0,15.418,34.182642,-118.129102,0.00,-0.10,-0.70,2.00,-2.30,0.00,0,1,0,57,100,-7745,2063,15418,3201.50,4,WP,1,0,0,0,0,0,0,1654470659561,3873,3865,3872,3871,0,0,27,,,,,,,0,0,0,-20.00,-23.00,0.00,0.00,0.00,-156.00,14,19.00,7.07,85.49,0.00,-1.00,-7.00,0,,,100,100,0,2,0,0,0,1,0,,,,,0.0,0.0,0.0,0.0,0.0,0.0,0
34.182565,-118.129089,2.00,2.20,0.81,8.55,2.00,2.00,4.42,8.68,13503,2022-06-05 23:10:59.662,2022-06-05 16:10:59.662,17,0,0,15.418,34.182642,-118.129102,0.00,-0.10,-0.80,1.90,-2.40,0.00,0,1,0,57,100,-7745,2063,15418,3201.50,4,WP,1,0,0,0,0,0,0,1654470659662,3855,3847,3853,3851,0,0,27,,,,,,,0,0,0,-19.00,-24.00,0.00,0.00,0.00,-157.00,14,20.00,8.06,85.55,0.00,-1.00,-8.00,0,,,100,100,0,2,0,0,0,1,0,,,,,0.0,0.0,0.0,0.0,0.0,0.0,0
34.182565,-118.129089,2.10,2.30,0.81,8.56,2.10,2.10,4.42,8.68,13602,2022-06-05 23:10:59.762,2022-06-05 16:10:59.762,17,0,0,15.418,34.182642,-118.129102,0.00,-0.10,-0.80,1.50,-2.00,0.00,0,1,0,57,100,-7745,2063,15418,3201.50,4,WP,1,0,0,0,0,0,0,1654470659761,3855,3847,3853,3851,0,0,27,,,,,,,0,0,0,-15.00,-20.00,0.00,0.00,0.00,-157.00,14,21.00,8.06,85.60,0.00,-1.00,-8.00,0,,,100,100,0,2,0,0,0,1,0,,,,,0.0,0.0,0.0,0.0,0.0,0.0,0
