latitude,longitude,altitude(m),ultrasonicHeight(m),speed(mps),distance(m),max_altitude(m),max_ascent(m),max_speed(mps),max_distance(m),time(millisecond),datetime(utc),datetime(local),satellites,pressure(Pa),temperature(F),voltage(v),home_latitude,home_longitude,velocityX(mps),velocityY(mps),velocityZ(mps),pitch(deg),roll(deg),yaw(deg),powerlevel,isflying,istakingphoto,remainPowerPercent,remainLifePercent,currentCurrent,currentElectricity,currentVoltage,batteryTemperature,dischargeCount,flightmode,isMotorsOn,isTakingVideo,Rc_elevator,Rc_aileron,Rc_throttle,Rc_rudder,Rc_gyro,timestamp,Battery_Cell1,Battery_Cell2,Battery_Cell3,Battery_Cell4,Battery_Cell5,Battery_Cell6,Dronetype,AppVersion,Planename,FlyControllerSerialNumber,RemoteSerialNumber,BatterySerialNumber,CENTER_BATTERY.productDate,CENTER_BATTERY.serialNo,CENTER_BATTERY.fullCapacity,CENTER_BATTERY.productDateRaw,pitchRaw,rollRaw,yawRaw,gimbalPitchRaw,gimbalRollRaw,gimbalYawRaw,flyState,altitudeRaw,speedRaw,distanceRaw,velocityXRaw,velocityYRaw,velocityZRaw,data_reuse,App_Tip,App_Warning,downlinkSignalQuality,uplinkSignalQuality,transmissionChannel,rcModeSwitch,rcHome,rcPause,rcTransform,rcJoystickMode,appMode,FlyControllerSerialNumber_legacy,RemoteSerialNumber_legacy,BatterySerialNumber_legacy,Battery2SerialNumber,frontAvoidDist,backAvoidDist,rightAvoidDist,leftAvoidDist,upAvoidDist,downAvoidDist,isBrakingToAvoid
34.182635,-118.129102,0.30,0.40,0.40,0.13,0.30,0.30,0.40,0.13,0,2022-06-05 23:15:30.175,2022-06-05 16:15:30.175,16,0,0,15.259,34.182634,-118.129101,0.00,0.00,-0.40,2.00,-1.10,-19.50,0,1,0,49,100,-7081,1752,15259,3211.50,4,TakeOff,1,0,0,0,0,0,0,1654470930174,3864,3859,3865,3864,0,0,27,Litchi_iOS_2.14.0,Brian-MAVIC 2,163DFCK001S13F,1DUCFB800104PR,0P2AG3L53400KG,,0,3645,0,-20.00,-11.00,-195.00,0.00,0.00,-347.00,11,3.00,4.00,1.30,0.00,0.00,-4.00,0,,,100,100,0,2,0,0,0,1,0,(null),(null),,,0.0,0.0,0.0,0.0,0.0,0.0,0
34.182635,-118.129102,0.40,0.40,0.40,0.15,0.40,0.40,0.40,0.15,50,2022-06-05 23:15:30.225,2022-06-05 16:15:30.225,16,0,0,15.259,34.182634,-118.129101,0.00,0.00,-0.40,1.70,-1.20,-19.50,0,1,0,49,100,-7081,1752,15259,3211.50,4,TakeOff,1,0,0,0,0,0,0,1654470930224,3864,3859,3865,3864,0,0,27,,,,,,,0,0,0,-17.00,-12.00,-195.00,0.00,0.00,-347.00,11,4.00,4.00,1.52,0.00,0.00,-4.00,0,,,100,100,0,2,0,0,0,1,0,,,,,0.0,0.0,0.0,0.0,0.0,0.0,0
34.182635,-118.129102,0.40,0.50,0.40,0.16,0.40,0.40,0.40,0.16,150,2022-06-05 23:15:30.325,2022-06-05 16:15:30.325,16,0,0,15.259,34.182634,-118.129101,0.00,0.00,-0.40,1.70,-1.00,-19.50,0,1,0,49,100,-7081,1752,15259,3211.50,4,TakeOff,1,0,0,0,0,0,0,1654470930324,3864,3859,3865,3864,0,0,27,,,,,,,0,0,0,-17.00,-10.00,-195.00,0.00,0.00,-347.00,11,4.00,4.00,1.60,0.00,0.00,-4.00,0,,,100,100,0,2,0,0,0,1,0,,,,,0.0,0.0,0.0,0.0,0.0,0.0,0
34.182636,-118.129102,0.50,0.50,0.40,0.18,0.50,0.50,0.40,0.18,300,2022-06-05 23:15:30.474,2022-06-05 16:15:30.475,16,0,0,15.259,34.182634,-118.129101,0.00,0.00,-0.40,1.60,-0.60,-19.40,0,1,0,49,100,-7081,1752,15259,3211.50,4,TakeOff,1,0,0,0,0,0,0,1654470930474,3864,3859,3865,3864,0,0,27,,,,,,,0,0,0,-16.00,-6.00,-194.00,0.00,0.00,-347.00,11,5.00,4.00,1.79,0.00,0.00,-4.00,0,,,100,100,0,2,0,0,0,1,0,,,,,0.0,0.0,0.0,0.0,0.0,0.0,0
34.182636,-118.129102,0.50,0.60,0.50,0.19,0.50,0.50,0.50,0.19,400,2022-06-05 23:15:30.575,2022-06-05 16:15:30.575,16,0,0,15.259,34.182634,-118.129101,0.00,0.00,-0.50,1.60,-0.60,-19.40,0,1,0,49,100,-7081,1752,15259,3211.50,4,TakeOff,1,0,0,0,0,0,0,1654470930574,3864,3859,3865,3864,0,0,27,,,,,,,0,0,0,-16.00,-6.00,-194.00,0.00,0.00,-347.00,11,5.00,5.00,1.86,0.00,0.00,-5.00,0,,,100,100,0,2,0,0,0,1,0,,,,,0.0,0.0,0.0,0.0,0.0,0.0,0
34.182636,-118.129102,0.60,0.60,0.50,0.18,0.60,0.60,0.50,0.19,500,2022-06-05 23:15:30.674,2022-06-05 16:15:30.674,16,0,0,15.259,34.182634,-118.129101,0.00,0.00,-0.50,1.70,-0.60,-19.40,0,1,0,49,100,-7081,1752,15259,3211.50,4,TakeOff,1,0,0,0,0,0,0,1654470930674,3864,3859,3865,3864,0,0,27,,,,,,,0,0,0,-17.00,-6.00,-194.00,0.00,0.00,-347.00,11,6.00,5.00,1.76,0.00,0.00,-5.00,0,,,100,100,0,2,0,0,0,1,0,,,,,0.0,0.0,0.0,0.0,0.0,0.0,0
34.182636,-118.129102,0.60,0.70,0.50,0.18,0.60,0.60,0.50,0.19,600,2022-06-05 23:15:30.774,2022-06-05 16:15:30.774,16,0,0,15.259,34.182634,-118.129101,0.00,0.00,-0.50,1.70,-0.60,-19.40,0,1,0,49,100,-7081,1752,15259,3211.50,4,TakeOff,1,0,0,0,0,0,0,1654470930774,3864,3859,3865,3864,0,0,27,,,,,,,0,0,0,-17.00,-6.00,-194.00,0.00,0.00,-347.00,11,6.00,5.00,1.80,0.00,0.00,-5.00,0,,,100,100,0,2,0,0,0,1,0,,,,,0.0,0.0,0.0,0.0,0.0,0.0,0
34.182636,-118.129102,0.70,0.70,0.50,0.18,0.70,0.70,0.50,0.19,700,2022-06-05 23:15:30.874,2022-06-05 16:15:30.874,16,0,0,15.259,34.182634,-118.129101,0.00,0.00,-0.50,1.60,-0.50,-19.40,0,1,0,49,100,-7081,1752,15259,3211.50,4,TakeOff,1,0,0,0,0,0,0,1654470930874,3864,3859,3865,3864,0,0,27,,,,,,,0,0,0,-16.00,-5.00,-194.00,0.00,0.00,-347.00,11,7.00,5.00,1.84,0.00,0.00,-5.00,0,,,100,100,0,2,0,0,0,1,0,,,,,0.0,0.0,0.0,0.0,0.0,0.0,0
34.182636,-118.129102,0.70,0.80,0.50,0.19,0.70,0.70,0.50,0.19,800,2022-06-05 23:15:30.974,2022-06-05 16:15:30.975,16,0,0,15.259,34.182634,-118.129101,0.00,0.00,-0.50,1.50,-0.30,-19.40,0,1,0,49,100,-7081,1752,15259,3211.50,4,TakeOff,1,0,0,0,0,0,0,1654470930974,3864,3859,3865,3864,0,0,27,,,,,,,0,0,0,-15.00,-3.00,-194.00,0.00,0.00,-347.00,11,7.00,5.00,1.89,0.00,0.00,-5.00,0,,,100,100,0,2,0,0,0,1,0,,,,,0.0,0.0,0.0,0.0,0.0,0.0,0
34.182636,-118.129102,0.80,0.80,0.50,0.18,0.80,0.80,0.50,0.19,900,2022-06-05 23:15:31.075,2022-06-05 16:15:31.075,16,0,0,15.259,34.182634,-118.129101,0.00,0.00,-0.50,1.80,0.00,-19.40,0,1,0,49,100,-7081,1752,15259,3211.50,4,TakeOff,1,0,0,0,0,0,0,1654470931074,3864,3859,3865,3864,0,0,27,,,,,,,0,0,0,-18.00,0.00,-194.00,0.00,0.00,-347.00,11,8.00,5.00,1.84,0.00,0.00,-5.00,0,,,100,100,0,2,0,0,0,1,0,,,,,0.0,0.0,0.0,0.0,0.0,0.0,0
34.182636,-118.129102,0.80,0.90,0.50,0.19,0.80,0.80,0.50,0.19,1000,2022-06-05 23:15:31.175,2022-06-05 16:15:31.175,16,0,0,15.259,34.182634,-118.129101,0.00,0.00,-0.50,2.10,0.10,-19.40,0,1,0,49,100,-7081,1752,15259,3211.50,4,TakeOff,1,0,0,0,0,0,0,1654470931174,3864,3859,3865,3864,0,0,27,,,,,,,0,0,0,-21.00,1.00,-194.00,0.00,0.00,-347.00,11,8.00,5.00,1.89,0.00,0.00,-5.00,0,,,100,100,0,2,0,0,0,1,0,,,,,0.0,0.0,0.0,0.0,0.0,0.0,0
34.182636,-118.129102,0.90,1.00,0.50,0.21,0.90,0.90,0.50,0.21,1100,2022-06-05 23:15:31.275,2022-06-05 16:15:31.275,16,0,0,15.259,34.182634,-118.129101,0.00,0.00,-0.50,2.30,0.00,-19.30,0,1,0,49,100,-7081,1752,15259,3211.50,4,TakeOff,1,0,0,0,0,0,0,1654470931274,3864,3859,3865,3864,0,0,27,,,,,,,0,0,0,-23.00,0.00,-193.00,0.00,0.00,-347.00,11,9.00,5.00,2.11,0.00,0.00,-5.00,0,,,100,100,0,2,0,0,0,1,0,,,,,0.0,0.0,0.0,0.0,0.0,0.0,0
34.182636,-118.129102,1.00,1.00,0.50,0.22,1.00,1.00,0.50,0.22,1200,2022-06-05 23:15:31.375,2022-06-05 16:15:31.375,16,0,0,15.259,34.182634,-118.129101,0.00,0.00,-0.50,2.50,-0.30,-19.30,0,1,0,49,100,-7081,1752,15259,3211.50,4,TakeOff,1,0,0,0,0,0,0,1654470931374,3864,3859,3865,3864,0,0,27,,,,,,,0,0,0,-25.00,-3.00,-193.00,0.00,0.00,-347.00,11,10.00,5.00,2.16,0.00,0.00,-5.00,0,,,100,100,0,2,0,0,0,1,0,,,,,0.0,0.0,0.0,0.0,0.0,0.0,0
34.182636,-118.129102,1.00,1.10,0.40,0.21,1.00,1.00,0.50,0.22,1300,2022-06-05 23:15:31.475,2022-06-05 16:15:31.475,16,0,0,15.259,34.182634,-118.129101,0.00,0.00,-0.40,2.70,-0.50,-19.40,0,1,0,49,100,-7081,1752,15259,3211.50,4,TakeOff,1,0,0,0,0,0,0,1654470931474,3864,3859,3865,3864,0,0,27,,,,,,,0,0,0,-27.00,-5.00,-194.00,0.00,0.00,-347.00,11,10.00,4.00,2.08,0.00,0.00,-4.00,0,,,100,100,0,2,0,0,0,1,0,,,,,12.1,0.0,0.0,0.0,0.0,0.0,0
34.182636,-118.129102,1.00,1.10,0.40,0.21,1.00,1.00,0.50,0.22,1400,2022-06-05 23:15:31.575,2022-06-05 16:15:31.575,16,0,0,15.259,34.182634,-118.129101,0.00,0.00,-0.40,1.10,-0.30,-19.50,0,1,0,49,100,-7081,1752,15259,3211.50,4,WP,1,0,0,0,0,0,0,1654470931574,3864,3859,3865,3864,0,0,27,,,,,,,0,0,0,-11.00,-3.00,-195.00,0.00,0.00,-348.00,14,10.00,4.00,2.11,0.00,0.00,-4.00,0,,,100,100,0,2,0,0,0,1,0,,,,,12.1,0.0,0.0,0.0,0.0,0.0,0
34.182636,-118.129102,1.10,1.10,0.40,0.24,1.10,1.10,0.50,0.24,1500,2022-06-05 23:15:31.675,2022-06-05 16:15:31.675,16,0,0,15.259,34.182634,-118.129101,0.00,0.00,-0.40,0.90,-0.10,-19.40,0,1,0,49,100,-7081,1752,15259,3211.50,4,WP,1,0,0,0,0,0,0,1654470931674,3864,3859,3865,3864,0,0,27,,,,,,,0,0,0,-9.00,-1.00,-194.00,0.00,0.00,-348.00,14,11.00,4.00,2.39,0.00,0.00,-4.00,0,,,100,100,0,2,0,0,0,1,0,,,,,12.3,0.0,0.0,0.0,0.0,0.0,0
34.182636,-118.129102,1.10,1.20,0.40,0.25,1.10,1.10,0.50,0.25,1600,2022-06-05 23:15:31.775,2022-06-05 16:15:31.775,16,0,0,15.259,34.182634,-118.129101,0.00,0.00,-0.40,1.60,-0.30,-19.40,0,1,0,49,100,-7081,1752,15259,3211.50,4,WP,1,0,0,0,0,0,0,1654470931774,3864,3859,3865,3864,0,0,27,,,,,,,0,0,0,-16.00,-3.00,-194.00,0.00,0.00,-348.00,14,11.00,4.00,2.45,0.00,0.00,-4.00,0,,,100,100,0,2,0,0,0,1,0,,,,,12.3,0.0,0.0,0.0,0.0,0.0,0
34.182636,-118.129102,1.20,1.20,0.40,0.25,1.20,1.20,0.50,0.25,1651,2022-06-05 23:15:31.825,2022-06-05 16:15:31.825,16,0,0,15.259,34.182634,-118.129101,0.00,0.00,-0.40,2.30,-0.60,-19.50,0,1,0,49,100,-7081,1752,15259,3211.50,4,WP,1,0,0,0,0,0,0,1654470931825,3864,3859,3865,3864,0,0,27,,,,,,,0,0,0,-23.00,-6.00,-195.00,0.00,0.00,-348.00,14,12.00,4.00,2.52,0.00,0.00,-4.00,0,,,100,100,0,2,0,0,0,1,0,,,,,13.9,0.0,0.0,0.0,0.0,0.0,0
34.182636,-118.129102,1.20,1.30,0.40,0.26,1.20,1.20,0.50,0.26,1800,2022-06-05 23:15:31.975,2022-06-05 16:15:31.975,16,0,0,15.259,34.182634,-118.129101,0.00,0.00,-0.40,2.60,-0.90,-19.60,0,1,0,49,100,-7081,1752,15259,3211.50,4,WP,1,0,0,0,0,0,0,1654470931974,3864,3859,3865,3864,0,0,27,,,,,,,0,0,0,-26.00,-9.00,-196.00,0.00,0.00,-348.00,14,12.00,4.00,2.59,0.00,0.00,-4.00,0,,,100,100,0,2,0,0,0,1,0,,,,,13.9,0.0,0.0,0.0,0.0,0.0,0
34.182636,-118.129102,1.30,1.30,0.40,0.27,1.30,1.30,0.50,0.27,1850,2022-06-05 23:15:32.025,2022-06-05 16:15:32.025,16,0,0,15.259,34.182634,-118.129101,0.00,0.00,-0.40,2.70,-0.50,-19.60,0,1,0,49,100,-7081,1752,15259,3211.50,4,WP,1,0,0,0,0,0,0,1654470932024,3864,3859,3865,3864,0,0,27,,,,,,,0,0,0,-27.00,-5.00,-196.00,0.00,0.00,-348.00,14,13.00,4.00,2.71,0.00,0.00,-4.00,0,,,100,100,0,2,0,0,0,1,0,,,,,14.5,0.0,0.0,0.0,0.0,0.0,0
34.182636,-118.129102,1.30,1.40,0.40,0.28,1.30,1.30,0.50,0.28,2000,2022-06-05 23:15:32.174,2022-06-05 16:15:32.174,16,0,0,15.218,34.182634,-118.129101,0.00,0.00,-0.40,2.60,-0.40,-19.60,0,1,0,48,100,-8313,1747,15218,3211.50,4,WP,1,0,0,0,0,0,0,1654470932174,3864,3859,3865,3864,0,0,27,,,,,,,0,0,0,-26.00,-4.00,-196.00,0.00,0.00,-348.00,14,13.00,4.00,2.77,0.00,0.00,-4.00,0,,,100,100,0,2,0,0,0,1,0,,,,,14.5,0.0,0.0,0.0,0.0,0.0,0
34.182636,-118.129102,1.40,1.40,0.40,0.29,1.40,1.40,0.50,0.29,2100,2022-06-05 23:15:32.275,2022-06-05 16:15:32.275,16,0,0,15.218,34.182634,-118.129101,0.00,0.00,-0.40,2.60,-0.80,-19.70,0,1,0,48,100,-8313,1747,15218,3211.50,4,WP,1,0,0,0,0,0,0,1654470932274,3864,3859,3865,3864,0,0,27,,,,,,,0,0,0,-26.00,-8.00,-197.00,0.00,0.00,-349.00,14,14.00,4.00,2.86,0.00,0.00,-4.00,0,,,100,100,0,2,0,0,0,1,0,,,,,14.5,0.0,0.0,0.0,0.0,0.0,0
34.182637,-118.129102,1.40,1.50,0.40,0.29,1.40,1.40,0.50,0.29,2200,2022-06-05 23:15:32.375,2022-06-05 16:15:32.375,16,0,0,15.218,34.182634,-118.129101,0.00,0.00,-0.40,2.70,-0.90,-19.70,0,1,0,48,100,-8313,1747,15218,3211.50,4,WP,1,0,0,0,0,0,0,1654470932374,3864,3859,3865,3864,0,0,27,,,,,,,0,0,0,-27.00,-9.00,-197.00,0.00,0.00,-349.00,14,14.00,4.00,2.90,0.00,0.00,-4.00,0,,,100,100,0,2,0,0,0,1,0,,,,,14.5,0.0,0.0,0.0,0.0,0.0,0
34.182636,-118.129102,1.50,1.50,0.40,0.27,1.50,1.50,0.50,0.29,2300,2022-06-05 23:15:32.475,2022-06-05 16:15:32.475,16,0,0,15.218,34.182634,-118.129101,0.00,0.00,-0.40,2.50,-0.80,-19.70,0,1,0,48,100,-8313,1747,15218,3211.50,4,WP,1,0,0,0,0,0,0,1654470932474,3864,3859,3865,3864,0,0,27,,,,,,,0,0,0,-25.00,-8.00,-197.00,0.00,0.00,-349.00,14,15.00,4.00,2.70,0.00,0.00,-4.00,0,,,100,100,0,2,0,0,0,1,0,,,,,0.0,0.0,0.0,0.0,0.0,0.0,0
34.182636,-118.129102,1.50,1.60,0.40,0.27,1.50,1.50,0.50,0.29,2402,2022-06-05 23:15:32.576,2022-06-05 16:15:32.577,16,0,0,15.218,34.182634,-118.129101,0.00,0.00,-0.40,2.10,-0.90,-19.60,0,1,0,48,100,-8313,1747,15218,3211.50,4,WP,1,0,0,0,0,0,0,1654470932576,3864,3859,3865,3864,0,0,27,,,,,,,0,0,0,-21.00,-9.00,-196.00,0.00,0.00,-349.00,14,15.00,4.00,2.70,0.00,0.00,-4.00,0,,,100,100,0,2,0,0,0,1,0,,,,,0.0,0.0,0.0,0.0,0.0,0.0,0
34.182636,-118.129102,1.60,1.60,0.50,0.28,1.60,1.60,0.50,0.29,2501,2022-06-05 23:15:32.676,2022-06-05 16:15:32.676,16,0,0,15.218,34.182634,-118.129101,0.00,0.00,-0.50,1.90,-0.90,-19.60,0,1,0,48,100,-8313,1747,15218,3211.50,4,WP,1,0,0,0,0,0,0,1654470932675,3864,3859,3865,3864,0,0,27,,,,,,,0,0,0,-19.00,-9.00,-196.00,0.00,0.00,-349.00,14,16.00,5.00,2.76,0.00,0.00,-5.00,0,,,100,100,0,2,0,0,0,1,0,,,,,0.0,0.0,0.0,0.0,0.0,0.0,0
34.182636,-118.129102,1.60,1.70,0.60,0.28,1.60,1.60,0.60,0.29,2601,2022-06-05 23:15:32.776,2022-06-05 16:15:32.776,16,0,0,15.218,34.182634,-118.129101,0.00,0.00,-0.60,2.00,-0.80,-19.60,0,1,0,48,100,-8313,1747,15218,3211.50,4,WP,1,0,0,0,0,0,0,1654470932775,3864,3859,3865,3864,0,0,27,,,,,,,0,0,0,-20.00,-8.00,-196.00,0.00,0.00,-350.00,14,16.00,6.00,2.76,0.00,0.00,-6.00,0,,,100,100,0,2,0,0,0,1,0,,,,,0.0,0.0,0.0,0.0,0.0,0.0,0
34.182637,-118.129102,1.70,1.80,0.70,0.29,1.70,1.70,0.70,0.29,2652,2022-06-05 23:15:32.827,2022-06-05 16:15:32.827,16,0,0,15.218,34.182634,-118.129101,0.00,0.00,-0.70,2.30,-0.70,-19.70,0,1,0,48,100,-8313,1747,15218,3211.50,4,WP,1,0,0,0,0,0,0,1654470932826,3864,3859,3865,3864,0,0,27,,,,,,,0,0,0,-23.00,-7.00,-197.00,0.00,0.00,-350.00,14,17.00,7.00,2.91,0.00,0.00,-7.00,0,,,100,100,0,2,0,0,0,1,0,,,,,0.0,0.0,0.0,0.0,0.0,0.0,0
34.182637,-118.129102,1.80,1.80,0.80,0.29,1.80,1.80,0.80,0.29,2752,2022-06-05 23:15:32.927,2022-06-05 16:15:32.927,16,0,0,15.218,34.182634,-118.129101,0.00,0.00,-0.80,2.60,-0.40,-19.70,0,1,0,48,100,-8313,1747,15218,3211.50,4,WP,1,0,0,0,0,0,0,1654470932926,3864,3859,3865,3864,0,0,27,,,,,,,0,0,0,-26.00,-4.00,-197.00,0.00,0.00,-350.00,14,18.00,8.00,2.92,0.00,0.00,-8.00,0,,,100,100,0,2,0,0,0,1,0,,,,,0.0,0.0,0.0,0.0,0.0,0.0,0
34.182636,-118.129102,1.90,1.90,0.80,0.28,1.90,1.90,0.80,0.29,2854,2022-06-05 23:15:33.029,2022-06-05 16:15:33.029,16,0,0,15.218,34.182634,-118.129101,0.00,0.00,-0.80,2.60,-0.30,-19.60,0,1,0,48,100,-8313,1747,15218,3211.50,4,WP,1,0,0,0,0,0,0,1654470933028,3864,3859,3865,3864,0,0,27,,,,,,,0,0,0,-26.00,-3.00,-196.00,0.00,0.00,-350.00,14,19.00,8.00,2.84,0.00,0.00,-8.00,0,,,100,100,0,2,0,0,0,1,0,,,,,0.0,0.0,0.0,0.0,0.0,0.0,0
34.182636,-118.129102,2.00,2.00,0.80,0.28,2.00,2.00,0.80,0.29,3006,2022-06-05 23:15:33.180,2022-06-05 16:15:33.180,16,0,0,15.218,34.182634,-118.129101,0.00,0.00,-0.80,2.40,-0.30,-19.60,0,1,0,48,100,-8313,1747,15218,3211.50,4,WP,1,0,0,0,0,0,0,1654470933180,3864,3859,3865,3864,0,0,27,,,,,,,0,0,0,-24.00,-3.00,-196.00,0.00,0.00,-350.00,14,20.00,8.00,2.82,0.00,0.00,-8.00,0,,,100,100,0,2,0,0,0,1,0,,,,,0.0,0.0,0.0,0.0,0.0,0.0,0
34.182636,-118.129102,2.00,2.10,0.80,0.28,2.00,2.00,0.80,0.29,3109,2022-06-05 23:15:33.284,2022-06-05 16:15:33.284,16,0,0,15.218,34.182634,-118.129101,0.00,0.00,-0.80,2.20,-0.20,-19.60,0,1,0,48,100,-8313,1747,15218,3211.50,4,WP,1,0,0,0,0,0,0,1654470933283,3864,3859,3865,3864,0,0,27,,,,,,,0,0,0,-22.00,-2.00,-196.00,0.00,0.00,-350.00,14,20.00,8.00,2.79,0.00,0.00,-8.00,0,,,100,100,0,2,0,0,0,1,0,,,,,0.0,0.0,0.0,0.0,0.0,0.0,0
34.182636,-118.129102,2.10,2.20,0.80,0.28,2.10,2.10,0.80,0.29,3206,2022-06-05 23:15:33.380,2022-06-05 16:15:33.380,16,0,0,15.218,34.182634,-118.129101,0.00,0.00,-0.80,2.00,0.00,-19.50,0,1,0,48,100,-8313,1747,15218,3211.50,4,WP,1,0,0,0,0,0,0,1654470933380,3864,3859,3865,3864,0,0,27,,,,,,,0,0,0,-20.00,0.00,-195.00,0.00,0.00,-350.00,14,21.00,8.00,2.76,0.00,0.00,-8.00,0,,,100,100,0,2,0,0,0,1,0,,,,,0.0,0.0,0.0,0.0,0.0,0.0,0
34.182637,-118.129102,2.20,2.20,0.70,0.29,2.20,2.20,0.80,0.29,3306,2022-06-05 23:15:33.480,2022-06-05 16:15:33.480,16,0,0,15.218,34.182634,-118.129101,0.00,0.00,-0.70,0.20,0.00,-19.80,0,1,0,48,100,-8313,1747,15218,3211.50,4,WP,1,0,0,0,0,0,0,1654470933480,3864,3859,3865,3864,0,0,27,,,,,,,0,0,0,-2.00,0.00,-198.00,0.00,0.00,-351.00,14,22.00,7.00,2.89,0.00,0.00,-7.00,0,,,100,100,0,2,0,0,0,1,0,,,,,0.0,0.0,0.0,0.0,0.0,0.0,0
34.182637,-118.129102,2.30,2.30,0.40,0.29,2.30,2.30,0.80,0.29,3354,2022-06-05 23:15:33.529,2022-06-05 16:15:33.529,16,0,0,15.218,34.182634,-118.129101,0.00,0.00,-0.40,0.70,0.00,-20.60,0,1,0,48,100,-8313,1747,15218,3211.50,4,WP,1,0,0,0,0,0,0,1654470933528,3864,3859,3865,3864,0,0,27,,,,,,,0,0,0,-7.00,0.00,-206.00,0.00,0.00,-351.00,14,23.00,4.00,2.90,0.00,0.00,-4.00,0,,,100,100,0,2,0,0,0,1,0,,,,,0.0,0.0,0.0,0.0,0.0,0.0,0
34.182636,-118.129102,2.30,2.30,0.20,0.27,2.30,2.30,0.80,0.29,3454,2022-06-05 23:15:33.629,2022-06-05 16:15:33.629,16,0,0,15.218,34.182634,-118.129101,0.00,0.00,-0.20,1.10,0.20,-21.90,0,1,0,48,100,-8313,1747,15218,3211.50,4,WP,1,0,0,0,0,0,0,1654470933628,3864,3859,3865,3864,0,0,27,,,,,,,0,0,0,-11.00,2.00,-219.00,0.00,0.00,-352.00,14,23.00,2.00,2.68,0.00,0.00,-2.00,0,,,100,100,0,2,0,0,0,1,0,,,,,0.0,0.0,0.0,0.0,0.0,0.0,0
34.182636,-118.129102,2.30,2.30,0.10,0.27,2.30,2.30,0.80,0.29,3602,2022-06-05 23:15:33.776,2022-06-05 16:15:33.776,16,0,0,15.218,34.182634,-118.129101,0.00,0.00,-0.10,1.40,0.40,-23.80,0,1,0,48,100,-8313,1747,15218,3211.50,4,WP,1,0,0,0,0,0,0,1654470933776,3864,3859,3865,3864,0,0,27,,,,,,,0,0,0,-14.00,4.00,-238.00,0.00,0.00,-357.00,14,23.00,1.00,2.70,0.00,0.00,-1.00,0,,,100,100,0,2,0,0,0,1,0,,,,,0.0,0.0,0.0,0.0,0.0,0.0,0
34.182636,-118.129102,2.30,2.30,0.00,0.28,2.30,2.30,0.80,0.29,3652,2022-06-05 23:15:33.827,2022-06-05 16:15:33.827,16,0,0,15.218,34.182634,-118.129101,0.00,0.00,0.00,1.50,0.40,-26.30,0,1,0,48,100,-8313,1747,15218,3211.50,4,WP,1,0,0,0,0,0,0,1654470933826,3864,3859,3865,3864,0,0,27,,,,,,,0,0,0,-15.00,4.00,-263.00,0.00,0.00,-370.00,14,23.00,0.00,2.81,0.00,0.00,0.00,0,,,100,100,0,2,0,0,0,1,0,,,,,0.0,0.0,0.0,0.0,0.0,0.0,0
34.182636,-118.129102,2.40,2.30,0.00,0.28,2.40,2.40,0.80,0.29,3751,2022-06-05 23:15:33.926,2022-06-05 16:15:33.926,16,0,0,15.218,34.182634,-118.129101,0.00,0.00,0.00,1.50,0.40,-29.40,0,1,0,48,100,-8313,1747,15218,3211.50,4,WP,1,0,0,0,0,0,0,1654470933925,3864,3859,3865,3864,0,0,27,,,,,,,0,0,0,-15.00,4.00,-294.00,0.00,0.00,-393.00,14,24.00,0.00,2.85,0.00,0.00,0.00,0,,,100,100,0,2,0,0,0,1,0,,,,,0.0,0.0,0.0,0.0,0.0,0.0,0
34.182636,-118.129102,2.40,2.30,0.00,0.27,2.40,2.40,0.80,0.29,3853,2022-06-05 23:15:34.028,2022-06-05 16:15:34.028,16,0,0,15.218,34.182634,-118.129101,0.00,0.00,0.00,1.70,0.30,-33.10,0,1,0,48,100,-8313,1747,15218,3211.50,4,WP,1,0,0,0,0,0,0,1654470934027,3864,3859,3865,3864,0,0,27,,,,,,,0,0,0,-17.00,3.00,-331.00,0.00,0.00,-425.00,14,24.00,0.00,2.70,0.00,0.00,0.00,0,,,100,100,0,2,0,0,0,1,0,,,,,0.0,0.0,0.0,0.0,0.0,0.0,0
34.182636,-118.129102,2.30,2.30,0.00,0.27,2.40,2.40,0.80,0.29,3953,2022-06-05 23:15:34.128,2022-06-05 16:15:34.128,16,0,0,15.244,34.182634,-118.129101,0.00,0.00,0.00,1.60,0.00,-37.20,0,1,0,48,100,-7443,1742,15244,3211.50,4,WP,1,0,0,0,0,0,0,1654470934127,3864,3859,3865,3864,0,0,27,,,,,,,0,0,0,-16.00,0.00,-372.00,0.00,0.00,-463.00,14,23.00,0.00,2.74,0.00,0.00,0.00,0,,,100,100,0,2,0,0,0,1,0,,,,,0.0,0.0,0.0,0.0,0.0,0.0,0
34.182636,-118.129102,2.30,2.30,0.00,0.28,2.40,2.40,0.80,0.29,4051,2022-06-05 23:15:34.226,2022-06-05 16:15:34.226,16,0,0,15.244,34.182634,-118.129101,0.00,0.00,0.00,1.50,-0.10,-41.90,0,1,0,48,100,-7443,1742,15244,3211.50,4,WP,1,0,0,0,0,0,0,1654470934225,3864,3859,3865,3864,0,0,27,,,,,,,0,0,0,-15.00,-1.00,-419.00,0.00,0.00,-508.00,14,23.00,0.00,2.77,0.00,0.00,0.00,0,,,100,100,0,2,0,0,0,1,0,,,,,0.0,0.0,0.0,0.0,0.0,0.0,0
34.182636,-118.129102,2.30,2.30,0.00,0.28,2.40,2.40,0.80,0.29,4153,2022-06-05 23:15:34.327,2022-06-05 16:15:34.327,16,0,0,15.244,34.182634,-118.129101,0.00,0.00,0.00,1.50,-0.40,-47.20,0,1,0,48,100,-7443,1742,15244,3211.50,4,WP,1,0,0,0,0,0,0,1654470934327,3864,3859,3865,3864,0,0,27,,,,,,,0,0,0,-15.00,-4.00,-472.00,0.00,0.00,-558.00,14,23.00,0.00,2.80,0.00,0.00,0.00,0,,,100,100,0,2,0,0,0,1,0,,,,,0.0,0.0,0.0,0.0,0.0,0.0,0
34.182636,-118.129102,2.30,2.30,0.00,0.28,2.40,2.40,0.80,0.29,4252,2022-06-05 23:15:34.427,2022-06-05 16:15:34.427,16,0,0,15.244,34.182634,-118.129101,0.00,0.00,0.00,1.70,-0.70,-53.00,0,1,0,48,100,-7443,1742,15244,3211.50,4,WP,1,0,0,0,0,0,0,1654470934426,3864,3859,3865,3864,0,0,27,,,,,,,0,0,0,-17.00,-7.00,-530.00,0.00,0.00,-614.00,14,23.00,0.00,2.83,0.00,0.00,0.00,0,,,100,100,0,2,0,0,0,1,0,,,,,0.0,0.0,0.0,0.0,0.0,0.0,0
34.182636,-118.129102,2.30,2.30,0.00,0.29,2.40,2.40,0.80,0.29,4354,2022-06-05 23:15:34.529,2022-06-05 16:15:34.529,16,0,0,15.244,34.182634,-118.129101,0.00,0.00,0.00,1.90,-0.90,-59.40,0,1,0,48,100,-7443,1742,15244,3211.50,4,WP,1,0,0,0,0,0,0,1654470934528,3864,3859,3865,3864,0,0,27,,,,,,,0,0,0,-19.00,-9.00,-594.00,0.00,0.00,-675.00,14,23.00,0.00,2.86,0.00,0.00,0.00,0,,,100,100,0,2,0,0,0,1,0,,,,,0.0,0.0,0.0,0.0,0.0,0.0,0
34.182636,-118.129102,2.30,2.30,0.00,0.27,2.40,2.40,0.80,0.29,4453,2022-06-05 23:15:34.628,2022-06-05 16:15:34.628,16,0,0,15.244,34.182634,-118.129101,0.00,0.00,0.00,1.90,-0.90,-66.50,0,1,0,48,100,-7443,1742,15244,3211.50,4,WP,1,0,0,0,0,0,0,1654470934627,3805,3801,3807,3806,0,0,27,,,,,,,0,0,0,-19.00,-9.00,-665.00,0.00,0.00,-743.00,14,23.00,0.00,2.74,0.00,0.00,0.00,0,,,100,100,0,2,0,0,0,1,0,,,,,0.0,0.0,0.0,0.0,0.0,0.0,0
34.182636,-118.129102,2.30,2.30,0.00,0.27,2.40,2.40,0.80,0.29,4554,2022-06-05 23:15:34.729,2022-06-05 16:15:34.729,16,0,0,15.244,34.182634,-118.129101,0.00,0.00,0.00,1.80,-0.80,-74.00,0,1,0,48,100,-7443,1742,15244,3211.50,4,WP,1,0,0,0,0,0,0,1654470934728,3805,3801,3807,3806,0,0,27,,,,,,,0,0,0,-18.00,-8.00,-740.00,0.00,0.00,-817.00,14,23.00,0.00,2.75,0.00,0.00,0.00,0,,,100,100,0,2,0,0,0,1,0,,,,,0.0,0.0,0.0,0.0,0.0,0.0,0
34.182636,-118.129102,2.30,2.30,0.00,0.28,2.40,2.40,0.80,0.29,4651,2022-06-05 23:15:34.826,2022-06-05 16:15:34.826,16,0,0,15.244,34.182634,-118.129101,0.00,0.00,0.00,1.70,-0.80,-81.50,0,1,0,48,100,-7443,1742,15244,3211.50,4,WP,1,0,0,0,0,0,0,1654470934825,3805,3801,3807,3806,0,0,27,,,,,,,0,0,0,-17.00,-8.00,-815.00,0.00,0.00,-894.00,14,23.00,0.00,2.82,0.00,0.00,0.00,0,,,100,100,0,2,0,0,0,1,0,,,,,0.0,0.0,0.0,0.0,0.0,0.0,0
34.182636,-118.129103,2.30,2.30,0.00,0.28,2.40,2.40,0.80,0.29,4753,2022-06-05 23:15:34.927,2022-06-05 16:15:34.927,16,0,0,15.244,34.182634,-118.129101,0.00,0.00,0.00,1.70,-0.80,-89.10,0,1,0,48,100,-7443,1742,15244,3211.50,4,WP,1,0,0,0,0,0,0,1654470934927,3805,3801,3807,3806,0,0,27,,,,,,,0,0,0,-17.00,-8.00,-891.00,0.00,0.00,-971.00,14,23.00,0.00,2.82,0.00,0.00,0.00,0,,,100,100,0,2,0,0,0,1,0,,,,,0.0,0.0,0.0,0.0,0.0,0.0,0
34.182636,-118.129103,2.30,2.30,0.00,0.29,2.40,2.40,0.80,0.29,4853,2022-06-05 23:15:35.027,2022-06-05 16:15:35.027,16,0,0,15.244,34.182634,-118.129101,0.00,0.00,0.00,1.60,-0.90,-96.70,0,1,0,48,100,-7443,1742,15244,3211.50,4,WP,1,0,0,0,0,0,0,1654470935027,3805,3801,3807,3806,0,0,27,,,,,,,0,0,0,-16.00,-9.00,-967.00,0.00,0.00,-1048.00,14,23.00,0.00,2.86,0.00,0.00,0.00,0,,,100,100,0,2,0,0,0,1,0,,,,,0.0,0.0,0.0,0.0,0.0,0.0,0
34.182636,-118.129103,2.30,2.30,0.00,0.29,2.40,2.40,0.80,0.29,4954,2022-06-05 23:15:35.128,2022-06-05 16:15:35.128,16,0,0,15.244,34.182634,-118.129101,0.00,0.00,0.00,1.50,-1.00,-104.40,0,1,0,48,100,-7443,1742,15244,3211.50,4,WP,1,0,0,0,0,0,0,1654470935128,3805,3801,3807,3806,0,0,27,,,,,,,0,0,0,-15.00,-10.00,-1044.00,0.00,0.00,-1125.00,14,23.00,0.00,2.86,0.00,0.00,0.00,0,,,100,100,0,2,0,0,0,1,0,,,,,0.0,0.0,0.0,0.0,0.0,0.0,0
34.182636,-118.129103,2.30,2.30,0.00,0.29,2.40,2.40,0.80,0.29,5051,2022-06-05 23:15:35.226,2022-06-05 16:15:35.226,16,0,0,15.244,34.182634,-118.129101,0.00,0.00,0.00,1.40,-1.00,-112.10,0,1,0,48,100,-7443,1742,15244,3211.50,4,WP,1,0,0,0,0,0,0,1654470935225,3805,3801,3807,3806,0,0,27,,,,,,,0,0,0,-14.00,-10.00,-1121.00,0.00,0.00,-1203.00,14,23.00,0.00,2.89,0.00,0.00,0.00,0,,,100,100,0,2,0,0,0,1,0,,,,,0.0,0.0,0.0,0.0,0.0,0.0,0
34.182636,-118.129103,2.30,2.30,0.00,0.29,2.40,2.40,0.80,0.29,5153,2022-06-05 23:15:35.327,2022-06-05 16:15:35.327,16,0,0,15.244,34.182634,-118.129101,0.00,0.00,0.00,1.10,-1.10,-119.80,0,1,0,48,100,-7443,1742,15244,3211.50,4,WP,1,0,0,0,0,0,0,1654470935327,3805,3801,3807,3806,0,0,27,,,,,,,0,0,0,-11.00,-11.00,-1198.00,0.00,0.00,-1281.00,14,23.00,0.00,2.90,0.00,0.00,0.00,0,,,100,100,0,2,0,0,0,1,0,,,,,0.0,0.0,0.0,0.0,0.0,0.0,0
34.182636,-118.129103,2.30,2.30,0.00,0.27,2.40,2.40,0.80,0.29,5253,2022-06-05 23:15:35.427,2022-06-05 16:15:35.427,16,0,0,15.244,34.182634,-118.129101,0.00,0.00,0.00,0.90,-1.20,-127.60,0,1,0,48,100,-7443,1742,15244,3211.50,4,WP,1,0,0,0,0,0,0,1654470935427,3805,3801,3807,3806,0,0,27,,,,,,,0,0,0,-9.00,-12.00,-1276.00,0.00,0.00,-1359.00,14,23.00,0.00,2.68,0.00,0.00,0.00,0,,,100,100,0,2,0,0,0,1,0,,,,,0.0,0.0,0.0,0.0,0.0,0.0,0
34.182636,-118.129103,2.30,2.30,0.00,0.27,2.40,2.40,0.80,0.29,5355,2022-06-05 23:15:35.529,2022-06-05 16:15:35.529,16,0,0,15.244,34.182634,-118.129101,0.00,0.00,0.00,0.80,-1.20,-135.50,0,1,0,48,100,-7443,1742,15244,3211.50,4,WP,1,0,0,0,0,0,0,1654470935529,3805,3801,3807,3806,0,0,27,,,,,,,0,0,0,-8.00,-12.00,-1355.00,0.00,0.00,-1437.00,14,23.00,0.00,2.66,0.00,0.00,0.00,0,,,100,100,0,2,0,0,0,1,0,,,,,0.0,0.0,0.0,0.0,0.0,0.0,0
34.182636,-118.129103,2.30,2.30,0.00,0.26,2.40,2.40,0.80,0.29,5453,2022-06-05 23:15:35.627,2022-06-05 16:15:35.627,16,0,0,15.244,34.182634,-118.129101,0.00,0.00,0.00,0.50,-0.90,-143.30,0,1,0,48,100,-7443,1742,15244,3211.50,4,WP,1,0,0,0,0,0,0,1654470935627,3805,3801,3807,3806,0,0,27,,,,,,,0,0,0,-5.00,-9.00,-1433.00,0.00,0.00,-1516.00,14,23.00,0.00,2.63,0.00,0.00,0.00,0,,,100,100,0,2,0,0,0,1,0,,,,,0.0,0.0,0.0,0.0,0.0,0.0,0
34.182636,-118.129103,2.30,2.30,0.00,0.26,2.40,2.40,0.80,0.29,5553,2022-06-05 23:15:35.727,2022-06-05 16:15:35.727,16,0,0,15.244,34.182634,-118.129101,0.00,0.00,0.00,0.30,-0.70,-151.10,0,1,0,48,100,-7443,1742,15244,3211.50,4,WP,1,0,0,0,0,0,0,1654470935727,3805,3801,3807,3806,0,0,27,,,,,,,0,0,0,-3.00,-7.00,-1511.00,0.00,0.00,-1595.00,14,23.00,0.00,2.61,0.00,0.00,0.00,0,,,100,100,0,2,0,0,0,1,0,,,,,0.0,0.0,0.0,0.0,0.0,0.0,0
34.182636,-118.129102,2.30,2.30,0.00,0.25,2.40,2.40,0.80,0.29,5653,2022-06-05 23:15:35.827,2022-06-05 16:15:35.827,16,0,0,15.244,34.182634,-118.129101,0.00,0.00,0.00,0.20,-0.70,-158.90,0,1,0,48,100,-7443,1742,15244,3211.50,4,WP,1,0,0,0,0,0,0,1654470935827,3805,3801,3807,3806,0,0,27,,,,,,,0,0,0,-2.00,-7.00,-1589.00,0.00,0.00,-1674.00,14,23.00,0.00,2.53,0.00,0.00,0.00,0,,,100,100,0,2,0,0,0,1,0,,,,,0.0,0.0,0.0,0.0,0.0,0.0,0
34.182636,-118.129102,2.30,2.30,0.00,0.25,2.40,2.40,0.80,0.29,5807,2022-06-05 23:15:35.981,2022-06-05 16:15:35.981,16,0,0,15.244,34.182634,-118.129101,0.00,0.00,0.00,0.10,-0.50,-166.60,0,1,0,48,100,-7443,1742,15244,3211.50,4,WP,1,0,0,0,0,0,0,1654470935981,3805,3801,3807,3806,0,0,27,,,,,,,0,0,0,-1.00,-5.00,-1666.00,0.00,0.00,-1752.00,14,23.00,0.00,2.50,0.00,0.00,0.00,0,,,100,100,0,2,0,0,0,1,0,,,,,0.0,0.0,0.0,0.0,0.0,0.0,0
34.182636,-118.129102,2.30,2.30,0.00,0.24,2.40,2.40,0.80,0.29,5854,2022-06-05 23:15:36.029,2022-06-05 16:15:36.029,16,0,0,15.178,34.182634,-118.129101,0.00,0.00,0.00,0.10,-0.20,-173.80,0,1,0,48,100,-8224,1736,15178,3211.50,4,WP,1,0,0,0,0,0,0,1654470936028,3805,3801,3807,3806,0,0,27,,,,,,,0,0,0,-1.00,-2.00,-1738.00,0.00,0.00,1770.00,14,23.00,0.00,2.39,0.00,0.00,0.00,0,,,100,100,0,2,0,0,0,1,0,,,,,0.0,0.0,0.0,0.0,0.0,0.0,0
34.182636,-118.129102,2.30,2.30,0.00,0.24,2.40,2.40,0.80,0.29,5952,2022-06-05 23:15:36.127,2022-06-05 16:15:36.127,16,0,0,15.178,34.182634,-118.129101,0.00,0.00,0.00,0.00,-0.10,-179.10,0,1,0,48,100,-8224,1736,15178,3211.50,4,WP,1,0,0,0,0,0,0,1654470936126,3805,3801,3807,3806,0,0,27,,,,,,,0,0,0,-0.00,-1.00,-1791.00,0.00,0.00,1703.00,14,23.00,0.00,2.35,0.00,0.00,0.00,0,,,100,100,0,2,0,0,0,1,0,,,,,0.0,0.0,0.0,0.0,0.0,0.0,0
34.182636,-118.129102,2.30,2.30,0.00,0.24,2.40,2.40,0.80,0.29,6052,2022-06-05 23:15:36.227,2022-06-05 16:15:36.227,16,0,0,15.178,34.182634,-118.129101,0.00,0.00,0.00,-0.20,0.10,177.30,0,1,0,48,100,-8224,1736,15178,3211.50,4,WP,1,0,0,0,0,0,0,1654470936226,3805,3801,3807,3806,0,0,27,,,,,,,0,0,0,2.00,1.00,1773.00,0.00,0.00,1654.00,14,23.00,0.00,2.35,0.00,0.00,0.00,0,,,100,100,0,2,0,0,0,1,0,,,,,0.0,0.0,0.0,0.0,0.0,0.0,0
34.182636,-118.129102,2.30,2.30,0.00,0.23,2.40,2.40,0.80,0.29,6152,2022-06-05 23:15:36.327,2022-06-05 16:15:36.327,16,0,0,15.178,34.182634,-118.129101,0.00,0.00,0.00,-0.60,0.30,175.10,0,1,0,48,100,-8224,1736,15178,3211.50,4,WP,1,0,0,0,0,0,0,1654470936326,3805,3801,3807,3806,0,0,27,,,,,,,0,0,0,6.00,3.00,1751.00,0.00,0.00,1621.00,14,23.00,0.00,2.32,0.00,0.00,0.00,0,,,100,100,0,2,0,0,0,1,0,,,,,0.0,0.0,0.0,0.0,0.0,0.0,0
34.182636,-118.129101,2.30,2.30,0.00,0.25,2.40,2.40,0.80,0.29,6253,2022-06-05 23:15:36.427,2022-06-05 16:15:36.427,16,0,0,15.178,34.182634,-118.129101,0.00,0.00,0.00,-0.60,0.30,173.80,0,1,0,48,100,-8224,1736,15178,3211.50,4,WP,1,0,0,0,0,0,0,1654470936427,3805,3801,3807,3806,0,0,27,,,,,,,0,0,0,6.00,3.00,1738.00,0.00,0.00,1599.00,14,23.00,0.00,2.46,0.00,0.00,0.00,0,,,100,100,0,2,0,0,0,1,0,,,,,0.0,0.0,0.0,0.0,0.0,0.0,0
34.182636,-118.129101,2.30,2.30,0.00,0.24,2.40,2.40,0.80,0.29,6352,2022-06-05 23:15:36.527,2022-06-05 16:15:36.527,16,0,0,15.178,34.182634,-118.129101,0.00,0.00,0.00,-0.50,0.30,173.10,0,1,0,48,100,-8224,1736,15178,3211.50,4,WP,1,0,0,0,0,0,0,1654470936526,3805,3801,3807,3806,0,0,27,,,,,,,0,0,0,5.00,3.00,1731.00,0.00,0.00,1586.00,14,23.00,0.00,2.42,0.00,0.00,0.00,0,,,100,100,0,2,0,0,0,1,0,,,,,0.0,0.0,0.0,0.0,0.0,0.0,0
34.182636,-118.129101,2.30,2.30,0.00,0.25,2.40,2.40,0.80,0.29,6451,2022-06-05 23:15:36.626,2022-06-05 16:15:36.626,16,0,0,15.178,34.182634,-118.129101,0.00,0.00,0.00,-0.20,0.30,172.90,0,1,0,48,100,-8224,1736,15178,3211.50,4,WP,1,0,0,0,0,0,0,1654470936625,3805,3801,3807,3806,0,0,27,,,,,,,0,0,0,2.00,3.00,1729.00,0.00,0.00,1579.00,14,23.00,0.00,2.54,0.00,0.00,0.00,0,,,100,100,0,2,0,0,0,1,0,,,,,0.0,0.0,0.0,0.0,0.0,0.0,0
34.182636,-118.129101,2.30,2.40,0.00,0.25,2.40,2.40,0.80,0.29,6551,2022-06-05 23:15:36.726,2022-06-05 16:15:36.726,16,0,0,15.178,34.182634,-118.129101,0.00,0.00,0.00,-0.20,0.00,172.80,0,1,0,48,100,-8224,1736,15178,3211.50,4,WP,1,0,0,0,0,0,0,1654470936725,3805,3801,3807,3806,0,0,27,,,,,,,0,0,0,2.00,0.00,1728.00,0.00,0.00,1575.00,14,23.00,0.00,2.50,0.00,0.00,0.00,0,,,100,100,0,2,0,0,0,1,0,,,,,0.0,0.0,0.0,0.0,0.0,0.0,0
34.182637,-118.129101,2.30,2.40,0.00,0.30,2.40,2.40,0.80,0.30,6654,2022-06-05 23:15:36.828,2022-06-05 16:15:36.828,16,0,0,15.178,34.182634,-118.129101,0.00,0.00,0.00,-0.30,-0.30,172.60,0,1,0,48,100,-8224,1736,15178,3211.50,4,WP,1,0,0,0,0,0,0,1654470936828,3805,3801,3807,3806,0,0,27,,,,,,,0,0,0,3.00,-3.00,1726.00,0.00,0.00,1573.00,14,23.00,0.00,2.97,0.00,0.00,0.00,0,,,100,100,0,2,0,0,0,1,0,,,,,0.0,0.0,0.0,0.0,0.0,0.0,0
34.182637,-118.129101,2.30,2.40,0.00,0.30,2.40,2.40,0.80,0.30,6752,2022-06-05 23:15:36.927,2022-06-05 16:15:36.927,16,0,0,15.178,34.182634,-118.129101,0.00,0.00,0.00,-2.30,-1.00,172.50,0,1,0,48,100,-8224,1736,15178,3211.50,4,WP,1,0,0,0,0,0,0,1654470936926,3805,3801,3807,3806,0,0,27,,,,,,,0,0,0,23.00,-10.00,1725.00,0.00,0.00,1571.00,14,23.00,0.00,2.96,0.00,0.00,0.00,0,,,100,100,0,2,0,0,0,1,0,,,,,0.0,0.0,0.0,0.0,0.0,0.0,0
34.182637,-118.129101,2.30,2.40,0.00,0.33,2.40,2.40,0.80,0.33,6855,2022-06-05 23:15:37.029,2022-06-05 16:15:37.029,16,0,0,15.178,34.182634,-118.129101,0.00,0.00,0.00,-7.60,-0.60,172.40,0,1,0,48,100,-8224,1736,15178,3211.50,4,WP,1,0,0,0,0,0,0,1654470937029,3805,3801,3807,3806,0,0,27,,,,,,,0,0,0,76.00,-6.00,1724.00,0.00,0.00,1571.00,14,23.00,0.00,3.26,0.00,0.00,0.00,0,,,100,100,0,2,0,0,0,1,0,,,,,0.0,0.0,0.0,0.0,0.0,0.0,0
34.182637,-118.129101,2.30,2.40,0.10,0.32,2.40,2.40,0.80,0.33,6954,2022-06-05 23:15:37.128,2022-06-05 16:15:37.128,16,0,0,15.178,34.182634,-118.129101,-0.10,0.00,0.00,-12.30,0.00,172.30,0,1,0,48,100,-8224,1736,15178,3211.50,4,WP,1,0,0,0,0,0,0,1654470937128,3805,3801,3807,3806,0,0,27,,,,,,,0,0,0,123.00,0.00,1723.00,0.00,0.00,1570.00,14,23.00,1.00,3.17,-1.00,0.00,0.00,0,,,100,100,0,2,0,0,0,1,0,,,,,0.0,0.0,0.0,0.0,0.0,0.0,0
34.182637,-118.129100,2.30,2.30,0.32,0.30,2.40,2.40,0.80,0.33,7052,2022-06-05 23:15:37.226,2022-06-05 16:15:37.226,16,0,0,15.178,34.182634,-118.129101,-0.30,0.10,0.00,-15.80,0.70,172.30,0,1,0,48,100,-8224,1736,15178,3211.50,4,WP,1,0,0,0,0,0,0,1654470937226,3805,3801,3807,3806,0,0,27,,,,,,,0,0,0,158.00,7.00,1723.00,0.00,0.00,1570.00,14,23.00,3.16,3.01,-3.00,1.00,0.00,0,,,100,100,0,2,0,0,0,1,0,,,,,0.0,0.0,0.0,0.0,0.0,0.0,0
34.182636,-118.129100,2.30,2.30,0.61,0.26,2.40,2.40,0.80,0.33,7152,2022-06-05 23:15:37.327,2022-06-05 16:15:37.327,16,0,0,15.178,34.182634,-118.129101,-0.60,0.10,0.00,-17.90,1.30,172.20,0,1,0,48,100,-8224,1736,15178,3211.50,4,WP,1,0,0,0,0,0,0,1654470937326,3805,3801,3807,3806,0,0,27,,,,,,,0,0,0,179.00,13.00,1722.00,0.00,0.00,1570.00,14,23.00,6.08,2.56,-6.00,1.00,0.00,0,,,100,100,0,2,0,0,0,1,0,,,,,0.0,0.0,0.0,0.0,0.0,0.0,0
34.182636,-118.129100,2.30,2.30,0.91,0.22,2.40,2.40,0.91,0.33,7253,2022-06-05 23:15:37.427,2022-06-05 16:15:37.427,16,0,0,15.178,34.182634,-118.129101,-0.90,0.10,0.00,-19.40,1.60,172.30,0,1,0,48,100,-8224,1736,15178,3211.50,4,WP,1,0,0,0,0,0,0,1654470937427,3805,3801,3807,3806,0,0,27,,,,,,,0,0,0,194.00,16.00,1723.00,0.00,0.00,1569.00,14,23.00,9.06,2.24,-9.00,1.00,0.00,0,,,100,100,0,2,0,0,0,1,0,,,,,0.0,0.0,0.0,0.0,0.0,0.0,0
34.182635,-118.129100,2.40,2.30,1.20,0.16,2.40,2.40,1.20,0.33,7352,2022-06-05 23:15:37.527,2022-06-05 16:15:37.527,16,0,0,15.178,34.182634,-118.129101,-1.20,0.10,0.00,-20.60,2.20,172.50,0,1,0,48,100,-8224,1736,15178,3211.50,4,WP,1,0,0,0,0,0,0,1654470937526,3805,3801,3807,3806,0,0,27,,,,,,,0,0,0,206.00,22.00,1725.00,0.00,0.00,1569.00,14,24.00,12.04,1.62,-12.00,1.00,0.00,0,,,100,100,0,2,0,0,0,1,0,,,,,0.0,0.0,0.0,0.0,0.0,0.0,0
34.182634,-118.129100,2.40,2.30,1.60,0.16,2.40,2.40,1.60,0.33,7451,2022-06-05 23:15:37.626,2022-06-05 16:15:37.626,16,0,0,15.178,34.182634,-118.129101,-1.60,0.10,0.00,-21.20,2.10,172.70,0,1,0,48,100,-8224,1736,15178,3211.50,4,WP,1,0,0,0,0,0,0,1654470937625,3805,3801,3807,3806,0,0,27,,,,,,,0,0,0,212.00,21.00,1727.00,0.00,0.00,1569.00,14,24.00,16.03,1.63,-16.00,1.00,0.00,0,,,100,100,0,2,0,0,0,1,0,,,,,0.0,0.0,0.0,0.0,0.0,0.0,0
34.182632,-118.129099,2.40,2.30,1.91,0.28,2.40,2.40,1.91,0.33,7552,2022-06-05 23:15:37.727,2022-06-05 16:15:37.727,16,0,0,15.178,34.182634,-118.129101,-1.90,0.20,0.00,-20.70,1.90,172.70,0,1,0,48,100,-8224,1736,15178,3211.50,4,WP,1,0,0,0,0,0,0,1654470937726,3805,3801,3807,3806,0,0,27,,,,,,,0,0,0,207.00,19.00,1727.00,0.00,0.00,1569.00,14,24.00,19.10,2.75,-19.00,2.00,0.00,0,,,100,100,0,2,0,0,0,1,0,,,,,0.0,0.0,0.0,0.0,0.0,0.0,0
34.182631,-118.129100,2.40,2.30,2.20,0.42,2.40,2.40,2.20,0.42,7653,2022-06-05 23:15:37.827,2022-06-05 16:15:37.827,16,0,0,15.178,34.182634,-118.129101,-2.20,0.10,0.00,-19.30,1.20,172.80,0,1,0,48,100,-8224,1736,15178,3211.50,4,WP,1,0,0,0,0,0,0,1654470937827,3805,3801,3807,3806,0,0,27,,,,,,,0,0,0,193.00,12.00,1728.00,0.00,0.00,1569.00,14,24.00,22.02,4.20,-22.00,1.00,0.00,0,,,100,100,0,2,0,0,0,1,0,,,,,0.0,0.0,0.0,0.0,0.0,0.0,0
34.182628,-118.129099,2.40,2.40,2.51,0.65,2.40,2.40,2.51,0.65,7753,2022-06-05 23:15:37.927,2022-06-05 16:15:37.927,16,0,0,15.178,34.182634,-118.129101,-2.50,0.20,-0.10,-18.60,-0.20,172.90,0,1,0,48,100,-8224,1736,15178,3211.50,4,WP,1,0,0,0,0,0,0,1654470937927,3805,3801,3807,3806,0,0,27,,,,,,,0,0,0,186.00,-2.00,1729.00,0.00,0.00,1569.00,14,24.00,25.10,6.54,-25.00,2.00,-1.00,0,,,100,100,0,2,0,0,0,1,0,,,,,0.0,0.0,0.0,0.0,0.0,0.0,0
34.182626,-118.129099,2.40,2.40,2.81,0.89,2.40,2.40,2.81,0.89,7852,2022-06-05 23:15:38.027,2022-06-05 16:15:38.027,16,0,0,15.178,34.182634,-118.129101,-2.80,0.20,-0.10,-18.70,-0.60,173.10,0,1,0,48,100,-8224,1736,15178,3211.50,4,WP,1,0,0,0,0,0,0,1654470938026,3805,3801,3807,3806,0,0,27,,,,,,,0,0,0,187.00,-6.00,1731.00,0.00,0.00,1569.00,14,24.00,28.09,8.94,-28.00,2.00,-1.00,0,,,100,100,0,2,0,0,0,1,0,,,,,0.0,0.0,0.0,0.0,0.0,0.0,0
34.182623,-118.129099,2.40,2.40,3.11,1.19,2.40,2.40,3.11,1.19,7953,2022-06-05 23:15:38.127,2022-06-05 16:15:38.128,16,0,0,15.175,34.182634,-118.129101,-3.10,0.20,-0.10,-19.00,-1.10,173.10,0,1,0,48,100,-8250,1733,15175,3211.50,4,WP,1,0,0,0,0,0,0,1654470938127,3805,3801,3807,3806,0,0,27,,,,,,,0,0,0,190.00,-11.00,1731.00,0.00,0.00,1569.00,14,24.00,31.08,11.86,-31.00,2.00,-1.00,0,,,100,100,0,2,0,0,0,1,0,,,,,0.0,0.0,0.0,0.0,0.0,0.0,0
34.182621,-118.129100,2.40,2.40,3.31,1.49,2.40,2.40,3.31,1.49,8052,2022-06-05 23:15:38.226,2022-06-05 16:15:38.226,16,0,0,15.175,34.182634,-118.129101,-3.30,0.20,0.00,-19.60,-1.50,173.30,0,1,0,48,100,-8250,1733,15175,3211.50,4,WP,1,0,0,0,0,0,0,1654470938226,3805,3801,3807,3806,0,0,27,,,,,,,0,0,0,196.00,-15.00,1733.00,0.00,0.00,1569.00,14,24.00,33.06,14.90,-33.00,2.00,0.00,0,,,100,100,0,2,0,0,0,1,0,,,,,0.0,0.0,0.0,0.0,0.0,0.0,0
34.182618,-118.129099,2.40,2.40,3.61,1.83,2.40,2.40,3.61,1.83,8153,2022-06-05 23:15:38.327,2022-06-05 16:15:38.327,16,0,0,15.175,34.182634,-118.129101,-3.60,0.30,0.00,-19.30,-2.00,173.20,0,1,0,48,100,-8250,1733,15175,3211.50,4,WP,1,0,0,0,0,0,0,1654470938327,3805,3801,3807,3806,0,0,27,,,,,,,0,0,0,193.00,-20.00,1732.00,0.00,0.00,1569.00,14,24.00,36.12,18.33,-36.00,3.00,0.00,0,,,100,100,0,2,0,0,0,1,0,,,,,0.0,0.0,0.0,0.0,0.0,0.0,0
34.182614,-118.129100,2.40,2.40,3.81,2.19,2.40,2.40,3.81,2.19,8253,2022-06-05 23:15:38.427,2022-06-05 16:15:38.427,16,0,0,15.175,34.182634,-118.129101,-3.80,0.30,-0.10,-15.40,-2.30,173.30,0,1,0,48,100,-8250,1733,15175,3211.50,4,WP,1,0,0,0,0,0,0,1654470938427,3805,3801,3807,3806,0,0,27,,,,,,,0,0,0,154.00,-23.00,1733.00,0.00,0.00,1569.00,14,24.00,38.13,21.86,-38.00,3.00,-1.00,0,,,100,100,0,2,0,0,0,1,0,,,,,0.0,0.0,0.0,0.0,0.0,0.0,0
34.182611,-118.129099,2.40,2.50,4.02,2.57,2.40,2.40,4.02,2.57,8354,2022-06-05 23:15:38.529,2022-06-05 16:15:38.529,16,0,0,15.175,34.182634,-118.129101,-4.00,0.40,-0.10,-11.70,-2.30,173.00,0,1,0,48,100,-8250,1733,15175,3211.50,4,WP,1,0,0,0,0,0,0,1654470938528,3805,3801,3807,3806,0,0,27,,,,,,,0,0,0,117.00,-23.00,1730.00,0.00,0.00,1569.00,14,24.00,40.21,25.73,-40.00,4.00,-1.00,0,,,100,100,0,2,0,0,0,1,0,,,,,0.0,0.0,0.0,0.0,0.0,0.0,0
34.182607,-118.129100,2.50,2.50,4.12,2.96,2.50,2.50,4.12,2.96,8453,2022-06-05 23:15:38.627,2022-06-05 16:15:38.627,16,0,0,15.175,34.182634,-118.129101,-4.10,0.40,-0.10,-5.30,-2.30,173.00,0,1,0,48,100,-8250,1733,15175,3211.50,4,WP,1,0,0,0,0,0,0,1654470938627,3805,3801,3807,3806,0,0,27,,,,,,,0,0,0,53.00,-23.00,1730.00,0.00,0.00,1569.00,14,25.00,41.21,29.57,-41.00,4.00,-1.00,0,,,100,100,0,2,0,0,0,1,0,,,,,0.0,0.0,0.0,0.0,0.0,0.0,0
34.182604,-118.129099,2.50,2.50,4.13,3.36,2.50,2.50,4.13,3.36,8553,2022-06-05 23:15:38.727,2022-06-05 16:15:38.727,16,0,0,15.175,34.182634,-118.129101,-4.10,0.50,-0.10,0.50,-2.40,173.20,0,1,0,48,100,-8250,1733,15175,3211.50,4,WP,1,0,0,0,0,0,0,1654470938727,3805,3801,3807,3806,0,0,27,,,,,,,0,0,0,-5.00,-24.00,1732.00,0.00,0.00,1569.00,14,25.00,41.32,33.56,-41.00,5.00,-1.00,0,,,100,100,0,2,0,0,0,1,0,,,,,0.0,0.0,0.0,0.0,0.0,0.0,0
34.182600,-118.129099,2.50,2.60,4.02,3.80,2.50,2.50,4.13,3.80,8654,2022-06-05 23:15:38.828,2022-06-05 16:15:38.829,16,0,0,15.175,34.182634,-118.129101,-4.00,0.40,-0.10,5.80,-2.10,173.00,0,1,0,48,100,-8250,1733,15175,3211.50,4,WP,1,0,0,0,0,0,0,1654470938828,3805,3801,3807,3806,0,0,27,,,,,,,0,0,0,-58.00,-21.00,1730.00,0.00,0.00,1569.00,14,25.00,40.21,38.02,-40.00,4.00,-1.00,0,,,100,100,0,2,0,0,0,1,0,,,,,0.0,0.0,0.0,0.0,0.0,0.0,0
34.182596,-118.129099,2.50,2.60,3.83,4.18,2.50,2.50,4.13,4.18,8753,2022-06-05 23:15:38.927,2022-06-05 16:15:38.927,16,0,0,15.175,34.182634,-118.129101,-3.80,0.50,0.00,10.00,-2.50,172.80,0,1,0,48,100,-8250,1733,15175,3211.50,4,WP,1,0,0,0,0,0,0,1654470938927,3805,3801,3807,3806,0,0,27,,,,,,,0,0,0,-100.00,-25.00,1728.00,0.00,0.00,1569.00,14,25.00,38.33,41.84,-38.00,5.00,0.00,0,,,100,100,0,2,0,0,0,1,0,,,,,0.0,0.0,0.0,0.0,0.0,0.0,0
34.182593,-118.129099,2.50,2.60,3.63,4.56,2.50,2.50,4.13,4.56,8853,2022-06-05 23:15:39.028,2022-06-05 16:15:39.028,16,0,0,15.175,34.182634,-118.129101,-3.60,0.50,0.00,12.50,-1.90,173.20,0,1,0,48,100,-8250,1733,15175,3211.50,4,WP,1,0,0,0,0,0,0,1654470939027,3805,3801,3807,3806,0,0,27,,,,,,,0,0,0,-125.00,-19.00,1732.00,0.00,0.00,1569.00,14,25.00,36.35,45.61,-36.00,5.00,0.00,0,,,100,100,0,2,0,0,0,1,0,,,,,0.0,0.0,0.0,0.0,0.0,0.0,0
34.182590,-118.129099,2.50,2.50,3.34,4.90,2.50,2.50,4.13,4.90,8953,2022-06-05 23:15:39.127,2022-06-05 16:15:39.127,16,0,0,15.175,34.182634,-118.129101,-3.30,0.50,0.00,12.60,-2.50,173.10,0,1,0,48,100,-8250,1733,15175,3211.50,4,WP,1,0,0,0,0,0,0,1654470939127,3805,3801,3807,3806,0,0,27,,,,,,,0,0,0,-126.00,-25.00,1731.00,0.00,0.00,1569.00,14,25.00,33.38,48.96,-33.00,5.00,0.00,0,,,100,100,0,2,0,0,0,1,0,,,,,0.0,0.0,0.0,0.0,0.0,0.0,0
34.182587,-118.129099,2.50,2.60,3.04,5.22,2.50,2.50,4.13,5.22,9052,2022-06-05 23:15:39.227,2022-06-05 16:15:39.227,16,0,0,15.175,34.182634,-118.129101,-3.00,0.50,0.00,11.50,-2.80,173.30,0,1,0,48,100,-8250,1733,15175,3211.50,4,WP,1,0,0,0,0,0,0,1654470939226,3805,3801,3807,3806,0,0,27,,,,,,,0,0,0,-115.00,-28.00,1733.00,0.00,0.00,1569.00,14,25.00,30.41,52.20,-30.00,5.00,0.00,0,,,100,100,0,2,0,0,0,1,0,,,,,0.0,0.0,0.0,0.0,0.0,0.0,0
34.182584,-118.129098,2.50,2.60,2.84,5.50,2.50,2.50,4.13,5.50,9152,2022-06-05 23:15:39.327,2022-06-05 16:15:39.327,16,0,0,15.175,34.182634,-118.129101,-2.80,0.50,0.00,11.40,-3.60,172.90,0,1,0,48,100,-8250,1733,15175,3211.50,4,WP,1,0,0,0,0,0,0,1654470939326,3805,3801,3807,3806,0,0,27,,,,,,,0,0,0,-114.00,-36.00,1729.00,0.00,0.00,1569.00,14,25.00,28.44,55.01,-28.00,5.00,0.00,0,,,100,100,0,2,0,0,0,1,0,,,,,0.0,0.0,0.0,0.0,0.0,0.0,0
34.182582,-118.129098,2.50,2.60,2.57,5.80,2.50,2.50,4.13,5.80,9269,2022-06-05 23:15:39.443,2022-06-05 16:15:39.443,16,0,0,15.175,34.182634,-118.129101,-2.50,0.60,0.00,11.90,-2.80,172.90,0,1,0,48,100,-8250,1733,15175,3211.50,4,WP,1,0,0,0,0,0,0,1654470939443,3805,3801,3807,3806,0,0,27,,,,,,,0,0,0,-119.00,-28.00,1729.00,0.00,0.00,1569.00,14,25.00,25.71,57.98,-25.00,6.00,0.00,0,,,100,100,0,2,0,0,0,1,0,,,,,0.0,0.0,0.0,0.0,0.0,0.0,0
34.182580,-118.129097,2.50,2.60,2.28,6.03,2.50,2.50,4.13,6.03,9353,2022-06-05 23:15:39.527,2022-06-05 16:15:39.527,16,0,0,15.175,34.182634,-118.129101,-2.20,0.60,0.00,12.00,-1.40,172.90,0,1,0,48,100,-8250,1733,15175,3211.50,4,WP,1,0,0,0,0,0,0,1654470939527,3805,3801,3807,3806,0,0,27,,,,,,,0,0,0,-120.00,-14.00,1729.00,0.00,0.00,1569.00,14,25.00,22.80,60.29,-22.00,6.00,0.00,0,,,100,100,0,2,0,0,0,1,0,,,,,0.0,0.0,0.0,0.0,0.0,0.0,0
34.182578,-118.129096,2.50,2.60,1.99,6.25,2.50,2.50,4.13,6.25,9454,2022-06-05 23:15:39.628,2022-06-05 16:15:39.628,16,0,0,15.175,34.182634,-118.129101,-1.90,0.60,0.00,11.10,-0.10,172.90,0,1,0,48,100,-8250,1733,15175,3211.50,4,WP,1,0,0,0,0,0,0,1654470939628,3805,3801,3807,3806,0,0,27,,,,,,,0,0,0,-111.00,-1.00,1729.00,0.00,0.00,1569.00,14,25.00,19.92,62.47,-19.00,6.00,0.00,0,,,100,100,0,2,0,0,0,1,0,,,,,0.0,0.0,0.0,0.0,0.0,0.0,0
34.182576,-118.129096,2.50,2.70,1.80,6.43,2.50,2.50,4.13,6.43,9552,2022-06-05 23:15:39.726,2022-06-05 16:15:39.726,16,0,0,15.175,34.182634,-118.129101,-1.70,0.60,0.00,9.70,0.90,172.90,0,1,0,48,100,-8250,1733,15175,3211.50,4,WP,1,0,0,0,0,0,0,1654470939726,3805,3801,3807,3806,0,0,27,,,,,,,0,0,0,-97.00,9.00,1729.00,0.00,0.00,1569.00,14,25.00,18.03,64.29,-17.00,6.00,0.00,0,,,100,100,0,2,0,0,0,1,0,,,,,0.0,0.0,0.0,0.0,0.0,0.0,0
34.182575,-118.129095,2.50,2.70,1.58,6.62,2.50,2.50,4.13,6.62,9669,2022-06-05 23:15:39.844,2022-06-05 16:15:39.844,16,0,0,15.175,34.182634,-118.129101,-1.50,0.50,0.00,8.40,1.30,172.90,0,1,0,48,100,-8250,1733,15175,3211.50,4,WP,1,0,0,0,0,0,0,1654470939843,3805,3801,3807,3806,0,0,27,,,,,,,0,0,0,-84.00,13.00,1729.00,0.00,0.00,1569.00,14,25.00,15.81,66.16,-15.00,5.00,0.00,0,,,100,100,0,2,0,0,0,1,0,,,,,0.0,0.0,0.0,0.0,0.0,0.0,0
34.182573,-118.129095,2.50,2.70,1.39,6.76,2.50,2.50,4.13,6.76,9753,2022-06-05 23:15:39.927,2022-06-05 16:15:39.927,16,0,0,15.175,34.182634,-118.129101,-1.30,0.50,0.00,7.20,1.90,172.90,0,1,0,48,100,-8250,1733,15175,3211.50,4,WP,1,0,0,0,0,0,0,1654470939927,3805,3801,3807,3806,0,0,27,,,,,,,0,0,0,-72.00,19.00,1729.00,0.00,0.00,1569.00,14,25.00,13.93,67.61,-13.00,5.00,0.00,0,,,100,100,0,2,0,0,0,1,0,,,,,0.0,0.0,0.0,0.0,0.0,0.0,0
34.182572,-118.129094,2.50,2.70,1.30,6.91,2.50,2.50,4.13,6.91,9853,2022-06-05 23:15:40.027,2022-06-05 16:15:40.027,16,0,0,15.175,34.182634,-118.129101,-1.20,0.50,0.00,6.00,2.30,172.80,0,1,0,48,100,-8250,1733,15175,3211.50,4,WP,1,0,0,0,0,0,0,1654470940027,3805,3801,3807,3806,0,0,27,,,,,,,0,0,0,-60.00,23.00,1728.00,0.00,0.00,1569.00,14,25.00,13.00,69.05,-12.00,5.00,0.00,0,,,100,100,0,2,0,0,0,1,0,,,,,0.0,0.0,0.0,0.0,0.0,0.0,0
34.182571,-118.129094,2.50,2.70,1.08,7.02,2.50,2.50,4.13,7.02,9972,2022-06-05 23:15:40.147,2022-06-05 16:15:40.147,16,0,0,15.187,34.182634,-118.129101,-1.00,0.40,0.00,5.10,2.60,172.70,0,1,0,48,100,-7793,1729,15187,3211.50,4,WP,1,0,0,0,0,0,0,1654470940146,3805,3801,3807,3806,0,0,27,,,,,,,0,0,0,-51.00,26.00,1727.00,0.00,0.00,1569.00,14,25.00,10.77,70.23,-10.00,4.00,0.00,0,,,100,100,0,2,0,0,0,1,0,,,,,0.0,0.0,0.0,0.0,0.0,0.0,0
34.182570,-118.129093,2.50,2.70,0.98,7.12,2.50,2.50,4.13,7.12,10051,2022-06-05 23:15:40.226,2022-06-05 16:15:40.226,16,0,0,15.187,34.182634,-118.129101,-0.90,0.40,0.00,4.10,2.60,172.70,0,1,0,48,100,-7793,1729,15187,3211.50,4,WP,1,0,0,0,0,0,0,1654470940225,3805,3801,3807,3806,0,0,27,,,,,,,0,0,0,-41.00,26.00,1727.00,0.00,0.00,1569.00,14,25.00,9.85,71.24,-9.00,4.00,0.00,0,,,100,100,0,2,0,0,0,1,0,,,,,0.0,0.0,0.0,0.0,0.0,0.0,0
34.182569,-118.129093,2.50,2.70,0.85,7.22,2.50,2.50,4.13,7.22,10152,2022-06-05 23:15:40.326,2022-06-05 16:15:40.326,16,0,0,15.187,34.182634,-118.129101,-0.80,0.30,0.00,3.30,3.00,172.80,0,1,0,48,100,-7793,1729,15187,3211.50,4,WP,1,0,0,0,0,0,0,1654470940326,3805,3801,3807,3806,0,0,27,,,,,,,0,0,0,-33.00,30.00,1728.00,0.00,0.00,1569.00,14,25.00,8.54,72.22,-8.00,3.00,0.00,0,,,100,100,0,2,0,0,0,1,0,,,,,0.0,0.0,0.0,0.0,0.0,0.0,0
34.182569,-118.129092,2.50,2.70,0.85,7.29,2.50,2.50,4.13,7.29,10269,2022-06-05 23:15:40.444,2022-06-05 16:15:40.444,16,0,0,15.187,34.182634,-118.129101,-0.80,0.30,0.00,2.60,3.00,172.70,0,1,0,48,100,-7793,1729,15187,3211.50,4,WP,1,0,0,0,0,0,0,1654470940443,3805,3801,3807,3806,0,0,27,,,,,,,0,0,0,-26.00,30.00,1727.00,0.00,0.00,1569.00,14,25.00,8.54,72.91,-8.00,3.00,0.00,0,,,100,100,0,2,0,0,0,1,0,,,,,0.0,0.0,0.0,0.0,0.0,0.0,0
34.182568,-118.129092,2.50,2.70,0.73,7.37,2.50,2.50,4.13,7.37,10353,2022-06-05 23:15:40.527,2022-06-05 16:15:40.527,16,0,0,15.187,34.182634,-118.129101,-0.70,0.20,0.00,2.10,3.20,172.70,0,1,0,48,100,-7793,1729,15187,3211.50,4,WP,1,0,0,0,0,0,0,1654470940527,3805,3801,3807,3806,0,0,27,,,,,,,0,0,0,-21.00,32.00,1727.00,0.00,0.00,1569.00,14,25.00,7.28,73.75,-7.00,2.00,0.00,0,,,100,100,0,2,0,0,0,1,0,,,,,0.0,0.0,0.0,0.0,0.0,0.0,0
34.182567,-118.129091,2.50,2.70,0.73,7.45,2.50,2.50,4.13,7.45,10469,2022-06-05 23:15:40.644,2022-06-05 16:15:40.644,16,0,0,15.187,34.182634,-118.129101,-0.70,0.20,0.00,2.10,3.00,172.70,0,1,0,48,100,-7793,1729,15187,3211.50,4,WP,1,0,0,0,0,0,0,1654470940643,3805,3801,3807,3806,0,0,27,,,,,,,0,0,0,-21.00,30.00,1727.00,0.00,0.00,1569.00,14,25.00,7.28,74.55,-7.00,2.00,0.00,0,,,100,100,0,2,0,0,0,1,0,,,,,0.0,0.0,0.0,0.0,0.0,0.0,0
34.182567,-118.129091,2.50,2.70,0.61,7.53,2.50,2.50,4.13,7.53,10570,2022-06-05 23:15:40.744,2022-06-05 16:15:40.744,16,0,0,15.187,34.182634,-118.129101,-0.60,0.10,0.00,2.50,2.80,172.70,0,1,0,48,100,-7793,1729,15187,3211.50,4,WP,1,0,0,0,0,0,0,1654470940744,3805,3801,3807,3806,0,0,27,,,,,,,0,0,0,-25.00,28.00,1727.00,0.00,0.00,1569.00,14,25.00,6.08,75.29,-6.00,1.00,0.00,0,,,100,100,0,2,0,0,0,1,0,,,,,0.0,0.0,0.0,0.0,0.0,0.0,0
34.182566,-118.129091,2.50,2.70,0.61,7.56,2.50,2.50,4.13,7.56,10669,2022-06-05 23:15:40.844,2022-06-05 16:15:40.844,16,0,0,15.187,34.182634,-118.129101,-0.60,0.10,0.00,2.80,2.10,172.80,0,1,0,48,100,-7793,1729,15187,3211.50,4,WP,1,0,0,0,0,0,0,1654470940843,3805,3801,3807,3806,0,0,27,,,,,,,0,0,0,-28.00,21.00,1728.00,0.00,0.00,1569.00,14,25.00,6.08,75.59,-6.00,1.00,0.00,0,,,100,100,0,2,0,0,0,1,0,,,,,0.0,0.0,0.0,0.0,0.0,0.0,0
34.182566,-118.129091,2.50,2.70,0.51,7.62,2.50,2.50,4.13,7.62,10770,2022-06-05 23:15:40.944,2022-06-05 16:15:40.944,16,0,0,15.187,34.182634,-118.129101,-0.50,0.10,0.00,2.80,1.70,172.70,0,1,0,48,100,-7793,1729,15187,3211.50,4,WP,1,0,0,0,0,0,0,1654470940944,3805,3801,3807,3806,0,0,27,,,,,,,0,0,0,-28.00,17.00,1727.00,0.00,0.00,1569.00,14,25.00,5.10,76.19,-5.00,1.00,0.00,0,,,100,100,0,2,0,0,0,1,0,,,,,0.0,0.0,0.0,0.0,0.0,0.0,0
34.182566,-118.129090,2.50,2.60,0.50,7.66,2.50,2.50,4.13,7.66,10871,2022-06-05 23:15:41.046,2022-06-05 16:15:41.046,16,0,0,15.187,34.182634,-118.129101,-0.50,0.00,0.00,2.90,1.60,172.70,0,1,0,48,100,-7793,1729,15187,3211.50,4,WP,1,0,0,0,0,0,0,1654470941045,3805,3801,3807,3806,0,0,27,,,,,,,0,0,0,-29.00,16.00,1727.00,0.00,0.00,1569.00,14,25.00,5.00,76.59,-5.00,0.00,0.00,0,,,100,100,0,2,0,0,0,1,0,,,,,0.0,0.0,0.0,0.0,0.0,0.0,0
34.182565,-118.129090,2.50,2.60,0.40,7.71,2.50,2.50,4.13,7.71,10970,2022-06-05 23:15:41.144,2022-06-05 16:15:41.145,16,0,0,15.187,34.182634,-118.129101,-0.40,0.00,0.00,2.70,1.80,172.70,0,1,0,48,100,-7793,1729,15187,3211.50,4,WP,1,0,0,0,0,0,0,1654470941144,3805,3801,3807,3806,0,0,27,,,,,,,0,0,0,-27.00,18.00,1727.00,0.00,0.00,1569.00,14,25.00,4.00,77.07,-4.00,0.00,0.00,0,,,100,100,0,2,0,0,0,1,0,,,,,0.0,0.0,0.0,0.0,0.0,0.0,0
34.182565,-118.129090,2.50,2.60,0.40,7.75,2.50,2.50,4.13,7.75,11052,2022-06-05 23:15:41.226,2022-06-05 16:15:41.226,16,0,0,15.187,34.182634,-118.129101,-0.40,0.00,0.00,2.70,1.70,172.70,0,1,0,48,100,-7793,1729,15187,3211.50,4,WP,1,0,0,0,0,0,0,1654470941226,3805,3801,3807,3806,0,0,27,,,,,,,0,0,0,-27.00,17.00,1727.00,0.00,0.00,1569.00,14,25.00,4.00,77.46,-4.00,0.00,0.00,0,,,100,100,0,2,0,0,0,1,0,,,,,0.0,0.0,0.0,0.0,0.0,0.0,0
34.182564,-118.129090,2.50,2.60,0.30,7.78,2.50,2.50,4.13,7.78,11170,2022-06-05 23:15:41.345,2022-06-05 16:15:41.345,16,0,0,15.187,34.182634,-118.129101,-0.30,0.00,0.00,6.40,-0.40,172.80,0,1,0,48,100,-7793,1729,15187,3211.50,4,WP,1,0,0,0,0,0,0,1654470941344,3805,3801,3807,3806,0,0,27,,,,,,,0,0,0,-64.00,-4.00,1728.00,0.00,0.00,1569.00,14,25.00,3.00,77.82,-3.00,0.00,0.00,0,,,100,100,0,2,0,0,0,1,0,,,,,0.0,0.0,0.0,0.0,0.0,0.0,0
34.182564,-118.129090,2.50,2.60,0.20,7.79,2.50,2.50,4.13,7.79,11270,2022-06-05 23:15:41.444,2022-06-05 16:15:41.444,16,0,0,15.187,34.182634,-118.129101,-0.20,0.00,0.00,5.50,-0.10,173.00,0,1,0,48,100,-7793,1729,15187,3211.50,4,WP,1,0,0,0,0,0,0,1654470941444,3805,3801,3807,3806,0,0,27,,,,,,,0,0,0,-55.00,-1.00,1730.00,0.00,0.00,1569.00,14,25.00,2.00,77.91,-2.00,0.00,0.00,0,,,100,100,0,2,0,0,0,1,0,,,,,0.0,0.0,0.0,0.0,0.0,0.0,0
34.182564,-118.129090,2.50,2.60,0.10,7.81,2.50,2.50,4.13,7.81,11371,2022-06-05 23:15:41.545,2022-06-05 16:15:41.545,16,0,0,15.187,34.182634,-118.129101,-0.10,0.00,0.00,3.90,0.10,173.00,0,1,0,48,100,-7793,1729,15187,3211.50,4,WP,1,0,0,0,0,0,0,1654470941545,3805,3801,3807,3806,0,0,27,,,,,,,0,0,0,-39.00,1.00,1730.00,0.00,0.00,1569.00,14,25.00,1.00,78.06,-1.00,0.00,0.00,0,,,100,100,0,2,0,0,0,1,0,,,,,0.0,0.0,0.0,0.0,0.0,0.0,0
34.182564,-118.129090,2.50,2.60,0.00,7.79,2.50,2.50,4.13,7.81,11470,2022-06-05 23:15:41.644,2022-06-05 16:15:41.644,16,0,0,15.187,34.182634,-118.129101,0.00,0.00,0.00,2.70,0.20,167.70,0,1,0,48,100,-7793,1729,15187,3211.50,4,WP,1,0,0,0,0,0,0,1654470941644,3805,3801,3807,3806,0,0,27,,,,,,,0,0,0,-27.00,2.00,1677.00,0.00,0.00,1568.00,14,25.00,0.00,77.93,0.00,0.00,0.00,0,,,100,100,0,2,0,0,0,1,0,,,,,0.0,0.0,0.0,0.0,0.0,0.0,0
34.182564,-118.129090,2.50,2.60,0.00,7.79,2.50,2.50,4.13,7.81,11553,2022-06-05 23:15:41.727,2022-06-05 16:15:41.727,16,0,0,15.187,34.182634,-118.129101,0.00,0.00,0.00,1.50,-0.10,160.10,0,1,0,48,100,-7793,1729,15187,3211.50,4,WP,1,0,0,0,0,0,0,1654470941727,3805,3801,3807,3806,0,0,27,,,,,,,0,0,0,-15.00,-1.00,1601.00,0.00,0.00,1549.00,14,25.00,0.00,77.94,0.00,0.00,0.00,0,,,100,100,0,2,0,0,0,1,0,,,,,0.0,0.0,0.0,0.0,0.0,0.0,0
34.182565,-118.129090,2.50,2.60,0.00,7.78,2.50,2.50,4.13,7.81,11653,2022-06-05 23:15:41.828,2022-06-05 16:15:41.828,16,0,0,15.187,34.182634,-118.129101,0.00,0.00,0.00,0.80,-0.30,152.50,0,1,0,48,100,-7793,1729,15187,3211.50,4,WP,1,0,0,0,0,0,0,1654470941827,3805,3801,3807,3806,0,0,27,,,,,,,0,0,0,-8.00,-3.00,1525.00,0.00,0.00,1476.00,14,25.00,0.00,77.77,0.00,0.00,0.00,0,,,100,100,0,2,0,0,0,1,0,,,,,0.0,0.0,0.0,0.0,0.0,0.0,0
34.182565,-118.129090,2.50,2.60,0.00,7.77,2.50,2.50,4.13,7.81,11771,2022-06-05 23:15:41.946,2022-06-05 16:15:41.946,16,0,0,15.187,34.182634,-118.129101,0.00,0.00,0.00,0.30,-0.30,145.00,0,1,0,48,100,-7793,1729,15187,3211.50,4,WP,1,0,0,0,0,0,0,1654470941945,3805,3801,3807,3806,0,0,27,,,,,,,0,0,0,-3.00,-3.00,1450.00,0.00,0.00,1391.00,14,25.00,0.00,77.70,0.00,0.00,0.00,0,,,100,100,0,2,0,0,0,1,0,,,,,0.0,0.0,0.0,0.0,0.0,0.0,0
34.182565,-118.129090,2.50,2.60,0.00,7.77,2.50,2.50,4.13,7.81,11870,2022-06-05 23:15:42.044,2022-06-05 16:15:42.044,16,0,0,15.187,34.182634,-118.129101,0.00,0.00,0.00,0.40,-0.10,137.60,0,1,0,48,100,-7793,1729,15187,3211.50,4,WP,1,0,0,0,0,0,0,1654470942044,3805,3801,3807,3806,0,0,27,,,,,,,0,0,0,-4.00,-1.00,1376.00,0.00,0.00,1309.00,14,25.00,0.00,77.70,0.00,0.00,0.00,0,,,100,100,0,2,0,0,0,1,0,,,,,0.0,0.0,0.0,0.0,0.0,0.0,0
34.182565,-118.129090,2.50,2.60,0.00,7.76,2.50,2.50,4.13,7.81,11954,2022-06-05 23:15:42.128,2022-06-05 16:15:42.128,16,0,0,15.158,34.182634,-118.129101,0.00,0.00,0.00,0.30,0.00,130.20,0,1,0,48,100,-8104,1724,15158,3211.50,4,WP,1,0,0,0,0,0,0,1654470942128,3805,3801,3807,3806,0,0,27,,,,,,,0,0,0,-3.00,0.00,1302.00,0.00,0.00,1229.00,14,25.00,0.00,77.62,0.00,0.00,0.00,0,,,100,100,0,2,0,0,0,1,0,,,,,0.0,0.0,0.0,0.0,0.0,0.0,0
34.182565,-118.129090,2.50,2.60,0.00,7.74,2.50,2.50,4.13,7.81,12053,2022-06-05 23:15:42.227,2022-06-05 16:15:42.227,16,0,0,15.158,34.182634,-118.129101,0.00,0.00,0.00,0.60,0.50,122.70,0,1,0,48,100,-8104,1724,15158,3211.50,4,WP,1,0,0,0,0,0,0,1654470942227,3805,3801,3807,3806,0,0,27,,,,,,,0,0,0,-6.00,5.00,1227.00,0.00,0.00,1152.00,14,25.00,0.00,77.42,0.00,0.00,0.00,0,,,100,100,0,2,0,0,0,1,0,,,,,0.0,0.0,0.0,0.0,0.0,0.0,0
34.182565,-118.129090,2.50,2.60,0.00,7.73,2.50,2.50,4.13,7.81,12153,2022-06-05 23:15:42.327,2022-06-05 16:15:42.327,16,0,0,15.158,34.182634,-118.129101,0.00,0.00,0.00,0.80,1.00,115.20,0,1,0,48,100,-8104,1724,15158,3211.50,4,WP,1,0,0,0,0,0,0,1654470942327,3805,3801,3807,3806,0,0,27,,,,,,,0,0,0,-8.00,10.00,1152.00,0.00,0.00,1073.00,14,25.00,0.00,77.30,0.00,0.00,0.00,0,,,100,100,0,2,0,0,0,1,0,,,,,0.0,0.0,0.0,0.0,0.0,0.0,0
34.182565,-118.129089,2.50,2.60,0.00,7.71,2.50,2.50,4.13,7.81,12270,2022-06-05 23:15:42.444,2022-06-05 16:15:42.444,16,0,0,15.158,34.182634,-118.129101,0.00,0.00,0.00,1.00,1.40,107.60,0,1,0,48,100,-8104,1724,15158,3211.50,4,WP,1,0,0,0,0,0,0,1654470942444,3805,3801,3807,3806,0,0,27,,,,,,,0,0,0,-10.00,14.00,1076.00,0.00,0.00,996.00,14,25.00,0.00,77.10,0.00,0.00,0.00,0,,,100,100,0,2,0,0,0,1,0,,,,,0.0,0.0,0.0,0.0,0.0,0.0,0
34.182565,-118.129089,2.50,2.60,0.00,7.70,2.50,2.50,4.13,7.81,12371,2022-06-05 23:15:42.545,2022-06-05 16:15:42.545,16,0,0,15.158,34.182634,-118.129101,0.00,0.00,0.00,1.30,1.40,100.10,0,1,0,48,100,-8104,1724,15158,3211.50,4,WP,1,0,0,0,0,0,0,1654470942545,3805,3801,3807,3806,0,0,27,,,,,,,0,0,0,-13.00,14.00,1001.00,0.00,0.00,920.00,14,25.00,0.00,76.99,0.00,0.00,0.00,0,,,100,100,0,2,0,0,0,1,0,,,,,0.0,0.0,0.0,0.0,0.0,0.0,0
34.182565,-118.129089,2.50,2.60,0.00,7.69,2.50,2.50,4.13,7.81,12470,2022-06-05 23:15:42.645,2022-06-05 16:15:42.645,16,0,0,15.158,34.182634,-118.129101,0.00,0.00,0.00,1.80,1.30,92.60,0,1,0,48,100,-8104,1724,15158,3211.50,4,WP,1,0,0,0,0,0,0,1654470942644,3805,3801,3807,3806,0,0,27,,,,,,,0,0,0,-18.00,13.00,926.00,0.00,0.00,843.00,14,25.00,0.00,76.93,0.00,0.00,0.00,0,,,100,100,0,2,0,0,0,1,0,,,,,0.0,0.0,0.0,0.0,0.0,0.0,0
34.182565,-118.129089,2.50,2.60,0.00,7.69,2.50,2.50,4.13,7.81,12570,2022-06-05 23:15:42.744,2022-06-05 16:15:42.744,16,0,0,15.158,34.182634,-118.129101,0.00,0.00,0.00,2.30,1.10,85.20,0,1,0,48,100,-8104,1724,15158,3211.50,4,WP,1,0,0,0,0,0,0,1654470942744,3805,3801,3807,3806,0,0,27,,,,,,,0,0,0,-23.00,11.00,852.00,0.00,0.00,766.00,14,25.00,0.00,76.85,0.00,0.00,0.00,0,,,100,100,0,2,0,0,0,1,0,,,,,0.0,0.0,0.0,0.0,0.0,0.0,0
34.182566,-118.129089,2.50,2.50,0.00,7.66,2.50,2.50,4.13,7.81,12672,2022-06-05 23:15:42.847,2022-06-05 16:15:42.847,16,0,0,15.158,34.182634,-118.129101,0.00,0.00,0.00,2.40,0.70,77.80,0,1,0,48,100,-8104,1724,15158,3211.50,4,WP,1,0,0,0,0,0,0,1654470942846,3805,3801,3807,3806,0,0,27,,,,,,,0,0,0,-24.00,7.00,778.00,0.00,0.00,691.00,14,25.00,0.00,76.64,0.00,0.00,0.00,0,,,100,100,0,2,0,0,0,1,0,,,,,0.0,0.0,0.0,0.0,0.0,0.0,0
34.182566,-118.129089,2.50,2.50,0.00,7.66,2.50,2.50,4.13,7.81,12773,2022-06-05 23:15:42.947,2022-06-05 16:15:42.947,16,0,0,15.158,34.182634,-118.129101,0.00,0.00,0.00,2.50,0.20,70.30,0,1,0,48,100,-8104,1724,15158,3211.50,4,WP,1,0,0,0,0,0,0,1654470942947,3805,3801,3807,3806,0,0,27,,,,,,,0,0,0,-25.00,2.00,703.00,0.00,0.00,618.00,14,25.00,0.00,76.55,0.00,0.00,0.00,0,,,100,100,0,2,0,0,0,1,0,,,,,0.0,0.0,0.0,0.0,0.0,0.0,0
34.182566,-118.129089,2.50,2.50,0.00,7.65,2.50,2.50,4.13,7.81,12871,2022-06-05 23:15:43.045,2022-06-05 16:15:43.045,16,0,0,15.158,34.182634,-118.129101,0.00,0.00,0.00,2.50,-0.20,62.90,0,1,0,48,100,-8104,1724,15158,3211.50,4,WP,1,0,0,0,0,0,0,1654470943045,3805,3801,3807,3806,0,0,27,,,,,,,0,0,0,-25.00,-2.00,629.00,0.00,0.00,544.00,14,25.00,0.00,76.48,0.00,0.00,0.00,0,,,100,100,0,2,0,0,0,1,0,,,,,0.0,0.0,0.0,0.0,0.0,0.0,0
34.182566,-118.129089,2.50,2.50,0.00,7.64,2.50,2.50,4.13,7.81,12969,2022-06-05 23:15:43.144,2022-06-05 16:15:43.144,16,0,0,15.158,34.182634,-118.129101,0.00,0.00,0.00,2.50,-0.20,55.40,0,1,0,48,100,-8104,1724,15158,3211.50,4,WP,1,0,0,0,0,0,0,1654470943143,3805,3801,3807,3806,0,0,27,,,,,,,0,0,0,-25.00,-2.00,554.00,0.00,0.00,468.00,14,25.00,0.00,76.40,0.00,0.00,0.00,0,,,100,100,0,2,0,0,0,1,0,,,,,0.0,0.0,0.0,0.0,0.0,0.0,0
34.182566,-118.129089,2.50,2.50,0.00,7.62,2.50,2.50,4.13,7.81,13070,2022-06-05 23:15:43.244,2022-06-05 16:15:43.244,16,0,0,15.158,34.182634,-118.129101,0.00,0.00,0.00,2.50,0.20,47.90,0,1,0,48,100,-8104,1724,15158,3211.50,4,WP,1,0,0,0,0,0,0,1654470943244,3805,3801,3807,3806,0,0,27,,,,,,,0,0,0,-25.00,2.00,479.00,0.00,0.00,392.00,14,25.00,0.00,76.25,0.00,0.00,0.00,0,,,100,100,0,2,0,0,0,1,0,,,,,0.0,0.0,0.0,0.0,0.0,0.0,0
34.182566,-118.129089,2.50,2.50,0.00,7.62,2.50,2.50,4.13,7.81,13170,2022-06-05 23:15:43.345,2022-06-05 16:15:43.345,16,0,0,15.158,34.182634,-118.129101,0.00,0.00,0.00,2.60,0.20,40.50,0,1,0,48,100,-8104,1724,15158,3211.50,4,WP,1,0,0,0,0,0,0,1654470943344,3805,3801,3807,3806,0,0,27,,,,,,,0,0,0,-26.00,2.00,405.00,0.00,0.00,317.00,14,25.00,0.00,76.15,0.00,0.00,0.00,0,,,100,100,0,2,0,0,0,1,0,,,,,0.0,0.0,0.0,0.0,0.0,0.0,0
34.182566,-118.129089,2.50,2.50,0.00,7.61,2.50,2.50,4.13,7.81,13272,2022-06-05 23:15:43.447,2022-06-05 16:15:43.447,16,0,0,15.158,34.182634,-118.129101,0.00,0.00,0.00,2.50,-0.10,33.10,0,1,0,48,100,-8104,1724,15158,3211.50,4,WP,1,0,0,0,0,0,0,1654470943446,3805,3801,3807,3806,0,0,27,,,,,,,0,0,0,-25.00,-1.00,331.00,0.00,0.00,243.00,14,25.00,0.00,76.14,0.00,0.00,0.00,0,,,100,100,0,2,0,0,0,1,0,,,,,0.0,0.0,0.0,0.0,0.0,0.0,0
34.182566,-118.129089,2.50,2.50,0.00,7.61,2.50,2.50,4.13,7.81,13371,2022-06-05 23:15:43.546,2022-06-05 16:15:43.546,16,0,0,15.158,34.182634,-118.129101,0.00,0.00,0.00,2.30,-0.60,26.60,0,1,0,48,100,-8104,1724,15158,3211.50,4,WP,1,0,0,0,0,0,0,1654470943545,3805,3801,3807,3806,0,0,27,,,,,,,0,0,0,-23.00,-6.00,266.00,0.00,0.00,171.00,14,25.00,0.00,76.06,0.00,0.00,0.00,0,,,100,100,0,2,0,0,0,1,0,,,,,0.0,0.0,0.0,0.0,0.0,0.0,0
34.182566,-118.129089,2.50,2.60,0.00,7.60,2.50,2.50,4.13,7.81,13470,2022-06-05 23:15:43.644,2022-06-05 16:15:43.644,16,0,0,15.158,34.182634,-118.129101,0.00,0.00,0.00,2.30,-0.80,21.40,0,1,0,48,100,-8104,1724,15158,3211.50,4,WP,1,0,0,0,0,0,0,1654470943644,3805,3801,3807,3806,0,0,27,,,,,,,0,0,0,-23.00,-8.00,214.00,0.00,0.00,110.00,14,25.00,0.00,76.03,0.00,0.00,0.00,0,,,100,100,0,2,0,0,0,1,0,,,,,0.0,0.0,0.0,0.0,0.0,0.0,0
34.182566,-118.129089,2.50,2.60,0.00,7.59,2.50,2.50,4.13,7.81,13570,2022-06-05 23:15:43.745,2022-06-05 16:15:43.745,16,0,0,15.158,34.182634,-118.129101,0.00,0.00,0.00,2.10,-0.90,17.20,0,1,0,48,100,-8104,1724,15158,3211.50,4,WP,1,0,0,0,0,0,0,1654470943744,3805,3801,3807,3806,0,0,27,,,,,,,0,0,0,-21.00,-9.00,172.00,0.00,0.00,60.00,14,25.00,0.00,75.95,0.00,0.00,0.00,0,,,100,100,0,2,0,0,0,1,0,,,,,0.0,0.0,0.0,0.0,0.0,0.0,0
