latitude,longitude,altitude(m),ultrasonicHeight(m),speed(mps),distance(m),max_altitude(m),max_ascent(m),max_speed(mps),max_distance(m),time(millisecond),datetime(utc),datetime(local),satellites,pressure(Pa),temperature(F),voltage(v),home_latitude,home_longitude,velocityX(mps),velocityY(mps),velocityZ(mps),pitch(deg),roll(deg),yaw(deg),powerlevel,isflying,istakingphoto,remainPowerPercent,remainLifePercent,currentCurrent,currentElectricity,currentVoltage,batteryTemperature,dischargeCount,flightmode,isMotorsOn,isTakingVideo,Rc_elevator,Rc_aileron,Rc_throttle,Rc_rudder,Rc_gyro,timestamp,Battery_Cell1,Battery_Cell2,Battery_Cell3,Battery_Cell4,Battery_Cell5,Battery_Cell6,Dronetype,AppVersion,Planename,FlyControllerSerialNumber,RemoteSerialNumber,BatterySerialNumber,CENTER_BATTERY.productDate,CENTER_BATTERY.serialNo,CENTER_BATTERY.fullCapacity,CENTER_BATTERY.productDateRaw,pitchRaw,rollRaw,yawRaw,gimbalPitchRaw,gimbalRollRaw,gimbalYawRaw,flyState,altitudeRaw,speedRaw,distanceRaw,velocityXRaw,velocityYRaw,velocityZRaw,data_reuse,App_Tip,App_Warning,downlinkSignalQuality,uplinkSignalQuality,transmissionChannel,rcModeSwitch,rcHome,rcPause,rcTransform,rcJoystickMode,appMode,FlyControllerSerialNumber_legacy,RemoteSerialNumber_legacy,BatterySerialNumber_legacy,Battery2SerialNumber,frontAvoidDist,backAvoidDist,rightAvoidDist,leftAvoidDist,upAvoidDist,downAvoidDist,isBrakingToAvoid
34.182630,-118.129101,0.30,0.40,0.42,0.13,0.30,0.30,0.42,0.13,0,2022-06-05 23:19:27.123,2022-06-05 16:19:27.123,17,0,0,15.106,34.182629,-118.129102,0.10,0.10,-0.40,1.30,-4.40,-19.30,0,1,0,36,100,-3990,1296,15106,3221.50,4,TakeOff,1,0,0,0,0,0,0,1654471167122,3788,3785,3789,3788,0,0,27,Litchi_iOS_2.14.0,Brian-MAVIC 2,163DFCK001S13F,1DUCFB800104PR,0P2AG3L53400KG,,0,3645,0,-13.00,-44.00,-193.00,0.00,0.00,-251.00,11,3.00,4.24,1.33,1.00,1.00,-4.00,0,,,100,100,0,2,0,0,0,1,0,(null),(null),,,0.0,0.0,0.0,0.0,0.0,0.0,0
34.182630,-118.129101,0.40,0.40,0.42,0.15,0.40,0.40,0.42,0.15,98,2022-06-05 23:19:27.221,2022-06-05 16:19:27.221,17,0,0,15.106,34.182629,-118.129102,0.10,0.10,-0.40,1.80,-4.40,-19.40,0,1,0,36,100,-3990,1296,15106,3221.50,4,TakeOff,1,0,0,0,0,0,0,1654471167220,3788,3785,3789,3788,0,0,27,,,,,,,0,0,0,-18.00,-44.00,-194.00,0.00,0.00,-251.00,11,4.00,4.24,1.49,1.00,1.00,-4.00,0,,,100,100,0,2,0,0,0,1,0,,,,,0.0,0.0,0.0,0.0,0.0,0.0,0
34.182631,-118.129101,0.40,0.40,0.42,0.17,0.40,0.40,0.42,0.17,199,2022-06-05 23:19:27.321,2022-06-05 16:19:27.321,17,0,0,15.106,34.182629,-118.129102,0.10,0.10,-0.40,2.40,-4.30,-19.30,0,1,0,36,100,-3990,1296,15106,3221.50,4,TakeOff,1,0,0,0,0,0,0,1654471167321,3788,3785,3789,3788,0,0,27,,,,,,,0,0,0,-24.00,-43.00,-193.00,0.00,0.00,-251.00,11,4.00,4.24,1.68,1.00,1.00,-4.00,0,,,100,100,0,2,0,0,0,1,0,,,,,0.0,0.0,0.0,0.0,0.0,0.0,0
34.182631,-118.129101,0.50,0.50,0.41,0.19,0.50,0.50,0.42,0.19,298,2022-06-05 23:19:27.421,2022-06-05 16:19:27.421,17,0,0,15.106,34.182629,-118.129102,0.10,0.00,-0.40,2.90,-4.40,-19.40,0,1,0,36,100,-3990,1296,15106,3221.50,4,TakeOff,1,0,0,0,0,0,0,1654471167420,3788,3785,3789,3788,0,0,27,,,,,,,0,0,0,-29.00,-44.00,-194.00,0.00,0.00,-252.00,11,5.00,4.12,1.90,1.00,0.00,-4.00,0,,,100,100,0,2,0,0,0,1,0,,,,,0.0,0.0,0.0,0.0,0.0,0.0,0
34.182631,-118.129101,0.50,0.60,0.41,0.21,0.50,0.50,0.42,0.21,399,2022-06-05 23:19:27.521,2022-06-05 16:19:27.521,17,0,0,15.106,34.182629,-118.129102,0.10,0.00,-0.40,3.10,-4.10,-19.40,0,1,0,36,100,-3990,1296,15106,3221.50,4,TakeOff,1,0,0,0,0,0,0,1654471167521,3788,3785,3789,3788,0,0,27,,,,,,,0,0,0,-31.00,-41.00,-194.00,0.00,0.00,-252.00,11,5.00,4.12,2.06,1.00,0.00,-4.00,0,,,100,100,0,2,0,0,0,1,0,,,,,0.0,0.0,0.0,0.0,0.0,0.0,0
34.182631,-118.129101,0.60,0.60,0.41,0.24,0.60,0.60,0.42,0.24,498,2022-06-05 23:19:27.621,2022-06-05 16:19:27.621,17,0,0,15.106,34.182629,-118.129102,0.10,0.00,-0.40,3.00,-3.90,-19.40,0,1,0,36,100,-3990,1296,15106,3221.50,4,TakeOff,1,0,0,0,0,0,0,1654471167620,3788,3785,3789,3788,0,0,27,,,,,,,0,0,0,-30.00,-39.00,-194.00,0.00,0.00,-252.00,11,6.00,4.12,2.36,1.00,0.00,-4.00,0,,,100,100,0,2,0,0,0,1,0,,,,,0.0,0.0,0.0,0.0,0.0,0.0,0
34.182631,-118.129100,0.60,0.60,0.40,0.25,0.60,0.60,0.42,0.25,599,2022-06-05 23:19:27.721,2022-06-05 16:19:27.721,17,0,0,15.106,34.182629,-118.129102,0.00,0.00,-0.40,3.10,-3.80,-19.40,0,1,0,36,100,-3990,1296,15106,3221.50,4,TakeOff,1,0,0,0,0,0,0,1654471167721,3788,3785,3789,3788,0,0,27,,,,,,,0,0,0,-31.00,-38.00,-194.00,0.00,0.00,-252.00,11,6.00,4.00,2.48,0.00,0.00,-4.00,0,,,100,100,0,2,0,0,0,1,0,,,,,0.0,0.0,0.0,0.0,0.0,0.0,0
34.182631,-118.129100,0.70,0.70,0.50,0.23,0.70,0.70,0.50,0.25,698,2022-06-05 23:19:27.821,2022-06-05 16:19:27.821,17,0,0,15.106,34.182629,-118.129102,0.00,0.00,-0.50,3.00,-3.60,-19.50,0,1,0,36,100,-3990,1296,15106,3221.50,4,TakeOff,1,0,0,0,0,0,0,1654471167820,3788,3785,3789,3788,0,0,27,,,,,,,0,0,0,-30.00,-36.00,-195.00,0.00,0.00,-252.00,11,7.00,5.00,2.30,0.00,0.00,-5.00,0,,,100,100,0,2,0,0,0,1,0,,,,,0.0,0.0,0.0,0.0,0.0,0.0,0
34.182631,-118.129100,0.70,0.80,0.50,0.23,0.70,0.70,0.50,0.25,799,2022-06-05 23:19:27.922,2022-06-05 16:19:27.922,17,0,0,15.106,34.182629,-118.129102,0.00,0.00,-0.50,2.80,-3.50,-19.40,0,1,0,36,100,-3990,1296,15106,3221.50,4,TakeOff,1,0,0,0,0,0,0,1654471167921,3788,3785,3789,3788,0,0,27,,,,,,,0,0,0,-28.00,-35.00,-194.00,0.00,0.00,-252.00,11,7.00,5.00,2.34,0.00,0.00,-5.00,0,,,100,100,0,2,0,0,0,1,0,,,,,0.0,0.0,0.0,0.0,0.0,0.0,0
34.182631,-118.129100,0.80,0.80,0.50,0.24,0.80,0.80,0.50,0.25,899,2022-06-05 23:19:28.021,2022-06-05 16:19:28.021,17,0,0,15.106,34.182629,-118.129102,0.00,0.00,-0.50,2.70,-3.30,-19.40,0,1,0,36,100,-3990,1296,15106,3221.50,4,TakeOff,1,0,0,0,0,0,0,1654471168021,3788,3785,3789,3788,0,0,27,,,,,,,0,0,0,-27.00,-33.00,-194.00,0.00,0.00,-252.00,11,8.00,5.00,2.37,0.00,0.00,-5.00,0,,,100,100,0,2,0,0,0,1,0,,,,,0.0,0.0,0.0,0.0,0.0,0.0,0
34.182631,-118.129100,0.80,0.90,0.40,0.24,0.80,0.80,0.50,0.25,999,2022-06-05 23:19:28.121,2022-06-05 16:19:28.121,17,0,0,14.943,34.182629,-118.129102,0.00,0.00,-0.40,2.60,-3.10,-19.40,0,1,0,36,100,-8506,1292,14943,3221.50,4,TakeOff,1,0,0,0,0,0,0,1654471168121,3788,3785,3789,3788,0,0,27,,,,,,,0,0,0,-26.00,-31.00,-194.00,0.00,0.00,-252.00,11,8.00,4.00,2.39,0.00,0.00,-4.00,0,,,100,100,0,2,0,0,0,1,0,,,,,0.0,0.0,0.0,0.0,0.0,0.0,0
34.182632,-118.129100,0.90,0.90,0.50,0.27,0.90,0.90,0.50,0.27,1099,2022-06-05 23:19:28.221,2022-06-05 16:19:28.221,17,0,0,14.943,34.182629,-118.129102,0.00,0.00,-0.50,2.60,-2.80,-19.30,0,1,0,36,100,-8506,1292,14943,3221.50,4,TakeOff,1,0,0,0,0,0,0,1654471168221,3788,3785,3789,3788,0,0,27,,,,,,,0,0,0,-26.00,-28.00,-193.00,0.00,0.00,-252.00,11,9.00,5.00,2.68,0.00,0.00,-5.00,0,,,100,100,0,2,0,0,0,1,0,,,,,0.0,0.0,0.0,0.0,0.0,0.0,0
34.182632,-118.129100,0.90,1.00,0.50,0.27,0.90,0.90,0.50,0.27,1199,2022-06-05 23:19:28.322,2022-06-05 16:19:28.322,17,0,0,14.943,34.182629,-118.129102,0.00,0.00,-0.50,2.70,-2.80,-19.30,0,1,0,36,100,-8506,1292,14943,3221.50,4,TakeOff,1,0,0,0,0,0,0,1654471168321,3788,3785,3789,3788,0,0,27,,,,,,,0,0,0,-27.00,-28.00,-193.00,0.00,0.00,-252.00,11,9.00,5.00,2.70,0.00,0.00,-5.00,0,,,100,100,0,2,0,0,0,1,0,,,,,0.0,0.0,0.0,0.0,0.0,0.0,0
34.182631,-118.129100,1.00,1.00,0.50,0.26,1.00,1.00,0.50,0.27,1299,2022-06-05 23:19:28.421,2022-06-05 16:19:28.421,17,0,0,14.943,34.182629,-118.129102,0.00,0.00,-0.50,2.60,-2.80,-19.40,0,1,0,36,100,-8506,1292,14943,3221.50,4,TakeOff,1,0,0,0,0,0,0,1654471168421,3788,3785,3789,3788,0,0,27,,,,,,,0,0,0,-26.00,-28.00,-194.00,0.00,0.00,-252.00,11,10.00,5.00,2.56,0.00,0.00,-5.00,0,,,100,100,0,2,0,0,0,1,0,,,,,0.0,0.0,0.0,0.0,0.0,0.0,0
34.182631,-118.129100,1.00,1.10,0.50,0.25,1.00,1.00,0.50,0.27,1449,2022-06-05 23:19:28.571,2022-06-05 16:19:28.571,17,0,0,14.943,34.182629,-118.129102,0.00,0.00,-0.50,2.30,-2.80,-19.40,0,1,0,36,100,-8506,1292,14943,3221.50,4,TakeOff,1,0,0,0,0,0,0,1654471168571,3788,3785,3789,3788,0,0,27,,,,,,,0,0,0,-23.00,-28.00,-194.00,0.00,0.00,-252.00,11,10.00,5.00,2.55,0.00,0.00,-5.00,0,,,100,100,0,2,0,0,0,1,0,,,,,0.0,0.0,0.0,0.0,0.0,0.0,0
34.182631,-118.129101,1.00,1.10,0.40,0.24,1.00,1.00,0.50,0.27,1498,2022-06-05 23:19:28.621,2022-06-05 16:19:28.621,17,0,0,14.943,34.182629,-118.129102,0.00,0.00,-0.40,1.30,-1.60,-19.40,0,1,0,36,100,-8506,1292,14943,3221.50,4,WP,1,0,0,0,0,0,0,1654471168620,3788,3785,3789,3788,0,0,27,,,,,,,0,0,0,-13.00,-16.00,-194.00,0.00,0.00,-252.00,14,10.00,4.00,2.41,0.00,0.00,-4.00,0,,,100,100,0,2,0,0,0,1,0,,,,,0.0,0.0,0.0,0.0,0.0,0.0,0
34.182631,-118.129101,1.10,1.10,0.40,0.24,1.10,1.10,0.50,0.27,1598,2022-06-05 23:19:28.721,2022-06-05 16:19:28.721,17,0,0,14.943,34.182629,-118.129102,0.00,0.00,-0.40,0.40,-0.20,-19.60,0,1,0,36,100,-8506,1292,14943,3221.50,4,WP,1,0,0,0,0,0,0,1654471168720,3788,3785,3789,3788,0,0,27,,,,,,,0,0,0,-4.00,-2.00,-196.00,0.00,0.00,-252.00,14,11.00,4.00,2.39,0.00,0.00,-4.00,0,,,100,100,0,2,0,0,0,1,0,,,,,0.0,0.0,0.0,0.0,0.0,0.0,0
34.182631,-118.129101,1.10,1.20,0.40,0.25,1.10,1.10,0.50,0.27,1699,2022-06-05 23:19:28.821,2022-06-05 16:19:28.821,17,0,0,14.943,34.182629,-118.129102,0.00,0.00,-0.40,1.20,-1.30,-19.50,0,1,0,36,100,-8506,1292,14943,3221.50,4,WP,1,0,0,0,0,0,0,1654471168821,3788,3785,3789,3788,0,0,27,,,,,,,0,0,0,-12.00,-13.00,-195.00,0.00,0.00,-252.00,14,11.00,4.00,2.54,0.00,0.00,-4.00,0,,,100,100,0,2,0,0,0,1,0,,,,,0.0,0.0,0.0,0.0,0.0,0.0,0
34.182631,-118.129101,1.20,1.20,0.40,0.26,1.20,1.20,0.50,0.27,1798,2022-06-05 23:19:28.921,2022-06-05 16:19:28.921,17,0,0,14.943,34.182629,-118.129102,0.00,0.00,-0.40,1.70,-2.20,-19.40,0,1,0,36,100,-8506,1292,14943,3221.50,4,WP,1,0,0,0,0,0,0,1654471168920,3788,3785,3789,3788,0,0,27,,,,,,,0,0,0,-17.00,-22.00,-194.00,0.00,0.00,-253.00,14,12.00,4.00,2.60,0.00,0.00,-4.00,0,,,100,100,0,2,0,0,0,1,0,,,,,0.0,0.0,0.0,0.0,0.0,0.0,0
34.182631,-118.129100,1.20,1.30,0.50,0.24,1.20,1.20,0.50,0.27,1899,2022-06-05 23:19:29.022,2022-06-05 16:19:29.022,17,0,0,14.943,34.182629,-118.129102,0.00,0.00,-0.50,1.80,-2.50,-19.40,0,1,0,36,100,-8506,1292,14943,3221.50,4,WP,1,0,0,0,0,0,0,1654471169021,3788,3785,3789,3788,0,0,27,,,,,,,0,0,0,-18.00,-25.00,-194.00,0.00,0.00,-253.00,14,12.00,5.00,2.44,0.00,0.00,-5.00,0,,,100,100,0,2,0,0,0,1,0,,,,,0.0,0.0,0.0,0.0,0.0,0.0,0
34.182631,-118.129100,1.30,1.30,0.40,0.25,1.30,1.30,0.50,0.27,2000,2022-06-05 23:19:29.122,2022-06-05 16:19:29.122,17,0,0,14.943,34.182629,-118.129102,0.00,0.00,-0.40,1.50,-2.30,-19.40,0,1,0,36,100,-8506,1292,14943,3221.50,4,WP,1,0,0,0,0,0,0,1654471169122,3788,3785,3789,3788,0,0,27,,,,,,,0,0,0,-15.00,-23.00,-194.00,0.00,0.00,-253.00,14,13.00,4.00,2.49,0.00,0.00,-4.00,0,,,100,100,0,2,0,0,0,1,0,,,,,0.0,0.0,0.0,0.0,0.0,0.0,0
34.182631,-118.129100,1.30,1.40,0.40,0.26,1.30,1.30,0.50,0.27,2100,2022-06-05 23:19:29.222,2022-06-05 16:19:29.222,17,0,0,14.943,34.182629,-118.129102,0.00,0.00,-0.40,1.60,-2.10,-19.40,0,1,0,36,100,-8506,1292,14943,3221.50,4,WP,1,0,0,0,0,0,0,1654471169222,3788,3785,3789,3788,0,0,27,,,,,,,0,0,0,-16.00,-21.00,-194.00,0.00,0.00,-253.00,14,13.00,4.00,2.63,0.00,0.00,-4.00,0,,,100,100,0,2,0,0,0,1,0,,,,,0.0,0.0,0.0,0.0,0.0,0.0,0
34.182632,-118.129100,1.40,1.40,0.40,0.27,1.40,1.40,0.50,0.27,2199,2022-06-05 23:19:29.321,2022-06-05 16:19:29.321,17,0,0,14.943,34.182629,-118.129102,0.00,0.00,-0.40,1.80,-2.30,-19.50,0,1,0,36,100,-8506,1292,14943,3221.50,4,WP,1,0,0,0,0,0,0,1654471169321,3788,3785,3789,3788,0,0,27,,,,,,,0,0,0,-18.00,-23.00,-195.00,0.00,0.00,-253.00,14,14.00,4.00,2.70,0.00,0.00,-4.00,0,,,100,100,0,2,0,0,0,1,0,,,,,0.0,0.0,0.0,0.0,0.0,0.0,0
34.182632,-118.129100,1.40,1.50,0.50,0.27,1.40,1.40,0.50,0.27,2299,2022-06-05 23:19:29.422,2022-06-05 16:19:29.422,17,0,0,14.943,34.182629,-118.129102,0.00,0.00,-0.50,1.60,-2.20,-19.50,0,1,0,36,100,-8506,1292,14943,3221.50,4,WP,1,0,0,0,0,0,0,1654471169421,3788,3785,3789,3788,0,0,27,,,,,,,0,0,0,-16.00,-22.00,-195.00,0.00,0.00,-254.00,14,14.00,5.00,2.75,0.00,0.00,-5.00,0,,,100,100,0,2,0,0,0,1,0,,,,,0.0,0.0,0.0,0.0,0.0,0.0,0
34.182632,-118.129100,1.50,1.60,0.70,0.28,1.50,1.50,0.70,0.28,2400,2022-06-05 23:19:29.522,2022-06-05 16:19:29.522,17,0,0,14.943,34.182629,-118.129102,0.00,0.00,-0.70,1.70,-2.20,-19.50,0,1,0,36,100,-8506,1292,14943,3221.50,4,WP,1,0,0,0,0,0,0,1654471169522,3788,3785,3789,3788,0,0,27,,,,,,,0,0,0,-17.00,-22.00,-195.00,0.00,0.00,-254.00,14,15.00,7.00,2.81,0.00,0.00,-7.00,0,,,100,100,0,2,0,0,0,1,0,,,,,0.0,0.0,0.0,0.0,0.0,0.0,0
34.182632,-118.129100,1.60,1.60,0.90,0.30,1.60,1.60,0.90,0.30,2499,2022-06-05 23:19:29.621,2022-06-05 16:19:29.622,17,0,0,14.943,34.182629,-118.129102,0.00,0.00,-0.90,1.80,-2.40,-19.60,0,1,0,36,100,-8506,1292,14943,3221.50,4,WP,1,0,0,0,0,0,0,1654471169621,3788,3785,3789,3788,0,0,27,,,,,,,0,0,0,-18.00,-24.00,-196.00,0.00,0.00,-254.00,14,16.00,9.00,2.96,0.00,0.00,-9.00,0,,,100,100,0,2,0,0,0,1,0,,,,,0.0,0.0,0.0,0.0,0.0,0.0,0
34.182632,-118.129100,1.70,1.70,1.10,0.30,1.70,1.70,1.10,0.30,2600,2022-06-05 23:19:29.723,2022-06-05 16:19:29.723,17,0,0,14.943,34.182629,-118.129102,0.00,0.00,-1.10,2.00,-2.20,-19.60,0,1,0,36,100,-8506,1292,14943,3221.50,4,WP,1,0,0,0,0,0,0,1654471169722,3788,3785,3789,3788,0,0,27,,,,,,,0,0,0,-20.00,-22.00,-196.00,0.00,0.00,-255.00,14,17.00,11.00,3.01,0.00,0.00,-11.00,0,,,100,100,0,2,0,0,0,1,0,,,,,0.0,0.0,0.0,0.0,0.0,0.0,0
34.182632,-118.129100,1.80,1.90,1.30,0.31,1.80,1.80,1.30,0.31,2700,2022-06-05 23:19:29.823,2022-06-05 16:19:29.823,17,0,0,14.943,34.182629,-118.129102,0.00,0.00,-1.30,1.80,-2.40,-19.50,0,1,0,36,100,-8506,1292,14943,3221.50,4,WP,1,0,0,0,0,0,0,1654471169822,3788,3785,3789,3788,0,0,27,,,,,,,0,0,0,-18.00,-24.00,-195.00,0.00,0.00,-255.00,14,18.00,13.00,3.06,0.00,0.00,-13.00,0,,,100,100,0,2,0,0,0,1,0,,,,,0.0,0.0,0.0,0.0,0.0,0.0,0
34.182632,-118.129100,2.00,2.00,1.50,0.31,2.00,2.00,1.50,0.31,2800,2022-06-05 23:19:29.923,2022-06-05 16:19:29.923,17,0,0,14.943,34.182629,-118.129102,0.00,0.00,-1.50,2.00,-2.30,-19.50,0,1,0,36,100,-8506,1292,14943,3221.50,4,WP,1,0,0,0,0,0,0,1654471169922,3788,3785,3789,3788,0,0,27,,,,,,,0,0,0,-20.00,-23.00,-195.00,0.00,0.00,-255.00,14,20.00,15.00,3.09,0.00,0.00,-15.00,0,,,100,100,0,2,0,0,0,1,0,,,,,0.0,0.0,0.0,0.0,0.0,0.0,0
34.182632,-118.129100,2.10,2.20,1.60,0.31,2.10,2.10,1.60,0.31,2901,2022-06-05 23:19:30.023,2022-06-05 16:19:30.023,17,0,0,14.943,34.182629,-118.129102,0.00,0.00,-1.60,2.00,-2.20,-19.50,0,1,0,36,100,-8506,1292,14943,3221.50,4,WP,1,0,0,0,0,0,0,1654471170023,3788,3785,3789,3788,0,0,27,,,,,,,0,0,0,-20.00,-22.00,-195.00,0.00,0.00,-255.00,14,21.00,16.00,3.07,0.00,0.00,-16.00,0,,,100,100,0,2,0,0,0,1,0,,,,,0.0,0.0,0.0,0.0,0.0,0.0,0
34.182632,-118.129100,2.30,2.30,1.70,0.31,2.30,2.30,1.70,0.31,3002,2022-06-05 23:19:30.125,2022-06-05 16:19:30.125,17,0,0,14.855,34.182629,-118.129102,0.00,0.00,-1.70,2.10,-2.20,-19.50,0,1,0,36,100,-9762,1287,14855,3221.50,4,WP,1,0,0,0,0,0,0,1654471170124,3788,3785,3789,3788,0,0,27,,,,,,,0,0,0,-21.00,-22.00,-195.00,0.00,0.00,-256.00,14,23.00,17.00,3.09,0.00,0.00,-17.00,0,,,100,100,0,2,0,0,0,1,0,,,,,0.0,0.0,0.0,0.0,0.0,0.0,0
34.182632,-118.129100,2.50,2.50,1.70,0.32,2.50,2.50,1.70,0.32,3103,2022-06-05 23:19:30.226,2022-06-05 16:19:30.226,17,0,0,14.855,34.182629,-118.129102,0.00,0.00,-1.70,1.80,-2.50,-19.50,0,1,0,36,100,-9762,1287,14855,3221.50,4,WP,1,0,0,0,0,0,0,1654471170225,3788,3785,3789,3788,0,0,27,,,,,,,0,0,0,-18.00,-25.00,-195.00,0.00,0.00,-256.00,14,25.00,17.00,3.20,0.00,0.00,-17.00,0,,,100,100,0,2,0,0,0,1,0,,,,,0.0,0.0,0.0,0.0,0.0,0.0,0
34.182632,-118.129100,2.60,2.60,1.60,0.32,2.60,2.60,1.70,0.32,3204,2022-06-05 23:19:30.326,2022-06-05 16:19:30.327,17,0,0,14.855,34.182629,-118.129102,0.00,0.00,-1.60,1.50,-2.70,-19.60,0,1,0,36,100,-9762,1287,14855,3221.50,4,WP,1,0,0,0,0,0,0,1654471170326,3788,3785,3789,3788,0,0,27,,,,,,,0,0,0,-15.00,-27.00,-196.00,0.00,0.00,-256.00,14,26.00,16.00,3.21,0.00,0.00,-16.00,0,,,100,100,0,2,0,0,0,1,0,,,,,0.0,0.0,0.0,0.0,0.0,0.0,0
34.182632,-118.129100,2.80,2.80,1.60,0.31,2.80,2.80,1.70,0.32,3352,2022-06-05 23:19:30.475,2022-06-05 16:19:30.475,17,0,0,14.855,34.182629,-118.129102,0.00,0.00,-1.60,1.20,-2.80,-19.60,0,1,0,36,100,-9762,1287,14855,3221.50,4,WP,1,0,0,0,0,0,0,1654471170474,3788,3785,3789,3788,0,0,27,,,,,,,0,0,0,-12.00,-28.00,-196.00,0.00,0.00,-256.00,14,28.00,16.00,3.07,0.00,0.00,-16.00,0,,,100,100,0,2,0,0,0,1,0,,,,,0.0,0.0,0.0,0.0,0.0,0.0,0
34.182632,-118.129100,3.00,2.90,1.50,0.31,3.00,3.00,1.70,0.32,3405,2022-06-05 23:19:30.528,2022-06-05 16:19:30.528,17,0,0,14.855,34.182629,-118.129102,0.00,0.00,-1.50,0.80,-2.80,-19.50,0,1,0,36,100,-9762,1287,14855,3221.50,4,WP,1,0,0,0,0,0,0,1654471170527,3788,3785,3789,3788,0,0,27,,,,,,,0,0,0,-8.00,-28.00,-195.00,0.00,0.00,-256.00,14,30.00,15.00,3.06,0.00,0.00,-15.00,0,,,100,100,0,2,0,0,0,1,0,,,,,0.0,0.0,0.0,0.0,0.0,0.0,0
34.182631,-118.129100,3.10,3.10,1.40,0.30,3.10,3.10,1.70,0.32,3506,2022-06-05 23:19:30.628,2022-06-05 16:19:30.628,17,0,0,14.855,34.182629,-118.129102,0.00,0.00,-1.40,0.60,-2.90,-19.50,0,1,0,36,100,-9762,1287,14855,3221.50,4,WP,1,0,0,0,0,0,0,1654471170628,3788,3785,3789,3788,0,0,27,,,,,,,0,0,0,-6.00,-29.00,-195.00,0.00,0.00,-256.00,14,31.00,14.00,2.98,0.00,0.00,-14.00,0,,,100,100,0,2,0,0,0,1,0,,,,,0.0,0.0,0.0,0.0,0.0,0.0,0
34.182631,-118.129100,3.30,3.20,1.40,0.30,3.30,3.30,1.70,0.32,3603,2022-06-05 23:19:30.726,2022-06-05 16:19:30.726,17,0,0,14.855,34.182629,-118.129102,0.00,0.00,-1.40,0.50,-2.80,-19.50,0,1,0,36,100,-9762,1287,14855,3221.50,4,WP,1,0,0,0,0,0,0,1654471170725,3788,3785,3789,3788,0,0,27,,,,,,,0,0,0,-5.00,-28.00,-195.00,0.00,0.00,-257.00,14,33.00,14.00,2.97,0.00,0.00,-14.00,0,,,100,100,0,2,0,0,0,1,0,,,,,0.0,0.0,0.0,0.0,0.0,0.0,0
34.182631,-118.129100,3.40,3.30,1.30,0.29,3.40,3.40,1.70,0.32,3702,2022-06-05 23:19:30.825,2022-06-05 16:19:30.825,17,0,0,14.855,34.182629,-118.129102,0.00,0.00,-1.30,0.50,-2.70,-19.50,0,1,0,36,100,-9762,1287,14855,3221.50,4,WP,1,0,0,0,0,0,0,1654471170824,3788,3785,3789,3788,0,0,27,,,,,,,0,0,0,-5.00,-27.00,-195.00,0.00,0.00,-257.00,14,34.00,13.00,2.86,0.00,0.00,-13.00,0,,,100,100,0,2,0,0,0,1,0,,,,,0.0,0.0,0.0,0.0,0.0,0.0,0
34.182631,-118.129100,3.50,3.40,1.20,0.28,3.50,3.50,1.70,0.32,3803,2022-06-05 23:19:30.925,2022-06-05 16:19:30.925,17,0,0,14.855,34.182629,-118.129102,0.00,0.00,-1.20,0.90,-2.30,-19.50,0,1,0,36,100,-9762,1287,14855,3221.50,4,WP,1,0,0,0,0,0,0,1654471170925,3788,3785,3789,3788,0,0,27,,,,,,,0,0,0,-9.00,-23.00,-195.00,0.00,0.00,-257.00,14,35.00,12.00,2.84,0.00,0.00,-12.00,0,,,100,100,0,2,0,0,0,1,0,,,,,0.0,0.0,0.0,0.0,0.0,0.0,0
34.182631,-118.129100,3.60,3.50,1.10,0.31,3.60,3.60,1.70,0.32,3900,2022-06-05 23:19:31.022,2022-06-05 16:19:31.022,17,0,0,14.855,34.182629,-118.129102,0.00,0.00,-1.10,1.40,-2.60,-19.50,0,1,0,36,100,-9762,1287,14855,3221.50,4,WP,1,0,0,0,0,0,0,1654471171022,3788,3785,3789,3788,0,0,27,,,,,,,0,0,0,-14.00,-26.00,-195.00,0.00,0.00,-257.00,14,36.00,11.00,3.08,0.00,0.00,-11.00,0,,,100,100,0,2,0,0,0,1,0,,,,,0.0,0.0,0.0,0.0,0.0,0.0,0
34.182632,-118.129100,3.80,3.60,1.00,0.31,3.80,3.80,1.70,0.32,4002,2022-06-05 23:19:31.124,2022-06-05 16:19:31.124,17,0,0,14.855,34.182629,-118.129102,0.00,0.00,-1.00,1.80,-3.10,-19.50,0,1,0,36,100,-9762,1287,14855,3221.50,4,WP,1,0,0,0,0,0,0,1654471171124,3788,3785,3789,3788,0,0,27,,,,,,,0,0,0,-18.00,-31.00,-195.00,0.00,0.00,-257.00,14,38.00,10.00,3.12,0.00,0.00,-10.00,0,,,100,100,0,2,0,0,0,1,0,,,,,0.0,0.0,0.0,0.0,0.0,0.0,0
34.182632,-118.129100,3.90,3.70,0.90,0.31,3.90,3.90,1.70,0.32,4102,2022-06-05 23:19:31.225,2022-06-05 16:19:31.225,17,0,0,14.855,34.182629,-118.129102,0.00,0.00,-0.90,2.00,-3.00,-19.60,0,1,0,36,100,-9762,1287,14855,3221.50,4,WP,1,0,0,0,0,0,0,1654471171224,3788,3785,3789,3788,0,0,27,,,,,,,0,0,0,-20.00,-30.00,-196.00,0.00,0.00,-257.00,14,39.00,9.00,3.14,0.00,0.00,-9.00,0,,,100,100,0,2,0,0,0,1,0,,,,,0.0,0.0,0.0,0.0,0.0,0.0,0
34.182632,-118.129100,3.90,3.80,0.90,0.32,3.90,3.90,1.70,0.32,4203,2022-06-05 23:19:31.325,2022-06-05 16:19:31.325,17,0,0,14.855,34.182629,-118.129102,0.00,0.00,-0.90,2.00,-2.80,-19.50,0,1,0,36,100,-9762,1287,14855,3221.50,4,WP,1,0,0,0,0,0,0,1654471171325,3788,3785,3789,3788,0,0,27,,,,,,,0,0,0,-20.00,-28.00,-195.00,0.00,0.00,-257.00,14,39.00,9.00,3.16,0.00,0.00,-9.00,0,,,100,100,0,2,0,0,0,1,0,,,,,0.0,0.0,0.0,0.0,0.0,0.0,0
34.182632,-118.129100,4.00,3.90,0.80,0.29,4.00,4.00,1.70,0.32,4305,2022-06-05 23:19:31.428,2022-06-05 16:19:31.428,17,0,0,14.855,34.182629,-118.129102,0.00,0.00,-0.80,2.30,-2.60,-19.50,0,1,0,36,100,-9762,1287,14855,3221.50,4,WP,1,0,0,0,0,0,0,1654471171427,3788,3785,3789,3788,0,0,27,,,,,,,0,0,0,-23.00,-26.00,-195.00,0.00,0.00,-257.00,14,40.00,8.00,2.94,0.00,0.00,-8.00,0,,,100,100,0,2,0,0,0,1,0,,,,,0.0,0.0,0.0,0.0,0.0,0.0,0
34.182632,-118.129100,4.10,3.90,0.70,0.29,4.10,4.10,1.70,0.32,4404,2022-06-05 23:19:31.526,2022-06-05 16:19:31.526,17,0,0,14.855,34.182629,-118.129102,0.00,0.00,-0.70,2.30,-2.30,-19.50,0,1,0,36,100,-9762,1287,14855,3221.50,4,WP,1,0,0,0,0,0,0,1654471171526,3788,3785,3789,3788,0,0,27,,,,,,,0,0,0,-23.00,-23.00,-195.00,0.00,0.00,-257.00,14,41.00,7.00,2.94,0.00,0.00,-7.00,0,,,100,100,0,2,0,0,0,1,0,,,,,0.0,0.0,0.0,0.0,0.0,0.0,0
34.182632,-118.129100,4.20,4.00,0.60,0.31,4.20,4.20,1.70,0.32,4505,2022-06-05 23:19:31.627,2022-06-05 16:19:31.627,17,0,0,14.855,34.182629,-118.129102,0.00,0.00,-0.60,2.20,-1.20,-19.50,0,1,0,36,100,-9762,1287,14855,3221.50,4,WP,1,0,0,0,0,0,0,1654471171627,3788,3785,3789,3788,0,0,27,,,,,,,0,0,0,-22.00,-12.00,-195.00,0.00,0.00,-257.00,14,42.00,6.00,3.12,0.00,0.00,-6.00,0,,,100,100,0,2,0,0,0,1,0,,,,,0.0,0.0,0.0,0.0,0.0,0.0,0
34.182632,-118.129100,4.20,4.00,0.40,0.31,4.20,4.20,1.70,0.32,4603,2022-06-05 23:19:31.726,2022-06-05 16:19:31.726,17,0,0,14.855,34.182629,-118.129102,0.00,0.00,-0.40,2.50,-1.30,-20.20,0,1,0,36,100,-9762,1287,14855,3221.50,4,WP,1,0,0,0,0,0,0,1654471171725,3788,3785,3789,3788,0,0,27,,,,,,,0,0,0,-25.00,-13.00,-202.00,0.00,0.00,-258.00,14,42.00,4.00,3.15,0.00,0.00,-4.00,0,,,100,100,0,2,0,0,0,1,0,,,,,0.0,0.0,0.0,0.0,0.0,0.0,0
34.182632,-118.129100,4.30,4.10,0.20,0.31,4.30,4.30,1.70,0.32,4702,2022-06-05 23:19:31.825,2022-06-05 16:19:31.825,17,0,0,14.855,34.182629,-118.129102,0.00,0.00,-0.20,2.40,-1.80,-21.40,0,1,0,36,100,-9762,1287,14855,3221.50,4,WP,1,0,0,0,0,0,0,1654471171824,3788,3785,3789,3788,0,0,27,,,,,,,0,0,0,-24.00,-18.00,-214.00,0.00,0.00,-258.00,14,43.00,2.00,3.13,0.00,0.00,-2.00,0,,,100,100,0,2,0,0,0,1,0,,,,,0.0,0.0,0.0,0.0,0.0,0.0,0
34.182632,-118.129100,4.30,4.10,0.10,0.32,4.30,4.30,1.70,0.32,4802,2022-06-05 23:19:31.924,2022-06-05 16:19:31.924,17,0,0,14.855,34.182629,-118.129102,0.00,0.00,-0.10,2.10,-2.10,-23.20,0,1,0,36,100,-9762,1287,14855,3221.50,4,WP,1,0,0,0,0,0,0,1654471171924,3788,3785,3789,3788,0,0,27,,,,,,,0,0,0,-21.00,-21.00,-232.00,0.00,0.00,-259.00,14,43.00,1.00,3.18,0.00,0.00,-1.00,0,,,100,100,0,2,0,0,0,1,0,,,,,0.0,0.0,0.0,0.0,0.0,0.0,0
34.182632,-118.129100,4.30,4.10,0.00,0.33,4.30,4.30,1.70,0.33,4952,2022-06-05 23:19:32.074,2022-06-05 16:19:32.074,17,0,0,14.920,34.182629,-118.129102,0.00,0.00,0.00,2.10,-2.20,-25.70,0,1,0,36,100,-8657,1284,14920,3221.50,4,WP,1,0,0,0,0,0,0,1654471172074,3788,3785,3789,3788,0,0,27,,,,,,,0,0,0,-21.00,-22.00,-257.00,0.00,0.00,-262.00,14,43.00,0.00,3.34,0.00,0.00,0.00,0,,,100,100,0,2,0,0,0,1,0,,,,,0.0,0.0,0.0,0.0,0.0,0.0,0
34.182632,-118.129100,4.30,4.10,0.00,0.34,4.30,4.30,1.70,0.34,5006,2022-06-05 23:19:32.128,2022-06-05 16:19:32.128,17,0,0,14.920,34.182629,-118.129102,0.00,0.00,0.00,2.00,-2.50,-28.80,0,1,0,36,100,-8657,1284,14920,3221.50,4,WP,1,0,0,0,0,0,0,1654471172128,3788,3785,3789,3788,0,0,27,,,,,,,0,0,0,-20.00,-25.00,-288.00,0.00,0.00,-273.00,14,43.00,0.00,3.41,0.00,0.00,0.00,0,,,100,100,0,2,0,0,0,1,0,,,,,0.0,0.0,0.0,0.0,0.0,0.0,0
34.182632,-118.129100,4.30,4.10,0.00,0.33,4.30,4.30,1.70,0.34,5102,2022-06-05 23:19:32.225,2022-06-05 16:19:32.225,17,0,0,14.920,34.182629,-118.129102,0.00,0.00,0.00,1.90,-3.00,-32.30,0,1,0,36,100,-8657,1284,14920,3221.50,4,WP,1,0,0,0,0,0,0,1654471172224,3788,3785,3789,3788,0,0,27,,,,,,,0,0,0,-19.00,-30.00,-323.00,0.00,0.00,-295.00,14,43.00,0.00,3.30,0.00,0.00,0.00,0,,,100,100,0,2,0,0,0,1,0,,,,,0.0,0.0,0.0,0.0,0.0,0.0,0
34.182632,-118.129100,4.30,4.10,0.00,0.34,4.30,4.30,1.70,0.34,5202,2022-06-05 23:19:32.324,2022-06-05 16:19:32.324,17,0,0,14.920,34.182629,-118.129102,0.00,0.00,0.00,1.60,-3.30,-36.50,0,1,0,36,100,-8657,1284,14920,3221.50,4,WP,1,0,0,0,0,0,0,1654471172324,3788,3785,3789,3788,0,0,27,,,,,,,0,0,0,-16.00,-33.00,-365.00,0.00,0.00,-326.00,14,43.00,0.00,3.37,0.00,0.00,0.00,0,,,100,100,0,2,0,0,0,1,0,,,,,0.0,0.0,0.0,0.0,0.0,0.0,0
34.182632,-118.129100,4.30,4.10,0.00,0.35,4.30,4.30,1.70,0.35,5303,2022-06-05 23:19:32.425,2022-06-05 16:19:32.425,17,0,0,14.920,34.182629,-118.129102,0.00,0.00,0.00,1.20,-3.50,-41.10,0,1,0,36,100,-8657,1284,14920,3221.50,4,WP,1,0,0,0,0,0,0,1654471172425,3788,3785,3789,3788,0,0,27,,,,,,,0,0,0,-12.00,-35.00,-411.00,0.00,0.00,-364.00,14,43.00,0.00,3.46,0.00,0.00,0.00,0,,,100,100,0,2,0,0,0,1,0,,,,,0.0,0.0,0.0,0.0,0.0,0.0,0
34.182632,-118.129100,4.30,4.10,0.00,0.35,4.30,4.30,1.70,0.35,5402,2022-06-05 23:19:32.525,2022-06-05 16:19:32.525,17,0,0,14.920,34.182629,-118.129102,0.00,0.00,0.00,0.70,-3.50,-46.30,0,1,0,36,100,-8657,1284,14920,3221.50,4,WP,1,0,0,0,0,0,0,1654471172524,3788,3785,3789,3788,0,0,27,,,,,,,0,0,0,-7.00,-35.00,-463.00,0.00,0.00,-409.00,14,43.00,0.00,3.51,0.00,0.00,0.00,0,,,100,100,0,2,0,0,0,1,0,,,,,0.0,0.0,0.0,0.0,0.0,0.0,0
34.182632,-118.129100,4.30,4.10,0.00,0.35,4.30,4.30,1.70,0.35,5502,2022-06-05 23:19:32.624,2022-06-05 16:19:32.624,17,0,0,14.920,34.182629,-118.129102,0.00,0.00,0.00,0.20,-3.40,-52.20,0,1,0,36,100,-8657,1284,14920,3221.50,4,WP,1,0,0,0,0,0,0,1654471172624,3788,3785,3789,3788,0,0,27,,,,,,,0,0,0,-2.00,-34.00,-522.00,0.00,0.00,-459.00,14,43.00,0.00,3.49,0.00,0.00,0.00,0,,,100,100,0,2,0,0,0,1,0,,,,,0.0,0.0,0.0,0.0,0.0,0.0,0
34.182632,-118.129100,4.30,4.10,0.00,0.35,4.30,4.30,1.70,0.35,5602,2022-06-05 23:19:32.725,2022-06-05 16:19:32.725,17,0,0,14.920,34.182629,-118.129102,0.00,0.00,0.00,0.00,-3.00,-58.50,0,1,0,36,100,-8657,1284,14920,3221.50,4,WP,1,0,0,0,0,0,0,1654471172724,3788,3785,3789,3788,0,0,27,,,,,,,0,0,0,-0.00,-30.00,-585.00,0.00,0.00,-515.00,14,43.00,0.00,3.51,0.00,0.00,0.00,0,,,100,100,0,2,0,0,0,1,0,,,,,0.0,0.0,0.0,0.0,0.0,0.0,0
34.182632,-118.129100,4.30,4.00,0.00,0.35,4.30,4.30,1.70,0.35,5702,2022-06-05 23:19:32.825,2022-06-05 16:19:32.825,17,0,0,14.920,34.182629,-118.129102,0.00,0.00,0.00,-0.30,-2.90,-65.50,0,1,0,36,100,-8657,1284,14920,3221.50,4,WP,1,0,0,0,0,0,0,1654471172824,3788,3785,3789,3788,0,0,27,,,,,,,0,0,0,3.00,-29.00,-655.00,0.00,0.00,-577.00,14,43.00,0.00,3.46,0.00,0.00,0.00,0,,,100,100,0,2,0,0,0,1,0,,,,,0.0,0.0,0.0,0.0,0.0,0.0,0
34.182632,-118.129100,4.20,4.00,0.00,0.35,4.30,4.30,1.70,0.35,5802,2022-06-05 23:19:32.925,2022-06-05 16:19:32.925,17,0,0,14.920,34.182629,-118.129102,0.00,0.00,0.00,-0.90,-2.80,-72.90,0,1,0,36,100,-8657,1284,14920,3221.50,4,WP,1,0,0,0,0,0,0,1654471172924,3788,3785,3789,3788,0,0,27,,,,,,,0,0,0,9.00,-28.00,-729.00,0.00,0.00,-644.00,14,42.00,0.00,3.46,0.00,0.00,0.00,0,,,100,100,0,2,0,0,0,1,0,,,,,0.0,0.0,0.0,0.0,0.0,0.0,0
34.182632,-118.129099,4.20,4.00,0.00,0.34,4.30,4.30,1.70,0.35,5901,2022-06-05 23:19:33.023,2022-06-05 16:19:33.023,17,0,0,14.920,34.182629,-118.129102,0.00,0.00,0.00,-1.30,-2.60,-80.50,0,1,0,36,100,-8657,1284,14920,3221.50,4,WP,1,0,0,0,0,0,0,1654471173023,3788,3785,3789,3788,0,0,27,,,,,,,0,0,0,13.00,-26.00,-805.00,0.00,0.00,-717.00,14,42.00,0.00,3.43,0.00,0.00,0.00,0,,,100,100,0,2,0,0,0,1,0,,,,,0.0,0.0,0.0,0.0,0.0,0.0,0
34.182632,-118.129099,4.20,4.10,0.00,0.34,4.30,4.30,1.70,0.35,6004,2022-06-05 23:19:33.127,2022-06-05 16:19:33.127,17,0,0,14.920,34.182629,-118.129102,0.00,0.00,0.00,-1.70,-2.10,-88.00,0,1,0,36,100,-8657,1284,14920,3221.50,4,WP,1,0,0,0,0,0,0,1654471173126,3724,3722,3727,3724,0,0,27,,,,,,,0,0,0,17.00,-21.00,-880.00,0.00,0.00,-794.00,14,42.00,0.00,3.41,0.00,0.00,0.00,0,,,100,100,0,2,0,0,0,1,0,,,,,0.0,0.0,0.0,0.0,0.0,0.0,0
34.182632,-118.129099,4.20,4.10,0.00,0.33,4.30,4.30,1.70,0.35,6102,2022-06-05 23:19:33.225,2022-06-05 16:19:33.225,17,0,0,14.920,34.182629,-118.129102,0.00,0.00,0.00,-2.00,-1.40,-95.50,0,1,0,36,100,-8657,1284,14920,3221.50,4,WP,1,0,0,0,0,0,0,1654471173224,3724,3722,3727,3724,0,0,27,,,,,,,0,0,0,20.00,-14.00,-955.00,0.00,0.00,-871.00,14,42.00,0.00,3.32,0.00,0.00,0.00,0,,,100,100,0,2,0,0,0,1,0,,,,,0.0,0.0,0.0,0.0,0.0,0.0,0
34.182632,-118.129099,4.30,4.10,0.00,0.33,4.30,4.30,1.70,0.35,6201,2022-06-05 23:19:33.324,2022-06-05 16:19:33.324,17,0,0,14.920,34.182629,-118.129102,0.00,0.00,0.00,-1.90,-1.00,-103.10,0,1,0,36,100,-8657,1284,14920,3221.50,4,WP,1,0,0,0,0,0,0,1654471173323,3724,3722,3727,3724,0,0,27,,,,,,,0,0,0,19.00,-10.00,-1031.00,0.00,0.00,-947.00,14,43.00,0.00,3.28,0.00,0.00,0.00,0,,,100,100,0,2,0,0,0,1,0,,,,,0.0,0.0,0.0,0.0,0.0,0.0,0
34.182632,-118.129100,4.30,4.10,0.00,0.31,4.30,4.30,1.70,0.35,6302,2022-06-05 23:19:33.425,2022-06-05 16:19:33.425,17,0,0,14.920,34.182629,-118.129102,0.00,0.00,0.00,-1.80,-0.80,-110.60,0,1,0,36,100,-8657,1284,14920,3221.50,4,WP,1,0,0,0,0,0,0,1654471173424,3724,3722,3727,3724,0,0,27,,,,,,,0,0,0,18.00,-8.00,-1106.00,0.00,0.00,-1023.00,14,43.00,0.00,3.14,0.00,0.00,0.00,0,,,100,100,0,2,0,0,0,1,0,,,,,0.0,0.0,0.0,0.0,0.0,0.0,0
34.182631,-118.129100,4.30,4.10,0.00,0.31,4.30,4.30,1.70,0.35,6402,2022-06-05 23:19:33.525,2022-06-05 16:19:33.525,17,0,0,14.920,34.182629,-118.129102,0.00,0.00,0.00,-1.80,-0.60,-118.00,0,1,0,36,100,-8657,1284,14920,3221.50,4,WP,1,0,0,0,0,0,0,1654471173524,3724,3722,3727,3724,0,0,27,,,,,,,0,0,0,18.00,-6.00,-1180.00,0.00,0.00,-1099.00,14,43.00,0.00,3.07,0.00,0.00,0.00,0,,,100,100,0,2,0,0,0,1,0,,,,,0.0,0.0,0.0,0.0,0.0,0.0,0
34.182631,-118.129100,4.30,4.10,0.00,0.30,4.30,4.30,1.70,0.35,6493,2022-06-05 23:19:33.616,2022-06-05 16:19:33.616,17,0,0,14.920,34.182629,-118.129102,0.00,0.00,0.00,-1.60,-0.40,-125.50,0,1,0,36,100,-8657,1284,14920,3221.50,4,WP,1,0,0,0,0,0,0,1654471173615,3724,3722,3727,3724,0,0,27,,,,,,,0,0,0,16.00,-4.00,-1255.00,0.00,0.00,-1175.00,14,43.00,0.00,2.96,0.00,0.00,0.00,0,,,100,100,0,2,0,0,0,1,0,,,,,0.0,0.0,0.0,0.0,0.0,0.0,0
34.182631,-118.129100,4.30,4.10,0.00,0.29,4.30,4.30,1.70,0.35,6606,2022-06-05 23:19:33.728,2022-06-05 16:19:33.728,17,0,0,14.920,34.182629,-118.129102,0.00,0.00,0.00,-1.30,0.00,-133.00,0,1,0,36,100,-8657,1284,14920,3221.50,4,WP,1,0,0,0,0,0,0,1654471173728,3724,3722,3727,3724,0,0,27,,,,,,,0,0,0,13.00,0.00,-1330.00,0.00,0.00,-1251.00,14,43.00,0.00,2.85,0.00,0.00,0.00,0,,,100,100,0,2,0,0,0,1,0,,,,,0.0,0.0,0.0,0.0,0.0,0.0,0
34.182631,-118.129100,4.30,4.10,0.00,0.28,4.30,4.30,1.70,0.35,6703,2022-06-05 23:19:33.826,2022-06-05 16:19:33.826,17,0,0,14.920,34.182629,-118.129102,0.00,0.00,0.00,-0.90,0.40,-140.40,0,1,0,36,100,-8657,1284,14920,3221.50,4,WP,1,0,0,0,0,0,0,1654471173825,3724,3722,3727,3724,0,0,27,,,,,,,0,0,0,9.00,4.00,-1404.00,0.00,0.00,-1326.00,14,43.00,0.00,2.82,0.00,0.00,0.00,0,,,100,100,0,2,0,0,0,1,0,,,,,0.0,0.0,0.0,0.0,0.0,0.0,0
34.182631,-118.129100,4.30,4.10,0.00,0.27,4.30,4.30,1.70,0.35,6803,2022-06-05 23:19:33.926,2022-06-05 16:19:33.926,17,0,0,14.920,34.182629,-118.129102,0.00,0.00,0.00,-0.80,0.80,-147.80,0,1,0,36,100,-8657,1284,14920,3221.50,4,WP,1,0,0,0,0,0,0,1654471173925,3724,3722,3727,3724,0,0,27,,,,,,,0,0,0,8.00,8.00,-1478.00,0.00,0.00,-1401.00,14,43.00,0.00,2.72,0.00,0.00,0.00,0,,,100,100,0,2,0,0,0,1,0,,,,,0.0,0.0,0.0,0.0,0.0,0.0,0
34.182631,-118.129100,4.30,4.10,0.00,0.27,4.30,4.30,1.70,0.35,6909,2022-06-05 23:19:34.031,2022-06-05 16:19:34.032,17,0,0,14.920,34.182629,-118.129102,0.00,0.00,0.00,-0.60,1.00,-155.10,0,1,0,36,100,-8657,1284,14920,3221.50,4,WP,1,0,0,0,0,0,0,1654471174031,3724,3722,3727,3724,0,0,27,,,,,,,0,0,0,6.00,10.00,-1551.00,0.00,0.00,-1475.00,14,43.00,0.00,2.72,0.00,0.00,0.00,0,,,100,100,0,2,0,0,0,1,0,,,,,0.0,0.0,0.0,0.0,0.0,0.0,0
34.182631,-118.129100,4.30,4.10,0.00,0.26,4.30,4.30,1.70,0.35,7010,2022-06-05 23:19:34.132,2022-06-05 16:19:34.132,17,0,0,14.898,34.182629,-118.129102,0.00,0.00,0.00,-0.60,1.10,-162.50,0,1,0,36,100,-8386,1280,14898,3221.50,4,WP,1,0,0,0,0,0,0,1654471174132,3724,3722,3727,3724,0,0,27,,,,,,,0,0,0,6.00,11.00,-1625.00,0.00,0.00,-1549.00,14,43.00,0.00,2.64,0.00,0.00,0.00,0,,,100,100,0,2,0,0,0,1,0,,,,,0.0,0.0,0.0,0.0,0.0,0.0,0
34.182631,-118.129100,4.30,4.10,0.00,0.26,4.30,4.30,1.70,0.35,7102,2022-06-05 23:19:34.224,2022-06-05 16:19:34.224,17,0,0,14.898,34.182629,-118.129102,0.00,0.00,0.00,-0.50,0.90,-169.90,0,1,0,36,100,-8386,1280,14898,3221.50,4,WP,1,0,0,0,0,0,0,1654471174224,3724,3722,3727,3724,0,0,27,,,,,,,0,0,0,5.00,9.00,-1699.00,0.00,0.00,-1622.00,14,43.00,0.00,2.56,0.00,0.00,0.00,0,,,100,100,0,2,0,0,0,1,0,,,,,0.0,0.0,0.0,0.0,0.0,0.0,0
34.182631,-118.129100,4.30,4.10,0.00,0.25,4.30,4.30,1.70,0.35,7201,2022-06-05 23:19:34.323,2022-06-05 16:19:34.323,17,0,0,14.898,34.182629,-118.129102,0.00,0.00,0.00,-0.50,0.90,-175.90,0,1,0,36,100,-8386,1280,14898,3221.50,4,WP,1,0,0,0,0,0,0,1654471174323,3724,3722,3727,3724,0,0,27,,,,,,,0,0,0,5.00,9.00,-1759.00,0.00,0.00,-1696.00,14,43.00,0.00,2.48,0.00,0.00,0.00,0,,,100,100,0,2,0,0,0,1,0,,,,,0.0,0.0,0.0,0.0,0.0,0.0,0
34.182631,-118.129100,4.30,4.10,0.00,0.25,4.30,4.30,1.70,0.35,7302,2022-06-05 23:19:34.425,2022-06-05 16:19:34.425,17,0,0,14.898,34.182629,-118.129102,0.00,0.00,0.00,-0.60,1.10,179.90,0,1,0,36,100,-8386,1280,14898,3221.50,4,WP,1,0,0,0,0,0,0,1654471174424,3724,3722,3727,3724,0,0,27,,,,,,,0,0,0,6.00,11.00,1799.00,0.00,0.00,-1767.00,14,43.00,0.00,2.48,0.00,0.00,0.00,0,,,100,100,0,2,0,0,0,1,0,,,,,0.0,0.0,0.0,0.0,0.0,0.0,0
34.182631,-118.129100,4.30,4.10,0.00,0.24,4.30,4.30,1.70,0.35,7453,2022-06-05 23:19:34.575,2022-06-05 16:19:34.575,17,0,0,14.898,34.182629,-118.129102,0.00,0.00,0.00,-0.60,1.30,177.20,0,1,0,36,100,-8386,1280,14898,3221.50,4,WP,1,0,0,0,0,0,0,1654471174575,3724,3722,3727,3724,0,0,27,,,,,,,0,0,0,6.00,13.00,1772.00,0.00,0.00,1777.00,14,43.00,0.00,2.44,0.00,0.00,0.00,0,,,100,100,0,2,0,0,0,1,0,,,,,0.0,0.0,0.0,0.0,0.0,0.0,0
34.182631,-118.129100,4.30,4.10,0.00,0.25,4.30,4.30,1.70,0.35,7503,2022-06-05 23:19:34.625,2022-06-05 16:19:34.626,17,0,0,14.898,34.182629,-118.129102,0.00,0.00,0.00,-0.60,1.80,175.60,0,1,0,36,100,-8386,1280,14898,3221.50,4,WP,1,0,0,0,0,0,0,1654471174625,3724,3722,3727,3724,0,0,27,,,,,,,0,0,0,6.00,18.00,1756.00,0.00,0.00,1739.00,14,43.00,0.00,2.51,0.00,0.00,0.00,0,,,100,100,0,2,0,0,0,1,0,,,,,0.0,0.0,0.0,0.0,0.0,0.0,0
34.182631,-118.129100,4.30,4.10,0.00,0.25,4.30,4.30,1.70,0.35,7604,2022-06-05 23:19:34.726,2022-06-05 16:19:34.726,17,0,0,14.898,34.182629,-118.129102,0.00,0.00,0.00,-1.00,2.00,174.50,0,1,0,36,100,-8386,1280,14898,3221.50,4,WP,1,0,0,0,0,0,0,1654471174726,3724,3722,3727,3724,0,0,27,,,,,,,0,0,0,10.00,20.00,1745.00,0.00,0.00,1713.00,14,43.00,0.00,2.49,0.00,0.00,0.00,0,,,100,100,0,2,0,0,0,1,0,,,,,0.0,0.0,0.0,0.0,0.0,0.0,0
34.182631,-118.129100,4.30,4.10,0.00,0.26,4.30,4.30,1.70,0.35,7704,2022-06-05 23:19:34.826,2022-06-05 16:19:34.826,17,0,0,14.898,34.182629,-118.129102,0.00,0.00,0.00,-1.40,1.80,174.00,0,1,0,36,100,-8386,1280,14898,3221.50,4,WP,1,0,0,0,0,0,0,1654471174826,3724,3722,3727,3724,0,0,27,,,,,,,0,0,0,14.00,18.00,1740.00,0.00,0.00,1697.00,14,43.00,0.00,2.62,0.00,0.00,0.00,0,,,100,100,0,2,0,0,0,1,0,,,,,0.0,0.0,0.0,0.0,0.0,0.0,0
34.182631,-118.129100,4.30,4.10,0.00,0.26,4.30,4.30,1.70,0.35,7804,2022-06-05 23:19:34.927,2022-06-05 16:19:34.927,17,0,0,14.898,34.182629,-118.129102,0.00,0.00,0.00,-1.70,1.70,173.90,0,1,0,36,100,-8386,1280,14898,3221.50,4,WP,1,0,0,0,0,0,0,1654471174926,3724,3722,3727,3724,0,0,27,,,,,,,0,0,0,17.00,17.00,1739.00,0.00,0.00,1686.00,14,43.00,0.00,2.60,0.00,0.00,0.00,0,,,100,100,0,2,0,0,0,1,0,,,,,0.0,0.0,0.0,0.0,0.0,0.0,0
34.182631,-118.129100,4.30,4.10,0.00,0.27,4.30,4.30,1.70,0.35,7905,2022-06-05 23:19:35.028,2022-06-05 16:19:35.028,17,0,0,14.898,34.182629,-118.129102,0.00,0.00,0.00,-1.50,1.70,174.00,0,1,0,36,100,-8386,1280,14898,3221.50,4,WP,1,0,0,0,0,0,0,1654471175027,3724,3722,3727,3724,0,0,27,,,,,,,0,0,0,15.00,17.00,1740.00,0.00,0.00,1680.00,14,43.00,0.00,2.67,0.00,0.00,0.00,0,,,100,100,0,2,0,0,0,1,0,,,,,0.0,0.0,0.0,0.0,0.0,0.0,0
34.182631,-118.129100,4.30,4.10,0.00,0.26,4.30,4.30,1.70,0.35,8052,2022-06-05 23:19:35.175,2022-06-05 16:19:35.175,17,0,0,14.898,34.182629,-118.129102,0.00,0.00,0.00,-1.10,1.80,174.10,0,1,0,36,100,-8386,1280,14898,3221.50,4,WP,1,0,0,0,0,0,0,1654471175174,3724,3722,3727,3724,0,0,27,,,,,,,0,0,0,11.00,18.00,1741.00,0.00,0.00,1678.00,14,43.00,0.00,2.64,0.00,0.00,0.00,0,,,100,100,0,2,0,0,0,1,0,,,,,0.0,0.0,0.0,0.0,0.0,0.0,0
34.182631,-118.129100,4.30,4.10,0.00,0.28,4.30,4.30,1.70,0.35,8101,2022-06-05 23:19:35.223,2022-06-05 16:19:35.223,17,0,0,14.898,34.182629,-118.129102,0.00,0.00,0.00,-5.00,1.00,174.20,0,1,0,36,100,-8386,1280,14898,3221.50,4,WP,1,0,0,0,0,0,0,1654471175223,3724,3722,3727,3724,0,0,27,,,,,,,0,0,0,50.00,10.00,1742.00,0.00,0.00,1677.00,14,43.00,0.00,2.82,0.00,0.00,0.00,0,,,100,100,0,2,0,0,0,1,0,,,,,0.0,0.0,0.0,0.0,0.0,0.0,0
34.182631,-118.129100,4.30,4.10,0.00,0.28,4.30,4.30,1.70,0.35,8201,2022-06-05 23:19:35.324,2022-06-05 16:19:35.324,17,0,0,14.898,34.182629,-118.129102,0.00,0.00,0.00,-10.30,0.80,174.10,0,1,0,36,100,-8386,1280,14898,3221.50,4,WP,1,0,0,0,0,0,0,1654471175323,3724,3722,3727,3724,0,0,27,,,,,,,0,0,0,103.00,8.00,1741.00,0.00,0.00,1677.00,14,43.00,0.00,2.78,0.00,0.00,0.00,0,,,100,100,0,2,0,0,0,1,0,,,,,0.0,0.0,0.0,0.0,0.0,0.0,0
34.182631,-118.129100,4.30,4.10,0.20,0.27,4.30,4.30,1.70,0.35,8302,2022-06-05 23:19:35.425,2022-06-05 16:19:35.425,17,0,0,14.898,34.182629,-118.129102,-0.20,0.00,0.00,-14.60,0.70,174.00,0,1,0,36,100,-8386,1280,14898,3221.50,4,WP,1,0,0,0,0,0,0,1654471175424,3724,3722,3727,3724,0,0,27,,,,,,,0,0,0,146.00,7.00,1740.00,0.00,0.00,1676.00,14,43.00,2.00,2.68,-2.00,0.00,0.00,0,,,100,100,0,2,0,0,0,1,0,,,,,0.0,0.0,0.0,0.0,0.0,0.0,0
34.182631,-118.129100,4.30,4.10,0.40,0.25,4.30,4.30,1.70,0.35,8401,2022-06-05 23:19:35.523,2022-06-05 16:19:35.523,17,0,0,14.898,34.182629,-118.129102,-0.40,0.00,0.00,-17.50,0.70,174.00,0,1,0,36,100,-8386,1280,14898,3221.50,4,WP,1,0,0,0,0,0,0,1654471175523,3724,3722,3727,3724,0,0,27,,,,,,,0,0,0,175.00,7.00,1740.00,0.00,0.00,1676.00,14,43.00,4.00,2.45,-4.00,0.00,0.00,0,,,100,100,0,2,0,0,0,1,0,,,,,0.0,0.0,0.0,0.0,0.0,0.0,0
34.182630,-118.129100,4.30,4.00,0.70,0.22,4.30,4.30,1.70,0.35,8503,2022-06-05 23:19:35.625,2022-06-05 16:19:35.625,17,0,0,14.898,34.182629,-118.129102,-0.70,0.00,0.00,-19.40,0.70,174.00,0,1,0,36,100,-8386,1280,14898,3221.50,4,WP,1,0,0,0,0,0,0,1654471175625,3724,3722,3727,3724,0,0,27,,,,,,,0,0,0,194.00,7.00,1740.00,0.00,0.00,1676.00,14,43.00,7.00,2.20,-7.00,0.00,0.00,0,,,100,100,0,2,0,0,0,1,0,,,,,0.0,0.0,0.0,0.0,0.0,0.0,0
34.182630,-118.129100,4.30,4.00,1.00,0.20,4.30,4.30,1.70,0.35,8602,2022-06-05 23:19:35.725,2022-06-05 16:19:35.725,17,0,0,14.898,34.182629,-118.129102,-1.00,0.10,0.00,-20.70,0.90,174.00,0,1,0,36,100,-8386,1280,14898,3221.50,4,WP,1,0,0,0,0,0,0,1654471175724,3724,3722,3727,3724,0,0,27,,,,,,,0,0,0,207.00,9.00,1740.00,0.00,0.00,1676.00,14,43.00,10.05,2.04,-10.00,1.00,0.00,0,,,100,100,0,2,0,0,0,1,0,,,,,0.0,0.0,0.0,0.0,0.0,0.0,0
34.182629,-118.129099,4.30,4.10,1.30,0.23,4.30,4.30,1.70,0.35,8754,2022-06-05 23:19:35.877,2022-06-05 16:19:35.877,17,0,0,14.898,34.182629,-118.129102,-1.30,0.10,0.00,-21.80,1.30,173.90,0,1,0,36,100,-8386,1280,14898,3221.50,4,WP,1,0,0,0,0,0,0,1654471175876,3724,3722,3727,3724,0,0,27,,,,,,,0,0,0,218.00,13.00,1739.00,0.00,0.00,1676.00,14,43.00,13.04,2.31,-13.00,1.00,0.00,0,,,100,100,0,2,0,0,0,1,0,,,,,0.0,0.0,0.0,0.0,0.0,0.0,0
34.182627,-118.129099,4.30,4.00,1.60,0.33,4.30,4.30,1.70,0.35,8802,2022-06-05 23:19:35.924,2022-06-05 16:19:35.924,17,0,0,14.898,34.182629,-118.129102,-1.60,0.10,0.00,-22.40,1.30,173.90,0,1,0,36,100,-8386,1280,14898,3221.50,4,WP,1,0,0,0,0,0,0,1654471175924,3724,3722,3727,3724,0,0,27,,,,,,,0,0,0,224.00,13.00,1739.00,0.00,0.00,1676.00,14,43.00,16.03,3.27,-16.00,1.00,0.00,0,,,100,100,0,2,0,0,0,1,0,,,,,0.0,0.0,0.0,0.0,0.0,0.0,0
34.182626,-118.129099,4.30,4.10,2.01,0.46,4.30,4.30,2.01,0.46,8951,2022-06-05 23:19:36.074,2022-06-05 16:19:36.074,17,0,0,14.898,34.182629,-118.129102,-2.00,0.20,-0.10,-22.40,1.40,173.90,0,1,0,36,100,-8386,1280,14898,3221.50,4,WP,1,0,0,0,0,0,0,1654471176073,3724,3722,3727,3724,0,0,27,,,,,,,0,0,0,224.00,14.00,1739.00,0.00,0.00,1676.00,14,43.00,20.12,4.65,-20.00,2.00,-1.00,0,,,100,100,0,2,0,0,0,1,0,,,,,0.0,0.0,0.0,0.0,0.0,0.0,0
34.182624,-118.129099,4.30,4.10,2.31,0.67,4.30,4.30,2.31,0.67,9001,2022-06-05 23:19:36.123,2022-06-05 16:19:36.123,17,0,0,14.890,34.182629,-118.129102,-2.30,0.20,0.00,-21.80,2.00,173.80,0,1,0,35,100,-8245,1275,14890,3221.50,4,WP,1,0,0,0,0,0,0,1654471176123,3724,3722,3727,3724,0,0,27,,,,,,,0,0,0,218.00,20.00,1738.00,0.00,0.00,1676.00,14,43.00,23.09,6.69,-23.00,2.00,0.00,0,,,100,100,0,2,0,0,0,1,0,,,,,0.0,0.0,0.0,0.0,0.0,0.0,0
34.182622,-118.129099,4.30,4.10,2.61,0.89,4.30,4.30,2.61,0.89,9101,2022-06-05 23:19:36.224,2022-06-05 16:19:36.224,17,0,0,14.890,34.182629,-118.129102,-2.60,0.20,-0.10,-21.30,1.50,173.90,0,1,0,35,100,-8245,1275,14890,3221.50,4,WP,1,0,0,0,0,0,0,1654471176223,3724,3722,3727,3724,0,0,27,,,,,,,0,0,0,213.00,15.00,1739.00,0.00,0.00,1676.00,14,43.00,26.10,8.94,-26.00,2.00,-1.00,0,,,100,100,0,2,0,0,0,1,0,,,,,0.0,0.0,0.0,0.0,0.0,0.0,0
34.182619,-118.129099,4.30,4.10,2.91,1.17,4.30,4.30,2.91,1.17,9251,2022-06-05 23:19:36.374,2022-06-05 16:19:36.374,17,0,0,14.890,34.182629,-118.129102,-2.90,0.20,-0.10,-21.20,1.10,173.90,0,1,0,35,100,-8245,1275,14890,3221.50,4,WP,1,0,0,0,0,0,0,1654471176373,3724,3722,3727,3724,0,0,27,,,,,,,0,0,0,212.00,11.00,1739.00,0.00,0.00,1676.00,14,43.00,29.09,11.69,-29.00,2.00,-1.00,0,,,100,100,0,2,0,0,0,1,0,,,,,0.0,0.0,0.0,0.0,0.0,0.0,0
34.182617,-118.129099,4.30,4.10,3.21,1.45,4.30,4.30,3.21,1.45,9300,2022-06-05 23:19:36.423,2022-06-05 16:19:36.423,17,0,0,14.890,34.182629,-118.129102,-3.20,0.20,-0.10,-21.70,0.30,174.00,0,1,0,35,100,-8245,1275,14890,3221.50,4,WP,1,0,0,0,0,0,0,1654471176422,3724,3722,3727,3724,0,0,27,,,,,,,0,0,0,217.00,3.00,1740.00,0.00,0.00,1676.00,14,43.00,32.08,14.47,-32.00,2.00,-1.00,0,,,100,100,0,2,0,0,0,1,0,,,,,0.0,0.0,0.0,0.0,0.0,0.0,0
34.182614,-118.129098,4.30,4.10,3.51,1.78,4.30,4.30,3.51,1.78,9451,2022-06-05 23:19:36.573,2022-06-05 16:19:36.573,17,0,0,14.890,34.182629,-118.129102,-3.50,0.30,-0.10,-20.40,0.10,173.90,0,1,0,35,100,-8245,1275,14890,3221.50,4,WP,1,0,0,0,0,0,0,1654471176573,3724,3722,3727,3724,0,0,27,,,,,,,0,0,0,204.00,1.00,1739.00,0.00,0.00,1676.00,14,43.00,35.14,17.80,-35.00,3.00,-1.00,0,,,100,100,0,2,0,0,0,1,0,,,,,0.0,0.0,0.0,0.0,0.0,0.0,0
34.182610,-118.129098,4.30,4.20,3.71,2.15,4.30,4.30,3.71,2.15,9550,2022-06-05 23:19:36.673,2022-06-05 16:19:36.673,17,0,0,14.890,34.182629,-118.129102,-3.70,0.30,-0.10,-14.30,0.00,174.10,0,1,0,35,100,-8245,1275,14890,3221.50,4,WP,1,0,0,0,0,0,0,1654471176672,3724,3722,3727,3724,0,0,27,,,,,,,0,0,0,143.00,0.00,1741.00,0.00,0.00,1676.00,14,43.00,37.13,21.46,-37.00,3.00,-1.00,0,,,100,100,0,2,0,0,0,1,0,,,,,0.0,0.0,0.0,0.0,0.0,0.0,0
34.182607,-118.129098,4.40,4.20,3.92,2.52,4.40,4.40,3.92,2.52,9600,2022-06-05 23:19:36.722,2022-06-05 16:19:36.722,17,0,0,14.890,34.182629,-118.129102,-3.90,0.30,-0.20,-6.60,-0.70,174.10,0,1,0,35,100,-8245,1275,14890,3221.50,4,WP,1,0,0,0,0,0,0,1654471176722,3724,3722,3727,3724,0,0,27,,,,,,,0,0,0,66.00,-7.00,1741.00,0.00,0.00,1676.00,14,44.00,39.17,25.25,-39.00,3.00,-2.00,0,,,100,100,0,2,0,0,0,1,0,,,,,0.0,0.0,0.0,0.0,0.0,0.0,0
34.182603,-118.129098,4.40,4.30,3.82,2.90,4.40,4.40,3.92,2.90,9752,2022-06-05 23:19:36.875,2022-06-05 16:19:36.875,17,0,0,14.890,34.182629,-118.129102,-3.80,0.30,-0.20,-1.20,-1.10,174.30,0,1,0,35,100,-8245,1275,14890,3221.50,4,WP,1,0,0,0,0,0,0,1654471176874,3724,3722,3727,3724,0,0,27,,,,,,,0,0,0,12.00,-11.00,1743.00,0.00,0.00,1676.00,14,44.00,38.17,29.04,-38.00,3.00,-2.00,0,,,100,100,0,2,0,0,0,1,0,,,,,0.0,0.0,0.0,0.0,0.0,0.0,0
34.182600,-118.129098,4.40,4.30,3.82,3.28,4.40,4.40,3.92,3.28,9852,2022-06-05 23:19:36.974,2022-06-05 16:19:36.975,17,0,0,14.890,34.182629,-118.129102,-3.80,0.30,-0.20,2.10,-1.40,174.10,0,1,0,35,100,-8245,1275,14890,3221.50,4,WP,1,0,0,0,0,0,0,1654471176974,3724,3722,3727,3724,0,0,27,,,,,,,0,0,0,-21.00,-14.00,1741.00,0.00,0.00,1676.00,14,44.00,38.17,32.79,-38.00,3.00,-2.00,0,,,100,100,0,2,0,0,0,1,0,,,,,0.0,0.0,0.0,0.0,0.0,0.0,0
34.182597,-118.129098,4.40,4.30,3.61,3.64,4.40,4.40,3.92,3.64,9902,2022-06-05 23:19:37.025,2022-06-05 16:19:37.025,17,0,0,14.890,34.182629,-118.129102,-3.60,0.30,-0.10,4.80,-1.70,174.30,0,1,0,35,100,-8245,1275,14890,3221.50,4,WP,1,0,0,0,0,0,0,1654471177024,3724,3722,3727,3724,0,0,27,,,,,,,0,0,0,-48.00,-17.00,1743.00,0.00,0.00,1676.00,14,44.00,36.14,36.35,-36.00,3.00,-1.00,0,,,100,100,0,2,0,0,0,1,0,,,,,0.0,0.0,0.0,0.0,0.0,0.0,0
34.182594,-118.129098,4.40,4.30,3.52,3.98,4.40,4.40,3.92,3.98,10053,2022-06-05 23:19:37.175,2022-06-05 16:19:37.175,17,0,0,14.890,34.182629,-118.129102,-3.50,0.40,0.00,6.90,-1.90,174.10,0,1,0,35,100,-8245,1275,14890,3221.50,4,WP,1,0,0,0,0,0,0,1654471177175,3724,3722,3727,3724,0,0,27,,,,,,,0,0,0,-69.00,-19.00,1741.00,0.00,0.00,1676.00,14,44.00,35.23,39.83,-35.00,4.00,0.00,0,,,100,100,0,2,0,0,0,1,0,,,,,0.0,0.0,0.0,0.0,0.0,0.0,0
34.182590,-118.129098,4.40,4.30,3.32,4.37,4.40,4.40,3.92,4.37,10102,2022-06-05 23:19:37.225,2022-06-05 16:19:37.225,17,0,0,14.890,34.182629,-118.129102,-3.30,0.40,0.00,8.60,-1.70,174.20,0,1,0,35,100,-8245,1275,14890,3221.50,4,WP,1,0,0,0,0,0,0,1654471177224,3724,3722,3727,3724,0,0,27,,,,,,,0,0,0,-86.00,-17.00,1742.00,0.00,0.00,1676.00,14,44.00,33.24,43.66,-33.00,4.00,0.00,0,,,100,100,0,2,0,0,0,1,0,,,,,0.0,0.0,0.0,0.0,0.0,0.0,0
34.182587,-118.129097,4.40,4.30,3.03,4.68,4.40,4.40,3.92,4.68,10250,2022-06-05 23:19:37.373,2022-06-05 16:19:37.373,17,0,0,14.890,34.182629,-118.129102,-3.00,0.40,0.00,10.20,-1.60,174.10,0,1,0,35,100,-8245,1275,14890,3221.50,4,WP,1,0,0,0,0,0,0,1654471177372,3724,3722,3727,3724,0,0,27,,,,,,,0,0,0,-102.00,-16.00,1741.00,0.00,0.00,1676.00,14,44.00,30.27,46.78,-30.00,4.00,0.00,0,,,100,100,0,2,0,0,0,1,0,,,,,0.0,0.0,0.0,0.0,0.0,0.0,0
34.182584,-118.129097,4.40,4.40,2.83,5.00,4.40,4.40,3.92,5.00,10301,2022-06-05 23:19:37.424,2022-06-05 16:19:37.424,17,0,0,14.890,34.182629,-118.129102,-2.80,0.40,0.00,11.90,-1.40,174.20,0,1,0,35,100,-8245,1275,14890,3221.50,4,WP,1,0,0,0,0,0,0,1654471177423,3724,3722,3727,3724,0,0,27,,,,,,,0,0,0,-119.00,-14.00,1742.00,0.00,0.00,1676.00,14,44.00,28.28,50.05,-28.00,4.00,0.00,0,,,100,100,0,2,0,0,0,1,0,,,,,0.0,0.0,0.0,0.0,0.0,0.0,0
34.182582,-118.129097,4.40,4.40,2.53,5.27,4.40,4.40,3.92,5.27,10451,2022-06-05 23:19:37.573,2022-06-05 16:19:37.573,17,0,0,14.890,34.182629,-118.129102,-2.50,0.40,0.00,12.80,-1.40,174.10,0,1,0,35,100,-8245,1275,14890,3221.50,4,WP,1,0,0,0,0,0,0,1654471177573,3724,3722,3727,3724,0,0,27,,,,,,,0,0,0,-128.00,-14.00,1741.00,0.00,0.00,1676.00,14,44.00,25.32,52.68,-25.00,4.00,0.00,0,,,100,100,0,2,0,0,0,1,0,,,,,0.0,0.0,0.0,0.0,0.0,0.0,0
34.182580,-118.129096,4.40,4.40,2.24,5.54,4.40,4.40,3.92,5.54,10552,2022-06-05 23:19:37.674,2022-06-05 16:19:37.674,17,0,0,14.890,34.182629,-118.129102,-2.20,0.40,0.00,12.10,-1.60,174.10,0,1,0,35,100,-8245,1275,14890,3221.50,4,WP,1,0,0,0,0,0,0,1654471177674,3724,3722,3727,3724,0,0,27,,,,,,,0,0,0,-121.00,-16.00,1741.00,0.00,0.00,1676.00,14,44.00,22.36,55.39,-22.00,4.00,0.00,0,,,100,100,0,2,0,0,0,1,0,,,,,0.0,0.0,0.0,0.0,0.0,0.0,0
34.182578,-118.129096,4.40,4.40,1.94,5.75,4.40,4.40,3.92,5.75,10602,2022-06-05 23:19:37.724,2022-06-05 16:19:37.724,17,0,0,14.890,34.182629,-118.129102,-1.90,0.40,0.00,10.90,-1.50,174.10,0,1,0,35,100,-8245,1275,14890,3221.50,4,WP,1,0,0,0,0,0,0,1654471177724,3724,3722,3727,3724,0,0,27,,,,,,,0,0,0,-109.00,-15.00,1741.00,0.00,0.00,1676.00,14,44.00,19.42,57.48,-19.00,4.00,0.00,0,,,100,100,0,2,0,0,0,1,0,,,,,0.0,0.0,0.0,0.0,0.0,0.0,0
34.182576,-118.129096,4.40,4.40,1.75,5.94,4.40,4.40,3.92,5.94,10702,2022-06-05 23:19:37.824,2022-06-05 16:19:37.824,17,0,0,14.890,34.182629,-118.129102,-1.70,0.40,0.00,9.00,-1.00,174.20,0,1,0,35,100,-8245,1275,14890,3221.50,4,WP,1,0,0,0,0,0,0,1654471177824,3724,3722,3727,3724,0,0,27,,,,,,,0,0,0,-90.00,-10.00,1742.00,0.00,0.00,1676.00,14,44.00,17.46,59.37,-17.00,4.00,0.00,0,,,100,100,0,2,0,0,0,1,0,,,,,0.0,0.0,0.0,0.0,0.0,0.0,0
34.182575,-118.129095,4.40,4.50,1.46,6.10,4.40,4.40,3.92,6.10,10867,2022-06-05 23:19:37.989,2022-06-05 16:19:37.990,17,0,0,14.890,34.182629,-118.129102,-1.40,0.40,0.00,6.90,-0.70,174.20,0,1,0,35,100,-8245,1275,14890,3221.50,4,WP,1,0,0,0,0,0,0,1654471177989,3724,3722,3727,3724,0,0,27,,,,,,,0,0,0,-69.00,-7.00,1742.00,0.00,0.00,1676.00,14,44.00,14.56,61.00,-14.00,4.00,0.00,0,,,100,100,0,2,0,0,0,1,0,,,,,0.0,0.0,0.0,0.0,0.0,0.0,0
34.182573,-118.129095,4.40,4.50,1.36,6.28,4.40,4.40,3.92,6.28,10903,2022-06-05 23:19:38.026,2022-06-05 16:19:38.026,17,0,0,14.890,34.182629,-118.129102,-1.30,0.40,0.00,5.50,0.10,174.30,0,1,0,35,100,-8245,1275,14890,3221.50,4,WP,1,0,0,0,0,0,0,1654471178025,3724,3722,3727,3724,0,0,27,,,,,,,0,0,0,-55.00,1.00,1743.00,0.00,0.00,1676.00,14,44.00,13.60,62.83,-13.00,4.00,0.00,0,,,100,100,0,2,0,0,0,1,0,,,,,0.0,0.0,0.0,0.0,0.0,0.0,0
34.182572,-118.129094,4.40,4.50,1.17,6.42,4.40,4.40,3.92,6.42,11004,2022-06-05 23:19:38.127,2022-06-05 16:19:38.127,17,0,0,14.907,34.182629,-118.129102,-1.10,0.40,0.00,4.80,1.40,174.30,0,1,0,35,100,-8686,1270,14907,3221.50,4,WP,1,0,0,0,0,0,0,1654471178126,3724,3722,3727,3724,0,0,27,,,,,,,0,0,0,-48.00,14.00,1743.00,0.00,0.00,1676.00,14,44.00,11.70,64.18,-11.00,4.00,0.00,0,,,100,100,0,2,0,0,0,1,0,,,,,0.0,0.0,0.0,0.0,0.0,0.0,0
34.182571,-118.129094,4.50,4.50,1.08,6.53,4.50,4.50,3.92,6.53,11101,2022-06-05 23:19:38.224,2022-06-05 16:19:38.224,17,0,0,14.907,34.182629,-118.129102,-1.00,0.40,-0.10,3.90,2.00,174.30,0,1,0,35,100,-8686,1270,14907,3221.50,4,WP,1,0,0,0,0,0,0,1654471178223,3724,3722,3727,3724,0,0,27,,,,,,,0,0,0,-39.00,20.00,1743.00,0.00,0.00,1676.00,14,45.00,10.82,65.28,-10.00,4.00,-1.00,0,,,100,100,0,2,0,0,0,1,0,,,,,0.0,0.0,0.0,0.0,0.0,0.0,0
34.182570,-118.129094,4.50,4.50,0.95,6.64,4.50,4.50,3.92,6.64,11252,2022-06-05 23:19:38.375,2022-06-05 16:19:38.375,17,0,0,14.907,34.182629,-118.129102,-0.90,0.30,0.00,3.00,2.20,174.20,0,1,0,35,100,-8686,1270,14907,3221.50,4,WP,1,0,0,0,0,0,0,1654471178374,3724,3722,3727,3724,0,0,27,,,,,,,0,0,0,-30.00,22.00,1742.00,0.00,0.00,1676.00,14,45.00,9.49,66.39,-9.00,3.00,0.00,0,,,100,100,0,2,0,0,0,1,0,,,,,0.0,0.0,0.0,0.0,0.0,0.0,0
34.182569,-118.129093,4.50,4.50,0.85,6.75,4.50,4.50,3.92,6.75,11301,2022-06-05 23:19:38.424,2022-06-05 16:19:38.424,17,0,0,14.907,34.182629,-118.129102,-0.80,0.30,0.00,2.40,2.20,174.20,0,1,0,35,100,-8686,1270,14907,3221.50,4,WP,1,0,0,0,0,0,0,1654471178423,3724,3722,3727,3724,0,0,27,,,,,,,0,0,0,-24.00,22.00,1742.00,0.00,0.00,1676.00,14,45.00,8.54,67.45,-8.00,3.00,0.00,0,,,100,100,0,2,0,0,0,1,0,,,,,0.0,0.0,0.0,0.0,0.0,0.0,0
34.182568,-118.129093,4.50,4.50,0.76,6.84,4.50,4.50,3.92,6.84,11402,2022-06-05 23:19:38.525,2022-06-05 16:19:38.525,17,0,0,14.907,34.182629,-118.129102,-0.70,0.30,0.00,1.90,2.70,174.20,0,1,0,35,100,-8686,1270,14907,3221.50,4,WP,1,0,0,0,0,0,0,1654471178524,3724,3722,3727,3724,0,0,27,,,,,,,0,0,0,-19.00,27.00,1742.00,0.00,0.00,1676.00,14,45.00,7.62,68.41,-7.00,3.00,0.00,0,,,100,100,0,2,0,0,0,1,0,,,,,0.0,0.0,0.0,0.0,0.0,0.0,0
34.182568,-118.129092,4.50,4.50,0.73,6.91,4.50,4.50,3.92,6.91,11504,2022-06-05 23:19:38.626,2022-06-05 16:19:38.626,17,0,0,14.907,34.182629,-118.129102,-0.70,0.20,0.00,1.60,2.60,174.30,0,1,0,35,100,-8686,1270,14907,3221.50,4,WP,1,0,0,0,0,0,0,1654471178626,3724,3722,3727,3724,0,0,27,,,,,,,0,0,0,-16.00,26.00,1743.00,0.00,0.00,1676.00,14,45.00,7.28,69.14,-7.00,2.00,0.00,0,,,100,100,0,2,0,0,0,1,0,,,,,0.0,0.0,0.0,0.0,0.0,0.0,0
34.182567,-118.129092,4.50,4.50,0.63,7.00,4.50,4.50,3.92,7.00,11602,2022-06-05 23:19:38.724,2022-06-05 16:19:38.724,17,0,0,14.907,34.182629,-118.129102,-0.60,0.20,0.00,1.50,2.50,174.30,0,1,0,35,100,-8686,1270,14907,3221.50,4,WP,1,0,0,0,0,0,0,1654471178724,3724,3722,3727,3724,0,0,27,,,,,,,0,0,0,-15.00,25.00,1743.00,0.00,0.00,1676.00,14,45.00,6.32,69.96,-6.00,2.00,0.00,0,,,100,100,0,2,0,0,0,1,0,,,,,0.0,0.0,0.0,0.0,0.0,0.0,0
34.182566,-118.129092,4.50,4.50,0.61,7.05,4.50,4.50,3.92,7.05,11701,2022-06-05 23:19:38.824,2022-06-05 16:19:38.824,17,0,0,14.907,34.182629,-118.129102,-0.60,0.10,0.00,1.60,2.80,174.40,0,1,0,35,100,-8686,1270,14907,3221.50,4,WP,1,0,0,0,0,0,0,1654471178823,3724,3722,3727,3724,0,0,27,,,,,,,0,0,0,-16.00,28.00,1744.00,0.00,0.00,1676.00,14,45.00,6.08,70.49,-6.00,1.00,0.00,0,,,100,100,0,2,0,0,0,1,0,,,,,0.0,0.0,0.0,0.0,0.0,0.0,0
34.182566,-118.129091,4.50,4.50,0.51,7.12,4.50,4.50,3.92,7.12,11803,2022-06-05 23:19:38.925,2022-06-05 16:19:38.926,17,0,0,14.907,34.182629,-118.129102,-0.50,0.10,0.00,2.00,2.60,174.40,0,1,0,35,100,-8686,1270,14907,3221.50,4,WP,1,0,0,0,0,0,0,1654471178925,3724,3722,3727,3724,0,0,27,,,,,,,0,0,0,-20.00,26.00,1744.00,0.00,0.00,1676.00,14,45.00,5.10,71.18,-5.00,1.00,0.00,0,,,100,100,0,2,0,0,0,1,0,,,,,0.0,0.0,0.0,0.0,0.0,0.0,0
34.182565,-118.129091,4.50,4.50,0.51,7.17,4.50,4.50,3.92,7.17,11901,2022-06-05 23:19:39.024,2022-06-05 16:19:39.024,17,0,0,14.907,34.182629,-118.129102,-0.50,0.10,0.00,2.30,2.20,174.40,0,1,0,35,100,-8686,1270,14907,3221.50,4,WP,1,0,0,0,0,0,0,1654471179023,3724,3722,3727,3724,0,0,27,,,,,,,0,0,0,-23.00,22.00,1744.00,0.00,0.00,1676.00,14,45.00,5.10,71.68,-5.00,1.00,0.00,0,,,100,100,0,2,0,0,0,1,0,,,,,0.0,0.0,0.0,0.0,0.0,0.0,0
34.182565,-118.129091,4.50,4.50,0.40,7.22,4.50,4.50,3.92,7.22,12009,2022-06-05 23:19:39.132,2022-06-05 16:19:39.132,17,0,0,14.907,34.182629,-118.129102,-0.40,0.00,0.00,2.40,1.90,174.30,0,1,0,35,100,-8686,1270,14907,3221.50,4,WP,1,0,0,0,0,0,0,1654471179131,3724,3722,3727,3724,0,0,27,,,,,,,0,0,0,-24.00,19.00,1743.00,0.00,0.00,1676.00,14,45.00,4.00,72.24,-4.00,0.00,0.00,0,,,100,100,0,2,0,0,0,1,0,,,,,0.0,0.0,0.0,0.0,0.0,0.0,0
34.182565,-118.129091,4.50,4.50,0.30,7.26,4.50,4.50,3.92,7.26,12103,2022-06-05 23:19:39.226,2022-06-05 16:19:39.226,17,0,0,14.907,34.182629,-118.129102,-0.30,0.00,0.00,2.30,1.40,174.20,0,1,0,35,100,-8686,1270,14907,3221.50,4,WP,1,0,0,0,0,0,0,1654471179225,3724,3722,3727,3724,0,0,27,,,,,,,0,0,0,-23.00,14.00,1742.00,0.00,0.00,1676.00,14,45.00,3.00,72.57,-3.00,0.00,0.00,0,,,100,100,0,2,0,0,0,1,0,,,,,0.0,0.0,0.0,0.0,0.0,0.0,0
34.182564,-118.129091,4.50,4.50,0.30,7.30,4.50,4.50,3.92,7.30,12203,2022-06-05 23:19:39.325,2022-06-05 16:19:39.325,17,0,0,14.907,34.182629,-118.129102,-0.30,0.00,0.00,4.30,0.70,174.10,0,1,0,35,100,-8686,1270,14907,3221.50,4,WP,1,0,0,0,0,0,0,1654471179325,3724,3722,3727,3724,0,0,27,,,,,,,0,0,0,-43.00,7.00,1741.00,0.00,0.00,1676.00,14,45.00,3.00,72.98,-3.00,0.00,0.00,0,,,100,100,0,2,0,0,0,1,0,,,,,0.0,0.0,0.0,0.0,0.0,0.0,0
34.182564,-118.129091,4.50,4.50,0.20,7.31,4.50,4.50,3.92,7.31,12303,2022-06-05 23:19:39.426,2022-06-05 16:19:39.426,17,0,0,14.907,34.182629,-118.129102,-0.20,0.00,0.00,4.70,0.60,174.00,0,1,0,35,100,-8686,1270,14907,3221.50,4,WP,1,0,0,0,0,0,0,1654471179425,3724,3722,3727,3724,0,0,27,,,,,,,0,0,0,-47.00,6.00,1740.00,0.00,0.00,1676.00,14,45.00,2.00,73.12,-2.00,0.00,0.00,0,,,100,100,0,2,0,0,0,1,0,,,,,0.0,0.0,0.0,0.0,0.0,0.0,0
34.182564,-118.129091,4.50,4.50,0.10,7.33,4.50,4.50,3.92,7.33,12403,2022-06-05 23:19:39.525,2022-06-05 16:19:39.525,17,0,0,14.907,34.182629,-118.129102,-0.10,0.00,0.00,2.70,0.70,173.90,0,1,0,35,100,-8686,1270,14907,3221.50,4,WP,1,0,0,0,0,0,0,1654471179525,3724,3722,3727,3724,0,0,27,,,,,,,0,0,0,-27.00,7.00,1739.00,0.00,0.00,1676.00,14,45.00,1.00,73.33,-1.00,0.00,0.00,0,,,100,100,0,2,0,0,0,1,0,,,,,0.0,0.0,0.0,0.0,0.0,0.0,0
34.182564,-118.129091,4.50,4.50,0.00,7.34,4.50,4.50,3.92,7.34,12552,2022-06-05 23:19:39.675,2022-06-05 16:19:39.675,17,0,0,14.907,34.182629,-118.129102,0.00,0.00,0.00,1.20,1.00,172.10,0,1,0,35,100,-8686,1270,14907,3221.50,4,WP,1,0,0,0,0,0,0,1654471179674,3724,3722,3727,3724,0,0,27,,,,,,,0,0,0,-12.00,10.00,1721.00,0.00,0.00,1676.00,14,45.00,0.00,73.44,0.00,0.00,0.00,0,,,100,100,0,2,0,0,0,1,0,,,,,0.0,0.0,0.0,0.0,0.0,0.0,0
34.182564,-118.129091,4.50,4.50,0.00,7.35,4.50,4.50,3.92,7.35,12603,2022-06-05 23:19:39.725,2022-06-05 16:19:39.725,17,0,0,14.907,34.182629,-118.129102,0.00,0.00,0.00,0.40,1.10,164.50,0,1,0,35,100,-8686,1270,14907,3221.50,4,WP,1,0,0,0,0,0,0,1654471179725,3724,3722,3727,3724,0,0,27,,,,,,,0,0,0,-4.00,11.00,1645.00,0.00,0.00,1675.00,14,45.00,0.00,73.53,0.00,0.00,0.00,0,,,100,100,0,2,0,0,0,1,0,,,,,0.0,0.0,0.0,0.0,0.0,0.0,0
34.182564,-118.129090,4.50,4.50,0.00,7.34,4.50,4.50,3.92,7.35,12702,2022-06-05 23:19:39.824,2022-06-05 16:19:39.824,17,0,0,14.907,34.182629,-118.129102,0.00,0.00,0.00,0.00,0.60,156.90,0,1,0,35,100,-8686,1270,14907,3221.50,4,WP,1,0,0,0,0,0,0,1654471179824,3724,3722,3727,3724,0,0,27,,,,,,,0,0,0,-0.00,6.00,1569.00,0.00,0.00,1669.00,14,45.00,0.00,73.41,0.00,0.00,0.00,0,,,100,100,0,2,0,0,0,1,0,,,,,0.0,0.0,0.0,0.0,0.0,0.0,0
34.182564,-118.129090,4.50,4.50,0.00,7.34,4.50,4.50,3.92,7.35,12803,2022-06-05 23:19:39.926,2022-06-05 16:19:39.926,17,0,0,14.907,34.182629,-118.129102,0.00,0.00,0.00,-0.20,0.50,149.40,0,1,0,35,100,-8686,1270,14907,3221.50,4,WP,1,0,0,0,0,0,0,1654471179925,3724,3722,3727,3724,0,0,27,,,,,,,0,0,0,2.00,5.00,1494.00,0.00,0.00,1614.00,14,45.00,0.00,73.43,0.00,0.00,0.00,0,,,100,100,0,2,0,0,0,1,0,,,,,0.0,0.0,0.0,0.0,0.0,0.0,0
34.182564,-118.129090,4.50,4.50,0.00,7.35,4.50,4.50,3.92,7.35,12907,2022-06-05 23:19:40.030,2022-06-05 16:19:40.030,17,0,0,14.907,34.182629,-118.129102,0.00,0.00,0.00,-0.10,0.60,141.80,0,1,0,35,100,-8686,1270,14907,3221.50,4,WP,1,0,0,0,0,0,0,1654471180029,3724,3722,3727,3724,0,0,27,,,,,,,0,0,0,1.00,6.00,1418.00,0.00,0.00,1529.00,14,45.00,0.00,73.45,0.00,0.00,0.00,0,,,100,100,0,2,0,0,0,1,0,,,,,0.0,0.0,0.0,0.0,0.0,0.0,0
34.182564,-118.129090,4.50,4.50,0.00,7.34,4.50,4.50,3.92,7.35,13009,2022-06-05 23:19:40.132,2022-06-05 16:19:40.132,17,0,0,14.881,34.182629,-118.129102,0.00,0.00,0.00,-0.10,0.70,134.30,0,1,0,35,100,-7944,1263,14881,3221.50,4,WP,1,0,0,0,0,0,0,1654471180131,3724,3722,3727,3724,0,0,27,,,,,,,0,0,0,1.00,7.00,1343.00,0.00,0.00,1445.00,14,45.00,0.00,73.45,0.00,0.00,0.00,0,,,100,100,0,2,0,0,0,1,0,,,,,0.0,0.0,0.0,0.0,0.0,0.0,0
34.182564,-118.129090,4.50,4.50,0.00,7.34,4.50,4.50,3.92,7.35,13103,2022-06-05 23:19:40.226,2022-06-05 16:19:40.226,17,0,0,14.881,34.182629,-118.129102,0.00,0.00,0.00,-0.10,0.70,126.80,0,1,0,35,100,-7944,1263,14881,3221.50,4,WP,1,0,0,0,0,0,0,1654471180225,3724,3722,3727,3724,0,0,27,,,,,,,0,0,0,1.00,7.00,1268.00,0.00,0.00,1363.00,14,45.00,0.00,73.43,0.00,0.00,0.00,0,,,100,100,0,2,0,0,0,1,0,,,,,0.0,0.0,0.0,0.0,0.0,0.0,0
34.182564,-118.129090,4.40,4.50,0.00,7.34,4.50,4.50,3.92,7.35,13207,2022-06-05 23:19:40.330,2022-06-05 16:19:40.330,17,0,0,14.881,34.182629,-118.129102,0.00,0.00,0.00,0.00,0.80,119.20,0,1,0,35,100,-7944,1263,14881,3221.50,4,WP,1,0,0,0,0,0,0,1654471180329,3724,3722,3727,3724,0,0,27,,,,,,,0,0,0,-0.00,8.00,1192.00,0.00,0.00,1284.00,14,44.00,0.00,73.42,0.00,0.00,0.00,0,,,100,100,0,2,0,0,0,1,0,,,,,0.0,0.0,0.0,0.0,0.0,0.0,0
34.182564,-118.129090,4.40,4.50,0.00,7.34,4.50,4.50,3.92,7.35,13304,2022-06-05 23:19:40.426,2022-06-05 16:19:40.426,17,0,0,14.881,34.182629,-118.129102,0.00,0.00,0.00,0.10,0.70,111.60,0,1,0,35,100,-7944,1263,14881,3221.50,4,WP,1,0,0,0,0,0,0,1654471180426,3724,3722,3727,3724,0,0,27,,,,,,,0,0,0,-1.00,7.00,1116.00,0.00,0.00,1206.00,14,44.00,0.00,73.35,0.00,0.00,0.00,0,,,100,100,0,2,0,0,0,1,0,,,,,0.0,0.0,0.0,0.0,0.0,0.0,0
34.182564,-118.129090,4.40,4.50,0.00,7.33,4.50,4.50,3.92,7.35,13405,2022-06-05 23:19:40.527,2022-06-05 16:19:40.527,17,0,0,14.881,34.182629,-118.129102,0.00,0.00,0.00,0.30,0.80,103.90,0,1,0,35,100,-7944,1263,14881,3221.50,4,WP,1,0,0,0,0,0,0,1654471180527,3724,3722,3727,3724,0,0,27,,,,,,,0,0,0,-3.00,8.00,1039.00,0.00,0.00,1127.00,14,44.00,0.00,73.33,0.00,0.00,0.00,0,,,100,100,0,2,0,0,0,1,0,,,,,0.0,0.0,0.0,0.0,0.0,0.0,0
34.182564,-118.129090,4.40,4.40,0.00,7.32,4.50,4.50,3.92,7.35,13503,2022-06-05 23:19:40.626,2022-06-05 16:19:40.626,17,0,0,14.881,34.182629,-118.129102,0.00,0.00,0.00,0.50,0.90,96.30,0,1,0,35,100,-7944,1263,14881,3221.50,4,WP,1,0,0,0,0,0,0,1654471180625,3724,3722,3727,3724,0,0,27,,,,,,,0,0,0,-5.00,9.00,963.00,0.00,0.00,1049.00,14,44.00,0.00,73.17,0.00,0.00,0.00,0,,,100,100,0,2,0,0,0,1,0,,,,,0.0,0.0,0.0,0.0,0.0,0.0,0
34.182564,-118.129090,4.40,4.40,0.00,7.31,4.50,4.50,3.92,7.35,13605,2022-06-05 23:19:40.727,2022-06-05 16:19:40.727,17,0,0,14.881,34.182629,-118.129102,0.00,0.00,0.00,0.70,0.90,88.70,0,1,0,35,100,-7944,1263,14881,3221.50,4,WP,1,0,0,0,0,0,0,1654471180727,3724,3722,3727,3724,0,0,27,,,,,,,0,0,0,-7.00,9.00,887.00,0.00,0.00,971.00,14,44.00,0.00,73.14,0.00,0.00,0.00,0,,,100,100,0,2,0,0,0,1,0,,,,,0.0,0.0,0.0,0.0,0.0,0.0,0
