latitude,longitude,altitude(m),ultrasonicHeight(m),speed(mps),distance(m),max_altitude(m),max_ascent(m),max_speed(mps),max_distance(m),time(millisecond),datetime(utc),datetime(local),satellites,pressure(Pa),temperature(F),voltage(v),home_latitude,home_longitude,velocityX(mps),velocityY(mps),velocityZ(mps),pitch(deg),roll(deg),yaw(deg),powerlevel,isflying,istakingphoto,remainPowerPercent,remainLifePercent,currentCurrent,currentElectricity,currentVoltage,batteryTemperature,dischargeCount,flightmode,isMotorsOn,isTakingVideo,Rc_elevator,Rc_aileron,Rc_throttle,Rc_rudder,Rc_gyro,timestamp,Battery_Cell1,Battery_Cell2,Battery_Cell3,Battery_Cell4,Battery_Cell5,Battery_Cell6,Dronetype,AppVersion,Planename,FlyControllerSerialNumber,RemoteSerialNumber,BatterySerialNumber,CENTER_BATTERY.productDate,CENTER_BATTERY.serialNo,CENTER_BATTERY.fullCapacity,CENTER_BATTERY.productDateRaw,pitchRaw,rollRaw,yawRaw,gimbalPitchRaw,gimbalRollRaw,gimbalYawRaw,flyState,altitudeRaw,speedRaw,distanceRaw,velocityXRaw,velocityYRaw,velocityZRaw,data_reuse,App_Tip,App_Warning,downlinkSignalQuality,uplinkSignalQuality,transmissionChannel,rcModeSwitch,rcHome,rcPause,rcTransform,rcJoystickMode,appMode,FlyControllerSerialNumber_legacy,RemoteSerialNumber_legacy,BatterySerialNumber_legacy,Battery2SerialNumber,frontAvoidDist,backAvoidDist,rightAvoidDist,leftAvoidDist,upAvoidDist,downAvoidDist,isBrakingToAvoid
34.182597,-118.129088,0.30,0.40,0.40,0.11,0.30,0.30,0.40,0.11,1,2022-06-08 00:24:10.577,2022-06-07 17:24:10.577,15,0,0,16.572,34.182596,-118.129088,0.00,0.00,-0.40,1.30,-1.00,-24.90,0,1,0,92,100,-5843,3311,16572,3061.50,5,TakeOff,1,0,0,0,0,0,0,1654647850577,4262,4250,4260,4259,0,0,27,Litchi_iOS_2.14.0,Brian-MAVIC 2,163DFCK001S13F,1DUCFB800104PR,0P2AG3L53400KG,,0,3630,0,-13.00,-10.00,-249.00,-2.00,0.00,-242.00,11,3.00,4.00,1.05,0.00,0.00,-4.00,0,,,100,100,0,2,0,0,0,1,0,(null),(null),(null),(null),0.0,0.0,0.0,0.0,0.0,0.0,0
34.182597,-118.129088,0.40,0.40,0.40,0.13,0.40,0.40,0.40,0.13,100,2022-06-08 00:24:10.677,2022-06-07 17:24:10.677,15,0,0,16.572,34.182596,-118.129088,0.00,0.00,-0.40,1.30,-1.50,-24.90,0,1,0,92,100,-5843,3311,16572,3061.50,5,TakeOff,1,0,0,0,0,0,0,1654647850676,4262,4250,4260,4259,0,0,27,,,,,,,0,0,0,-13.00,-15.00,-249.00,-2.00,0.00,-242.00,11,4.00,4.00,1.26,0.00,0.00,-4.00,0,,,100,100,0,2,0,0,0,1,0,,,,,0.0,0.0,0.0,0.0,0.0,0.0,0
34.182597,-118.129088,0.40,0.50,0.40,0.13,0.40,0.40,0.40,0.13,200,2022-06-08 00:24:10.777,2022-06-07 17:24:10.777,15,0,0,16.572,34.182596,-118.129088,0.00,0.00,-0.40,1.10,-1.60,-25.00,0,1,0,92,100,-5843,3311,16572,3061.50,5,TakeOff,1,0,0,0,0,0,0,1654647850776,4262,4250,4260,4259,0,0,27,,,,,,,0,0,0,-11.00,-16.00,-250.00,-2.00,0.00,-242.00,11,4.00,4.00,1.30,0.00,0.00,-4.00,0,,,100,100,0,2,0,0,0,1,0,,,,,0.0,0.0,0.0,0.0,0.0,0.0,0
34.182598,-118.129088,0.50,0.50,0.40,0.14,0.50,0.50,0.40,0.14,299,2022-06-08 00:24:10.876,2022-06-07 17:24:10.876,15,0,0,16.572,34.182596,-118.129088,0.00,0.00,-0.40,1.00,-1.30,-24.90,0,1,0,92,100,-5843,3311,16572,3061.50,5,TakeOff,1,0,0,0,0,0,0,1654647850875,4262,4250,4260,4259,0,0,27,,,,,,,0,0,0,-10.00,-13.00,-249.00,-2.00,0.00,-242.00,11,5.00,4.00,1.41,0.00,0.00,-4.00,0,,,100,100,0,2,0,0,0,1,0,,,,,0.0,0.0,0.0,0.0,0.0,0.0,0
34.182598,-118.129088,0.50,0.60,0.50,0.14,0.50,0.50,0.50,0.14,401,2022-06-08 00:24:10.977,2022-06-07 17:24:10.977,15,0,0,16.572,34.182596,-118.129088,0.00,0.00,-0.50,0.80,-1.30,-24.90,0,1,0,92,100,-5843,3311,16572,3061.50,5,TakeOff,1,0,0,0,0,0,0,1654647850977,4262,4250,4260,4259,0,0,27,,,,,,,0,0,0,-8.00,-13.00,-249.00,-2.00,0.00,-243.00,11,5.00,5.00,1.44,0.00,0.00,-5.00,0,,,100,100,0,2,0,0,0,1,0,,,,,0.0,0.0,0.0,0.0,0.0,0.0,0
34.182597,-118.129088,0.60,0.60,0.50,0.11,0.60,0.60,0.50,0.14,451,2022-06-08 00:24:11.027,2022-06-07 17:24:11.027,15,0,0,16.572,34.182596,-118.129088,0.00,0.00,-0.50,0.80,-1.50,-24.90,0,1,0,92,100,-5843,3311,16572,3061.50,5,TakeOff,1,0,0,0,0,0,0,1654647851027,4262,4250,4260,4259,0,0,27,,,,,,,0,0,0,-8.00,-15.00,-249.00,-2.00,0.00,-243.00,11,6.00,5.00,1.11,0.00,0.00,-5.00,0,,,100,100,0,2,0,0,0,1,0,,,,,0.0,0.0,0.0,0.0,0.0,0.0,0
34.182597,-118.129088,0.60,0.70,0.50,0.11,0.60,0.60,0.50,0.14,601,2022-06-08 00:24:11.178,2022-06-07 17:24:11.178,15,0,0,16.572,34.182596,-118.129088,0.00,0.00,-0.50,0.90,-1.30,-24.90,0,1,0,92,100,-5843,3311,16572,3061.50,5,TakeOff,1,0,0,0,0,0,0,1654647851177,4262,4250,4260,4259,0,0,27,,,,,,,0,0,0,-9.00,-13.00,-249.00,-2.00,0.00,-243.00,11,6.00,5.00,1.11,0.00,0.00,-5.00,0,,,100,100,0,2,0,0,0,1,0,,,,,0.0,0.0,0.0,0.0,0.0,0.0,0
34.182598,-118.129088,0.70,0.70,0.50,0.14,0.70,0.70,0.50,0.14,689,2022-06-08 00:24:11.265,2022-06-07 17:24:11.265,15,0,0,16.572,34.182596,-118.129088,0.00,0.00,-0.50,0.90,-1.10,-24.90,0,1,0,92,100,-5843,3311,16572,3061.50,5,TakeOff,1,0,0,0,0,0,0,1654647851265,4152,4128,4138,4140,0,0,27,,,,,,,0,0,0,-9.00,-11.00,-249.00,-2.00,0.00,-243.00,11,7.00,5.00,1.43,0.00,0.00,-5.00,0,,,100,100,0,2,0,0,0,1,0,,,,,0.0,0.0,0.0,0.0,0.0,0.0,0
34.182598,-118.129087,0.70,0.80,0.50,0.14,0.70,0.70,0.50,0.14,751,2022-06-08 00:24:11.328,2022-06-07 17:24:11.328,15,0,0,16.572,34.182596,-118.129088,0.00,0.00,-0.50,1.00,-1.00,-25.00,0,1,0,92,100,-5843,3311,16572,3061.50,5,TakeOff,1,0,0,0,0,0,0,1654647851327,4152,4128,4138,4140,0,0,27,,,,,,,0,0,0,-10.00,-10.00,-250.00,-2.00,0.00,-243.00,11,7.00,5.00,1.45,0.00,0.00,-5.00,0,,,100,100,0,2,0,0,0,1,0,,,,,0.0,0.0,0.0,0.0,0.0,0.0,0
34.182598,-118.129088,0.80,0.80,0.50,0.16,0.80,0.80,0.50,0.16,852,2022-06-08 00:24:11.428,2022-06-07 17:24:11.428,15,0,0,16.572,34.182596,-118.129088,0.00,0.00,-0.50,1.30,-1.00,-24.90,0,1,0,92,100,-5843,3311,16572,3061.50,5,TakeOff,1,0,0,0,0,0,0,1654647851428,4152,4128,4138,4140,0,0,27,,,,,,,0,0,0,-13.00,-10.00,-249.00,-2.00,0.00,-243.00,11,8.00,5.00,1.55,0.00,0.00,-5.00,0,,,100,100,0,2,0,0,0,1,0,,,,,0.0,0.0,0.0,0.0,0.0,0.0,0
34.182598,-118.129088,0.80,0.90,0.50,0.16,0.80,0.80,0.50,0.16,951,2022-06-08 00:24:11.527,2022-06-07 17:24:11.527,15,0,0,16.572,34.182596,-118.129088,0.00,0.00,-0.50,1.40,-1.30,-24.90,0,1,0,92,100,-5843,3311,16572,3061.50,5,TakeOff,1,0,0,0,0,0,0,1654647851527,4152,4128,4138,4140,0,0,27,,,,,,,0,0,0,-14.00,-13.00,-249.00,-2.00,0.00,-243.00,11,8.00,5.00,1.58,0.00,0.00,-5.00,0,,,100,100,0,2,0,0,0,1,0,,,,,0.0,0.0,0.0,0.0,0.0,0.0,0
34.182598,-118.129088,0.90,0.90,0.40,0.15,0.90,0.90,0.50,0.16,1051,2022-06-08 00:24:11.628,2022-06-07 17:24:11.628,15,0,0,16.572,34.182596,-118.129088,0.00,0.00,-0.40,1.50,-1.30,-24.90,0,1,0,92,100,-5843,3311,16572,3061.50,5,TakeOff,1,0,0,0,0,0,0,1654647851627,4152,4128,4138,4140,0,0,27,,,,,,,0,0,0,-15.00,-13.00,-249.00,-2.00,0.00,-243.00,11,9.00,4.00,1.50,0.00,0.00,-4.00,0,,,100,100,0,2,0,0,0,1,0,,,,,0.0,0.0,0.0,0.0,0.0,0.0,0
34.182598,-118.129088,0.90,1.00,0.40,0.15,0.90,0.90,0.50,0.16,1151,2022-06-08 00:24:11.728,2022-06-07 17:24:11.728,15,0,0,16.572,34.182596,-118.129088,0.00,0.00,-0.40,1.40,-1.10,-25.00,0,1,0,92,100,-5843,3311,16572,3061.50,5,TakeOff,1,0,0,0,0,0,0,1654647851727,4152,4128,4138,4140,0,0,27,,,,,,,0,0,0,-14.00,-11.00,-250.00,-2.00,0.00,-243.00,11,9.00,4.00,1.49,0.00,0.00,-4.00,0,,,100,100,0,2,0,0,0,1,0,,,,,0.0,0.0,0.0,0.0,0.0,0.0,0
34.182598,-118.129088,1.00,1.00,0.40,0.16,1.00,1.00,0.50,0.16,1251,2022-06-08 00:24:11.828,2022-06-07 17:24:11.828,15,0,0,16.572,34.182596,-118.129088,0.00,0.00,-0.40,1.30,-0.80,-25.00,0,1,0,92,100,-5843,3311,16572,3061.50,5,TakeOff,1,0,0,0,0,0,0,1654647851827,4152,4128,4138,4140,0,0,27,,,,,,,0,0,0,-13.00,-8.00,-250.00,-2.00,0.00,-243.00,11,10.00,4.00,1.58,0.00,0.00,-4.00,0,,,100,100,0,2,0,0,0,1,0,,,,,0.0,0.0,0.0,0.0,0.0,0.0,0
34.182598,-118.129088,1.00,1.10,0.40,0.16,1.00,1.00,0.50,0.16,1351,2022-06-08 00:24:11.928,2022-06-07 17:24:11.928,15,0,0,16.572,34.182596,-118.129088,0.00,0.00,-0.40,1.10,-0.80,-25.00,0,1,0,92,100,-5843,3311,16572,3061.50,5,TakeOff,1,0,0,0,0,0,0,1654647851927,4152,4128,4138,4140,0,0,27,,,,,,,0,0,0,-11.00,-8.00,-250.00,-2.00,0.00,-243.00,11,10.00,4.00,1.56,0.00,0.00,-4.00,0,,,100,100,0,2,0,0,0,1,0,,,,,0.0,0.0,0.0,0.0,0.0,0.0,0
34.182597,-118.129088,1.10,1.10,0.40,0.13,1.10,1.10,0.50,0.16,1451,2022-06-08 00:24:12.028,2022-06-07 17:24:12.028,15,0,0,16.572,34.182596,-118.129088,0.00,0.00,-0.40,0.70,-0.50,-25.00,0,1,0,92,100,-5843,3311,16572,3061.50,5,WP,1,0,0,0,0,0,0,1654647852027,4152,4128,4138,4140,0,0,27,,,,,,,0,0,0,-7.00,-5.00,-250.00,-2.00,0.00,-243.00,14,11.00,4.00,1.32,0.00,0.00,-4.00,0,,,100,100,0,2,0,0,0,1,0,,,,,0.0,0.0,0.0,0.0,0.0,0.0,0
34.182597,-118.129088,1.10,1.20,0.40,0.13,1.10,1.10,0.50,0.16,1551,2022-06-08 00:24:12.127,2022-06-07 17:24:12.127,15,0,0,16.572,34.182596,-118.129088,0.00,0.00,-0.40,0.30,0.00,-25.30,0,1,0,92,100,-5843,3311,16572,3061.50,5,WP,1,0,0,0,0,0,0,1654647852127,4152,4128,4138,4140,0,0,27,,,,,,,0,0,0,-3.00,0.00,-253.00,-2.00,0.00,-243.00,14,11.00,4.00,1.27,0.00,0.00,-4.00,0,,,100,100,0,2,0,0,0,1,0,,,,,0.0,0.0,0.0,0.0,0.0,0.0,0
34.182597,-118.129088,1.10,1.20,0.40,0.13,1.10,1.10,0.50,0.16,1652,2022-06-08 00:24:12.229,2022-06-07 17:24:12.229,15,0,0,16.572,34.182596,-118.129088,0.00,0.00,-0.40,0.30,-0.10,-26.30,0,1,0,92,100,-5843,3311,16572,3061.50,5,WP,1,0,0,0,0,0,0,1654647852228,4152,4128,4138,4140,0,0,27,,,,,,,0,0,0,-3.00,-1.00,-263.00,-2.00,0.00,-243.00,14,11.00,4.00,1.32,0.00,0.00,-4.00,0,,,100,100,0,2,0,0,0,1,0,,,,,0.0,0.0,0.0,0.0,0.0,0.0,0
34.182597,-118.129088,1.20,1.20,0.40,0.13,1.20,1.20,0.50,0.16,1752,2022-06-08 00:24:12.329,2022-06-07 17:24:12.329,15,0,0,16.552,34.182596,-118.129088,0.00,0.00,-0.40,0.50,-0.20,-27.80,0,1,0,92,100,-7554,3307,16552,3061.50,5,WP,1,0,0,0,0,0,0,1654647852328,4152,4128,4138,4140,0,0,27,,,,,,,0,0,0,-5.00,-2.00,-278.00,-2.00,0.00,-244.00,14,12.00,4.00,1.31,0.00,0.00,-4.00,0,,,100,100,0,2,0,0,0,1,0,,,,,0.0,0.0,0.0,0.0,0.0,0.0,0
34.182597,-118.129087,1.20,1.30,0.40,0.13,1.20,1.20,0.50,0.16,1852,2022-06-08 00:24:12.428,2022-06-07 17:24:12.428,15,0,0,16.552,34.182596,-118.129088,0.00,0.00,-0.40,0.70,-0.30,-29.90,0,1,0,92,100,-7554,3307,16552,3061.50,5,WP,1,0,0,0,0,0,0,1654647852428,4152,4128,4138,4140,0,0,27,,,,,,,0,0,0,-7.00,-3.00,-299.00,-2.00,0.00,-246.00,14,12.00,4.00,1.28,0.00,0.00,-4.00,0,,,100,100,0,2,0,0,0,1,0,,,,,0.0,0.0,0.0,0.0,0.0,0.0,0
34.182597,-118.129087,1.30,1.30,0.40,0.13,1.30,1.30,0.50,0.16,1952,2022-06-08 00:24:12.528,2022-06-07 17:24:12.528,15,0,0,16.552,34.182596,-118.129088,0.00,0.00,-0.40,0.70,-0.50,-32.50,0,1,0,92,100,-7554,3307,16552,3061.50,5,WP,1,0,0,0,0,0,0,1654647852528,4152,4128,4138,4140,0,0,27,,,,,,,0,0,0,-7.00,-5.00,-325.00,-2.00,0.00,-254.00,14,13.00,4.00,1.29,0.00,0.00,-4.00,0,,,100,100,0,2,0,0,0,1,0,,,,,0.0,0.0,0.0,0.0,0.0,0.0,0
34.182597,-118.129087,1.30,1.40,0.40,0.14,1.30,1.30,0.50,0.16,2052,2022-06-08 00:24:12.628,2022-06-07 17:24:12.628,15,0,0,16.552,34.182596,-118.129088,0.00,0.00,-0.40,0.70,-0.70,-35.80,0,1,0,92,100,-7554,3307,16552,3061.50,5,WP,1,0,0,0,0,0,0,1654647852628,4152,4128,4138,4140,0,0,27,,,,,,,0,0,0,-7.00,-7.00,-358.00,-2.00,0.00,-272.00,14,13.00,4.00,1.40,0.00,0.00,-4.00,0,,,100,100,0,2,0,0,0,1,0,,,,,0.0,0.0,0.0,0.0,0.0,0.0,0
34.182597,-118.129087,1.40,1.40,0.40,0.14,1.40,1.40,0.50,0.16,2152,2022-06-08 00:24:12.728,2022-06-07 17:24:12.728,15,0,0,16.552,34.182596,-118.129088,0.00,0.00,-0.40,0.50,-0.80,-39.50,0,1,0,92,100,-7554,3307,16552,3061.50,5,WP,1,0,0,0,0,0,0,1654647852728,4152,4128,4138,4140,0,0,27,,,,,,,0,0,0,-5.00,-8.00,-395.00,-2.00,0.00,-302.00,14,14.00,4.00,1.43,0.00,0.00,-4.00,0,,,100,100,0,2,0,0,0,1,0,,,,,0.0,0.0,0.0,0.0,0.0,0.0,0
34.182597,-118.129088,1.40,1.50,0.40,0.11,1.40,1.40,0.50,0.16,2252,2022-06-08 00:24:12.828,2022-06-07 17:24:12.828,15,0,0,16.552,34.182596,-118.129088,0.00,0.00,-0.40,0.40,-0.90,-44.00,0,1,0,92,100,-7554,3307,16552,3061.50,5,WP,1,0,0,0,0,0,0,1654647852828,4152,4128,4138,4140,0,0,27,,,,,,,0,0,0,-4.00,-9.00,-440.00,-1.00,0.00,-344.00,14,14.00,4.00,1.11,0.00,0.00,-4.00,0,,,100,100,0,2,0,0,0,1,0,,,,,0.0,0.0,0.0,0.0,0.0,0.0,0
34.182597,-118.129087,1.50,1.50,0.40,0.11,1.50,1.50,0.50,0.16,2352,2022-06-08 00:24:12.928,2022-06-07 17:24:12.928,15,0,0,16.552,34.182596,-118.129088,0.00,0.00,-0.40,0.40,-1.00,-49.10,0,1,0,92,100,-7554,3307,16552,3061.50,5,WP,1,0,0,0,0,0,0,1654647852928,4152,4128,4138,4140,0,0,27,,,,,,,0,0,0,-4.00,-10.00,-491.00,-1.00,0.00,-394.00,14,15.00,4.00,1.12,0.00,0.00,-4.00,0,,,100,100,0,2,0,0,0,1,0,,,,,0.0,0.0,0.0,0.0,0.0,0.0,0
34.182597,-118.129087,1.50,1.60,0.40,0.13,1.50,1.50,0.50,0.16,2452,2022-06-08 00:24:13.028,2022-06-07 17:24:13.028,15,0,0,16.552,34.182596,-118.129088,0.00,0.00,-0.40,0.30,-1.00,-54.70,0,1,0,92,100,-7554,3307,16552,3061.50,5,WP,1,0,0,0,0,0,0,1654647853028,4152,4128,4138,4140,0,0,27,,,,,,,0,0,0,-3.00,-10.00,-547.00,-1.00,0.00,-450.00,14,15.00,4.00,1.35,0.00,0.00,-4.00,0,,,100,100,0,2,0,0,0,1,0,,,,,0.0,0.0,0.0,0.0,0.0,0.0,0
34.182597,-118.129087,1.50,1.60,0.40,0.14,1.50,1.50,0.50,0.16,2552,2022-06-08 00:24:13.129,2022-06-07 17:24:13.129,15,0,0,16.552,34.182596,-118.129088,0.00,0.00,-0.40,0.20,-1.00,-60.80,0,1,0,92,100,-7554,3307,16552,3061.50,5,WP,1,0,0,0,0,0,0,1654647853128,4152,4128,4138,4140,0,0,27,,,,,,,0,0,0,-2.00,-10.00,-608.00,-1.00,0.00,-511.00,14,15.00,4.00,1.37,0.00,0.00,-4.00,0,,,100,100,0,2,0,0,0,1,0,,,,,0.0,0.0,0.0,0.0,0.0,0.0,0
34.182597,-118.129087,1.60,1.70,0.40,0.11,1.60,1.60,0.50,0.16,2652,2022-06-08 00:24:13.228,2022-06-07 17:24:13.228,15,0,0,16.552,34.182596,-118.129088,0.00,0.00,-0.40,0.20,-1.10,-67.50,0,1,0,92,100,-7554,3307,16552,3061.50,5,WP,1,0,0,0,0,0,0,1654647853228,4152,4128,4138,4140,0,0,27,,,,,,,0,0,0,-2.00,-11.00,-675.00,-1.00,0.00,-576.00,14,16.00,4.00,1.07,0.00,0.00,-4.00,0,,,100,100,0,2,0,0,0,1,0,,,,,0.0,0.0,0.0,0.0,0.0,0.0,0
34.182597,-118.129087,1.60,1.70,0.30,0.11,1.60,1.60,0.50,0.16,2753,2022-06-08 00:24:13.329,2022-06-07 17:24:13.329,15,0,0,16.552,34.182596,-118.129088,0.00,0.00,-0.30,0.10,-1.00,-74.80,0,1,0,92,100,-7554,3307,16552,3061.50,5,WP,1,0,0,0,0,0,0,1654647853329,4152,4128,4138,4140,0,0,27,,,,,,,0,0,0,-1.00,-10.00,-748.00,-1.00,0.00,-646.00,14,16.00,3.00,1.07,0.00,0.00,-3.00,0,,,100,100,0,2,0,0,0,1,0,,,,,0.0,0.0,0.0,0.0,0.0,0.0,0
34.182597,-118.129087,1.70,1.70,0.30,0.12,1.70,1.70,0.50,0.16,2852,2022-06-08 00:24:13.428,2022-06-07 17:24:13.428,15,0,0,16.552,34.182596,-118.129088,0.00,0.00,-0.30,0.10,-1.10,-82.20,0,1,0,92,100,-7554,3307,16552,3061.50,5,WP,1,0,0,0,0,0,0,1654647853428,4152,4128,4138,4140,0,0,27,,,,,,,0,0,0,-1.00,-11.00,-822.00,-1.00,0.00,-720.00,14,17.00,3.00,1.17,0.00,0.00,-3.00,0,,,100,100,0,2,0,0,0,1,0,,,,,0.0,0.0,0.0,0.0,0.0,0.0,0
34.182597,-118.129087,1.70,1.80,0.20,0.12,1.70,1.70,0.50,0.16,2953,2022-06-08 00:24:13.529,2022-06-07 17:24:13.529,15,0,0,16.552,34.182596,-118.129088,0.00,0.00,-0.20,0.10,-1.20,-89.80,0,1,0,92,100,-7554,3307,16552,3061.50,5,WP,1,0,0,0,0,0,0,1654647853529,4152,4128,4138,4140,0,0,27,,,,,,,0,0,0,-1.00,-12.00,-898.00,-1.00,0.00,-798.00,14,17.00,2.00,1.17,0.00,0.00,-2.00,0,,,100,100,0,2,0,0,0,1,0,,,,,0.0,0.0,0.0,0.0,0.0,0.0,0
34.182597,-118.129087,1.70,1.80,0.20,0.11,1.70,1.70,0.50,0.16,3054,2022-06-08 00:24:13.630,2022-06-07 17:24:13.630,15,0,0,16.552,34.182596,-118.129088,0.00,0.00,-0.20,0.00,-1.20,-97.40,0,1,0,92,100,-7554,3307,16552,3061.50,5,WP,1,0,0,0,0,0,0,1654647853630,4152,4128,4138,4140,0,0,27,,,,,,,0,0,0,-0.00,-12.00,-974.00,-1.00,0.00,-876.00,14,17.00,2.00,1.13,0.00,0.00,-2.00,0,,,100,100,0,2,0,0,0,1,0,,,,,0.0,0.0,0.0,0.0,0.0,0.0,0
34.182597,-118.129087,1.70,1.80,0.20,0.11,1.70,1.70,0.50,0.16,3154,2022-06-08 00:24:13.730,2022-06-07 17:24:13.730,15,0,0,16.552,34.182596,-118.129088,0.00,0.00,-0.20,-0.20,-1.00,-104.80,0,1,0,92,100,-7554,3307,16552,3061.50,5,WP,1,0,0,0,0,0,0,1654647853730,4152,4128,4138,4140,0,0,27,,,,,,,0,0,0,2.00,-10.00,-1048.00,-1.00,0.00,-952.00,14,17.00,2.00,1.13,0.00,0.00,-2.00,0,,,100,100,0,2,0,0,0,1,0,,,,,0.0,0.0,0.0,0.0,0.0,0.0,0
34.182597,-118.129087,1.70,1.80,0.10,0.11,1.70,1.70,0.50,0.16,3253,2022-06-08 00:24:13.829,2022-06-07 17:24:13.829,15,0,0,16.552,34.182596,-118.129088,0.00,0.00,-0.10,-0.40,-0.80,-112.20,0,1,0,92,100,-7554,3307,16552,3061.50,5,WP,1,0,0,0,0,0,0,1654647853829,4152,4128,4138,4140,0,0,27,,,,,,,0,0,0,4.00,-8.00,-1122.00,-1.00,0.00,-1028.00,14,17.00,1.00,1.13,0.00,0.00,-1.00,0,,,100,100,0,2,0,0,0,1,0,,,,,0.0,0.0,0.0,0.0,0.0,0.0,0
34.182597,-118.129087,1.80,1.90,0.10,0.11,1.80,1.80,0.50,0.16,3352,2022-06-08 00:24:13.929,2022-06-07 17:24:13.929,15,0,0,16.552,34.182596,-118.129088,0.00,0.00,-0.10,-0.40,-0.70,-119.80,0,1,0,92,100,-7554,3307,16552,3061.50,5,WP,1,0,0,0,0,0,0,1654647853928,4152,4128,4138,4140,0,0,27,,,,,,,0,0,0,4.00,-7.00,-1198.00,-1.00,0.00,-1105.00,14,18.00,1.00,1.12,0.00,0.00,-1.00,0,,,100,100,0,2,0,0,0,1,0,,,,,0.0,0.0,0.0,0.0,0.0,0.0,0
34.182597,-118.129087,1.80,1.90,0.10,0.12,1.80,1.80,0.50,0.16,3453,2022-06-08 00:24:14.029,2022-06-07 17:24:14.029,15,0,0,16.552,34.182596,-118.129088,0.00,0.00,-0.10,-0.50,-0.70,-127.30,0,1,0,92,100,-7554,3307,16552,3061.50,5,WP,1,0,0,0,0,0,0,1654647854029,4152,4128,4138,4140,0,0,27,,,,,,,0,0,0,5.00,-7.00,-1273.00,-1.00,0.00,-1181.00,14,18.00,1.00,1.24,0.00,0.00,-1.00,0,,,100,100,0,2,0,0,0,1,0,,,,,0.0,0.0,0.0,0.0,0.0,0.0,0
34.182597,-118.129087,1.80,1.90,0.10,0.12,1.80,1.80,0.50,0.16,3553,2022-06-08 00:24:14.130,2022-06-07 17:24:14.130,15,0,0,16.552,34.182596,-118.129088,0.00,0.00,-0.10,-0.60,-0.50,-134.80,0,1,0,92,100,-7554,3307,16552,3061.50,5,WP,1,0,0,0,0,0,0,1654647854129,4152,4128,4138,4140,0,0,27,,,,,,,0,0,0,6.00,-5.00,-1348.00,-1.00,0.00,-1256.00,14,18.00,1.00,1.25,0.00,0.00,-1.00,0,,,100,100,0,2,0,0,0,1,0,,,,,0.0,0.0,0.0,0.0,0.0,0.0,0
34.182597,-118.129087,1.80,1.90,0.10,0.10,1.80,1.80,0.50,0.16,3653,2022-06-08 00:24:14.229,2022-06-07 17:24:14.229,15,0,0,16.552,34.182596,-118.129088,0.00,0.00,-0.10,-0.60,-0.40,-142.30,0,1,0,92,100,-7554,3307,16552,3061.50,5,WP,1,0,0,0,0,0,0,1654647854229,4152,4128,4138,4140,0,0,27,,,,,,,0,0,0,6.00,-4.00,-1423.00,-1.00,0.00,-1331.00,14,18.00,1.00,1.04,0.00,0.00,-1.00,0,,,100,100,0,2,0,0,0,1,0,,,,,0.0,0.0,0.0,0.0,0.0,0.0,0
34.182597,-118.129087,1.80,1.90,0.10,0.10,1.80,1.80,0.50,0.16,3754,2022-06-08 00:24:14.330,2022-06-07 17:24:14.330,15,0,0,16.542,34.182596,-118.129088,0.00,0.00,-0.10,-0.50,-0.40,-149.80,0,1,0,92,100,-7489,3305,16542,3061.50,5,WP,1,0,0,0,0,0,0,1654647854330,4152,4128,4138,4140,0,0,27,,,,,,,0,0,0,5.00,-4.00,-1498.00,-1.00,0.00,-1407.00,14,18.00,1.00,1.02,0.00,0.00,-1.00,0,,,100,100,0,2,0,0,0,1,0,,,,,0.0,0.0,0.0,0.0,0.0,0.0,0
34.182597,-118.129087,1.80,1.90,0.00,0.10,1.80,1.80,0.50,0.16,3903,2022-06-08 00:24:14.479,2022-06-07 17:24:14.479,15,0,0,16.542,34.182596,-118.129088,0.00,0.00,0.00,-0.40,-0.30,-157.20,0,1,0,92,100,-7489,3305,16542,3061.50,5,WP,1,0,0,0,0,0,0,1654647854479,4152,4128,4138,4140,0,0,27,,,,,,,0,0,0,4.00,-3.00,-1572.00,-1.00,0.00,-1481.00,14,18.00,0.00,1.03,0.00,0.00,0.00,0,,,100,100,0,2,0,0,0,1,0,,,,,0.0,0.0,0.0,0.0,0.0,0.0,0
34.182597,-118.129087,1.80,1.90,0.00,0.10,1.80,1.80,0.50,0.16,3955,2022-06-08 00:24:14.531,2022-06-07 17:24:14.531,15,0,0,16.542,34.182596,-118.129088,0.00,0.00,0.00,-0.30,-0.50,-163.80,0,1,0,92,100,-7489,3305,16542,3061.50,5,WP,1,0,0,0,0,0,0,1654647854531,4152,4128,4138,4140,0,0,27,,,,,,,0,0,0,3.00,-5.00,-1638.00,-1.00,0.00,-1556.00,14,18.00,0.00,1.01,0.00,0.00,0.00,0,,,100,100,0,2,0,0,0,1,0,,,,,0.0,0.0,0.0,0.0,0.0,0.0,0
34.182597,-118.129087,1.80,1.90,0.00,0.09,1.80,1.80,0.50,0.16,4054,2022-06-08 00:24:14.631,2022-06-07 17:24:14.631,15,0,0,16.542,34.182596,-118.129088,0.00,0.00,0.00,-0.30,-0.60,-168.40,0,1,0,92,100,-7489,3305,16542,3061.50,5,WP,1,0,0,0,0,0,0,1654647854630,4152,4128,4138,4140,0,0,27,,,,,,,0,0,0,3.00,-6.00,-1684.00,-1.00,0.00,-1622.00,14,18.00,0.00,0.86,0.00,0.00,0.00,0,,,100,100,0,2,0,0,0,1,0,,,,,0.0,0.0,0.0,0.0,0.0,0.0,0
34.182597,-118.129087,1.80,1.90,0.00,0.08,1.80,1.80,0.50,0.16,4154,2022-06-08 00:24:14.731,2022-06-07 17:24:14.731,15,0,0,16.542,34.182596,-118.129088,0.00,0.00,0.00,-0.20,-0.50,-171.50,0,1,0,92,100,-7489,3305,16542,3061.50,5,WP,1,0,0,0,0,0,0,1654647854730,4152,4128,4138,4140,0,0,27,,,,,,,0,0,0,2.00,-5.00,-1715.00,-1.00,0.00,-1669.00,14,18.00,0.00,0.84,0.00,0.00,0.00,0,,,100,100,0,2,0,0,0,1,0,,,,,0.0,0.0,0.0,0.0,0.0,0.0,0
34.182597,-118.129087,1.80,1.90,0.00,0.06,1.80,1.80,0.50,0.16,4254,2022-06-08 00:24:14.830,2022-06-07 17:24:14.830,15,0,0,16.542,34.182596,-118.129088,0.00,0.00,0.00,-0.20,-0.40,-173.30,0,1,0,92,100,-7489,3305,16542,3061.50,5,WP,1,0,0,0,0,0,0,1654647854830,4152,4128,4138,4140,0,0,27,,,,,,,0,0,0,2.00,-4.00,-1733.00,-1.00,0.00,-1701.00,14,18.00,0.00,0.60,0.00,0.00,0.00,0,,,100,100,0,2,0,0,0,1,0,,,,,0.0,0.0,0.0,0.0,0.0,0.0,0
34.182597,-118.129087,1.80,2.00,0.00,0.06,1.80,1.80,0.50,0.16,4355,2022-06-08 00:24:14.931,2022-06-07 17:24:14.931,15,0,0,16.542,34.182596,-118.129088,0.00,0.00,0.00,-0.10,-0.40,-174.50,0,1,0,92,100,-7489,3305,16542,3061.50,5,WP,1,0,0,0,0,0,0,1654647854931,4152,4128,4138,4140,0,0,27,,,,,,,0,0,0,1.00,-4.00,-1745.00,-1.00,0.00,-1722.00,14,18.00,0.00,0.56,0.00,0.00,0.00,0,,,100,100,0,2,0,0,0,1,0,,,,,0.0,0.0,0.0,0.0,0.0,0.0,0
34.182596,-118.129087,1.80,2.00,0.00,0.05,1.80,1.80,0.50,0.16,4454,2022-06-08 00:24:15.030,2022-06-07 17:24:15.030,15,0,0,16.542,34.182596,-118.129088,0.00,0.00,0.00,0.00,-0.60,-175.10,0,1,0,92,100,-7489,3305,16542,3061.50,5,WP,1,0,0,0,0,0,0,1654647855030,4152,4128,4138,4140,0,0,27,,,,,,,0,0,0,-0.00,-6.00,-1751.00,-1.00,0.00,-1735.00,14,18.00,0.00,0.48,0.00,0.00,0.00,0,,,100,100,0,2,0,0,0,1,0,,,,,0.0,0.0,0.0,0.0,0.0,0.0,0
34.182596,-118.129087,1.80,2.00,0.00,0.05,1.80,1.80,0.50,0.16,4555,2022-06-08 00:24:15.131,2022-06-07 17:24:15.131,15,0,0,16.542,34.182596,-118.129088,0.00,0.00,0.00,-1.40,0.40,-175.30,0,1,0,92,100,-7489,3305,16542,3061.50,5,WP,1,0,0,0,0,0,0,1654647855131,4152,4128,4138,4140,0,0,27,,,,,,,0,0,0,14.00,4.00,-1753.00,-2.00,0.00,-1743.00,14,18.00,0.00,0.46,0.00,0.00,0.00,0,,,100,100,0,2,0,0,0,1,0,,,,,0.0,0.0,0.0,0.0,0.0,0.0,0
34.182596,-118.129087,1.90,2.00,0.00,0.04,1.90,1.90,0.50,0.16,4654,2022-06-08 00:24:15.230,2022-06-07 17:24:15.230,15,0,0,16.542,34.182596,-118.129088,0.00,0.00,0.00,-5.60,0.10,-175.20,0,1,0,92,100,-7489,3305,16542,3061.50,5,WP,1,0,0,0,0,0,0,1654647855230,4152,4128,4138,4140,0,0,27,,,,,,,0,0,0,56.00,1.00,-1752.00,-1.00,0.00,-1746.00,14,19.00,0.00,0.40,0.00,0.00,0.00,0,,,100,100,0,2,0,0,0,1,0,,,,,0.0,0.0,0.0,0.0,0.0,0.0,0
34.182596,-118.129087,1.90,2.00,0.10,0.03,1.90,1.90,0.50,0.16,4754,2022-06-08 00:24:15.331,2022-06-07 17:24:15.331,15,0,0,16.542,34.182596,-118.129088,-0.10,0.00,0.00,-9.40,-0.20,-175.20,0,1,0,92,100,-7489,3305,16542,3061.50,5,WP,1,0,0,0,0,0,0,1654647855330,4152,4128,4138,4140,0,0,27,,,,,,,0,0,0,94.00,-2.00,-1752.00,-1.00,0.00,-1748.00,14,19.00,1.00,0.35,-1.00,0.00,0.00,0,,,100,100,0,2,0,0,0,1,0,,,,,0.0,0.0,0.0,0.0,0.0,0.0,0
34.182596,-118.129087,1.90,2.00,0.30,0.05,1.90,1.90,0.50,0.16,4854,2022-06-08 00:24:15.430,2022-06-07 17:24:15.431,15,0,0,16.542,34.182596,-118.129088,-0.30,0.00,0.00,-11.90,-0.40,-175.20,0,1,0,92,100,-7489,3305,16542,3061.50,5,WP,1,0,0,0,0,0,0,1654647855430,4152,4128,4138,4140,0,0,27,,,,,,,0,0,0,119.00,-4.00,-1752.00,-1.00,0.00,-1748.00,14,19.00,3.00,0.55,-3.00,0.00,0.00,0,,,100,100,0,2,0,0,0,1,0,,,,,0.0,0.0,0.0,0.0,0.0,0.0,0
34.182595,-118.129088,1.90,2.00,0.50,0.10,1.90,1.90,0.50,0.16,4954,2022-06-08 00:24:15.530,2022-06-07 17:24:15.530,15,0,0,16.542,34.182596,-118.129088,-0.50,0.00,0.00,-13.30,-0.50,-175.10,0,1,0,92,100,-7489,3305,16542,3061.50,5,WP,1,0,0,0,0,0,0,1654647855530,4152,4128,4138,4140,0,0,27,,,,,,,0,0,0,133.00,-5.00,-1751.00,-2.00,0.00,-1749.00,14,19.00,5.00,0.96,-5.00,0.00,0.00,0,,,100,100,0,2,0,0,0,1,0,,,,,0.0,0.0,0.0,0.0,0.0,0.0,0
34.182595,-118.129088,1.90,2.00,0.71,0.15,1.90,1.90,0.71,0.16,5054,2022-06-08 00:24:15.631,2022-06-07 17:24:15.631,15,0,0,16.542,34.182596,-118.129088,-0.70,-0.10,0.00,-14.10,-0.40,-175.10,0,1,0,92,100,-7489,3305,16542,3061.50,5,WP,1,0,0,0,0,0,0,1654647855630,4152,4128,4138,4140,0,0,27,,,,,,,0,0,0,141.00,-4.00,-1751.00,-2.00,0.00,-1749.00,14,19.00,7.07,1.53,-7.00,-1.00,0.00,0,,,100,100,0,2,0,0,0,1,0,,,,,0.0,0.0,0.0,0.0,0.0,0.0,0
34.182594,-118.129088,1.90,2.00,0.91,0.24,1.90,1.90,0.91,0.24,5155,2022-06-08 00:24:15.731,2022-06-07 17:24:15.731,15,0,0,16.542,34.182596,-118.129088,-0.90,-0.10,0.00,-14.50,-0.20,-175.10,0,1,0,92,100,-7489,3305,16542,3061.50,5,WP,1,0,0,0,0,0,0,1654647855731,4152,4128,4138,4140,0,0,27,,,,,,,0,0,0,145.00,-2.00,-1751.00,-2.00,0.00,-1749.00,14,19.00,9.06,2.40,-9.00,-1.00,0.00,0,,,100,100,0,2,0,0,0,1,0,,,,,0.0,0.0,0.0,0.0,0.0,0.0,0
34.182593,-118.129088,1.90,2.00,1.10,0.35,1.90,1.90,1.10,0.35,5254,2022-06-08 00:24:15.831,2022-06-07 17:24:15.831,15,0,0,16.542,34.182596,-118.129088,-1.10,-0.10,0.00,-14.30,-0.10,-175.20,0,1,0,92,100,-7489,3305,16542,3061.50,5,WP,1,0,0,0,0,0,0,1654647855830,4152,4128,4138,4140,0,0,27,,,,,,,0,0,0,143.00,-1.00,-1752.00,-1.00,0.00,-1749.00,14,19.00,11.05,3.55,-11.00,-1.00,0.00,0,,,100,100,0,2,0,0,0,1,0,,,,,0.0,0.0,0.0,0.0,0.0,0.0,0
34.182592,-118.129088,1.90,2.00,1.40,0.49,1.90,1.90,1.40,0.49,5355,2022-06-08 00:24:15.932,2022-06-07 17:24:15.932,15,0,0,16.542,34.182596,-118.129088,-1.40,-0.10,0.00,-13.60,-0.20,-175.40,0,1,0,92,100,-7489,3305,16542,3061.50,5,WP,1,0,0,0,0,0,0,1654647855931,4152,4128,4138,4140,0,0,27,,,,,,,0,0,0,136.00,-2.00,-1754.00,-1.00,0.00,-1749.00,14,19.00,14.04,4.89,-14.00,-1.00,0.00,0,,,100,100,0,2,0,0,0,1,0,,,,,0.0,0.0,0.0,0.0,0.0,0.0,0
34.182591,-118.129088,1.90,2.00,1.60,0.64,1.90,1.90,1.60,0.64,5455,2022-06-08 00:24:16.031,2022-06-07 17:24:16.031,15,0,0,16.542,34.182596,-118.129088,-1.60,-0.10,0.00,-10.70,0.00,-175.20,0,1,0,92,100,-7489,3305,16542,3061.50,5,WP,1,0,0,0,0,0,0,1654647856031,4152,4128,4138,4140,0,0,27,,,,,,,0,0,0,107.00,0.00,-1752.00,-1.00,0.00,-1749.00,14,19.00,16.03,6.35,-16.00,-1.00,0.00,0,,,100,100,0,2,0,0,0,1,0,,,,,0.0,0.0,0.0,0.0,0.0,0.0,0
34.182589,-118.129088,1.90,2.00,1.70,0.81,1.90,1.90,1.70,0.81,5555,2022-06-08 00:24:16.132,2022-06-07 17:24:16.132,15,0,0,16.542,34.182596,-118.129088,-1.70,-0.10,0.00,-6.70,0.00,-175.10,0,1,0,92,100,-7489,3305,16542,3061.50,5,WP,1,0,0,0,0,0,0,1654647856131,4152,4128,4138,4140,0,0,27,,,,,,,0,0,0,67.00,0.00,-1751.00,-2.00,0.00,-1749.00,14,19.00,17.03,8.06,-17.00,-1.00,0.00,0,,,100,100,0,2,0,0,0,1,0,,,,,0.0,0.0,0.0,0.0,0.0,0.0,0
34.182587,-118.129088,1.90,2.00,1.81,1.00,1.90,1.90,1.81,1.00,5654,2022-06-08 00:24:16.231,2022-06-07 17:24:16.231,15,0,0,16.521,34.182596,-118.129088,-1.80,-0.20,0.00,-3.20,-0.10,-175.20,0,1,0,91,100,-7390,3301,16521,3061.50,5,WP,1,0,0,0,0,0,0,1654647856230,4152,4128,4138,4140,0,0,27,,,,,,,0,0,0,32.00,-1.00,-1752.00,-2.00,0.00,-1749.00,14,19.00,18.11,9.98,-18.00,-2.00,0.00,0,,,100,100,0,2,0,0,0,1,0,,,,,0.0,0.0,0.0,0.0,0.0,0.0,0
34.182586,-118.129088,1.90,2.00,1.80,1.18,1.90,1.90,1.81,1.18,5755,2022-06-08 00:24:16.331,2022-06-07 17:24:16.331,15,0,0,16.521,34.182596,-118.129088,-1.80,-0.10,0.00,-0.90,-0.20,-175.50,0,1,0,91,100,-7390,3301,16521,3061.50,5,WP,1,0,0,0,0,0,0,1654647856331,4152,4128,4138,4140,0,0,27,,,,,,,0,0,0,9.00,-2.00,-1755.00,-2.00,0.00,-1749.00,14,19.00,18.03,11.84,-18.00,-1.00,0.00,0,,,100,100,0,2,0,0,0,1,0,,,,,0.0,0.0,0.0,0.0,0.0,0.0,0
34.182584,-118.129089,1.90,2.00,1.80,1.39,1.90,1.90,1.81,1.39,5855,2022-06-08 00:24:16.432,2022-06-07 17:24:16.432,15,0,0,16.521,34.182596,-118.129088,-1.80,-0.10,0.00,0.80,-0.40,-175.30,0,1,0,91,100,-7390,3301,16521,3061.50,5,WP,1,0,0,0,0,0,0,1654647856431,4152,4128,4138,4140,0,0,27,,,,,,,0,0,0,-8.00,-4.00,-1753.00,-2.00,0.00,-1749.00,14,19.00,18.03,13.93,-18.00,-1.00,0.00,0,,,100,100,0,2,0,0,0,1,0,,,,,0.0,0.0,0.0,0.0,0.0,0.0,0
34.182582,-118.129089,1.90,2.00,1.81,1.58,1.90,1.90,1.81,1.58,5955,2022-06-08 00:24:16.531,2022-06-07 17:24:16.531,15,0,0,16.521,34.182596,-118.129088,-1.80,-0.20,0.00,1.70,-0.50,-175.10,0,1,0,91,100,-7390,3301,16521,3061.50,5,WP,1,0,0,0,0,0,0,1654647856531,4152,4128,4138,4140,0,0,27,,,,,,,0,0,0,-17.00,-5.00,-1751.00,-2.00,0.00,-1749.00,14,19.00,18.11,15.77,-18.00,-2.00,0.00,0,,,100,100,0,2,0,0,0,1,0,,,,,0.0,0.0,0.0,0.0,0.0,0.0,0
34.182580,-118.129089,1.90,2.00,1.71,1.76,1.90,1.90,1.81,1.76,6055,2022-06-08 00:24:16.632,2022-06-07 17:24:16.632,15,0,0,16.521,34.182596,-118.129088,-1.70,-0.20,0.00,2.30,-0.40,-175.20,0,1,0,91,100,-7390,3301,16521,3061.50,5,WP,1,0,0,0,0,0,0,1654647856631,4152,4128,4138,4140,0,0,27,,,,,,,0,0,0,-23.00,-4.00,-1752.00,-2.00,0.00,-1749.00,14,19.00,17.12,17.61,-17.00,-2.00,0.00,0,,,100,100,0,2,0,0,0,1,0,,,,,0.0,0.0,0.0,0.0,0.0,0.0,0
34.182579,-118.129089,1.90,2.00,1.70,1.93,1.90,1.90,1.81,1.93,6155,2022-06-08 00:24:16.731,2022-06-07 17:24:16.731,15,0,0,16.521,34.182596,-118.129088,-1.70,-0.10,0.00,2.60,-0.20,-175.30,0,1,0,91,100,-7390,3301,16521,3061.50,5,WP,1,0,0,0,0,0,0,1654647856731,4152,4128,4138,4140,0,0,27,,,,,,,0,0,0,-26.00,-2.00,-1753.00,-2.00,0.00,-1749.00,14,19.00,17.03,19.32,-17.00,-1.00,0.00,0,,,100,100,0,2,0,0,0,1,0,,,,,0.0,0.0,0.0,0.0,0.0,0.0,0
34.182577,-118.129089,1.80,2.00,1.60,2.12,1.90,1.90,1.81,2.12,6255,2022-06-08 00:24:16.832,2022-06-07 17:24:16.832,15,0,0,16.521,34.182596,-118.129088,-1.60,-0.10,0.00,3.50,-0.30,-175.30,0,1,0,91,100,-7390,3301,16521,3061.50,5,WP,1,0,0,0,0,0,0,1654647856831,4152,4128,4138,4140,0,0,27,,,,,,,0,0,0,-35.00,-3.00,-1753.00,-2.00,0.00,-1749.00,14,18.00,16.03,21.18,-16.00,-1.00,0.00,0,,,100,100,0,2,0,0,0,1,0,,,,,0.0,0.0,0.0,0.0,0.0,0.0,0
34.182576,-118.129089,1.80,2.00,1.50,2.28,1.90,1.90,1.81,2.28,6355,2022-06-08 00:24:16.932,2022-06-07 17:24:16.932,15,0,0,16.521,34.182596,-118.129088,-1.50,-0.10,0.00,4.30,-0.30,-175.30,0,1,0,91,100,-7390,3301,16521,3061.50,5,WP,1,0,0,0,0,0,0,1654647856931,4152,4128,4138,4140,0,0,27,,,,,,,0,0,0,-43.00,-3.00,-1753.00,-2.00,0.00,-1749.00,14,18.00,15.03,22.75,-15.00,-1.00,0.00,0,,,100,100,0,2,0,0,0,1,0,,,,,0.0,0.0,0.0,0.0,0.0,0.0,0
34.182575,-118.129089,1.80,2.00,1.40,2.42,1.90,1.90,1.81,2.42,6455,2022-06-08 00:24:17.032,2022-06-07 17:24:17.032,15,0,0,16.521,34.182596,-118.129088,-1.40,-0.10,0.00,4.40,-0.10,-175.20,0,1,0,91,100,-7390,3301,16521,3061.50,5,WP,1,0,0,0,0,0,0,1654647857031,4152,4128,4138,4140,0,0,27,,,,,,,0,0,0,-44.00,-1.00,-1752.00,-2.00,0.00,-1749.00,14,18.00,14.04,24.16,-14.00,-1.00,0.00,0,,,100,100,0,2,0,0,0,1,0,,,,,0.0,0.0,0.0,0.0,0.0,0.0,0
34.182573,-118.129090,1.80,2.00,1.30,2.55,1.90,1.90,1.81,2.55,6555,2022-06-08 00:24:17.132,2022-06-07 17:24:17.132,15,0,0,16.521,34.182596,-118.129088,-1.30,-0.10,0.00,4.20,-0.10,-175.20,0,1,0,91,100,-7390,3301,16521,3061.50,5,WP,1,0,0,0,0,0,0,1654647857131,4152,4128,4138,4140,0,0,27,,,,,,,0,0,0,-42.00,-1.00,-1752.00,-2.00,0.00,-1749.00,14,18.00,13.04,25.53,-13.00,-1.00,0.00,0,,,100,100,0,2,0,0,0,1,0,,,,,0.0,0.0,0.0,0.0,0.0,0.0,0
34.182572,-118.129090,1.80,2.00,1.20,2.68,1.90,1.90,1.81,2.68,6656,2022-06-08 00:24:17.232,2022-06-07 17:24:17.232,15,0,0,16.521,34.182596,-118.129088,-1.20,-0.10,0.00,4.00,-0.10,-175.10,0,1,0,91,100,-7390,3301,16521,3061.50,5,WP,1,0,0,0,0,0,0,1654647857232,4152,4128,4138,4140,0,0,27,,,,,,,0,0,0,-40.00,-1.00,-1751.00,-2.00,0.00,-1749.00,14,18.00,12.04,26.83,-12.00,-1.00,0.00,0,,,100,100,0,2,0,0,0,1,0,,,,,0.0,0.0,0.0,0.0,0.0,0.0,0
34.182571,-118.129090,1.80,2.00,1.10,2.80,1.90,1.90,1.81,2.80,6755,2022-06-08 00:24:17.332,2022-06-07 17:24:17.332,15,0,0,16.521,34.182596,-118.129088,-1.10,-0.10,0.00,3.70,0.00,-175.30,0,1,0,91,100,-7390,3301,16521,3061.50,5,WP,1,0,0,0,0,0,0,1654647857331,4152,4128,4138,4140,0,0,27,,,,,,,0,0,0,-37.00,0.00,-1753.00,-2.00,0.00,-1749.00,14,18.00,11.05,28.01,-11.00,-1.00,0.00,0,,,100,100,0,2,0,0,0,1,0,,,,,0.0,0.0,0.0,0.0,0.0,0.0,0
34.182570,-118.129090,1.80,2.00,1.00,2.92,1.90,1.90,1.81,2.92,6855,2022-06-08 00:24:17.432,2022-06-07 17:24:17.432,15,0,0,16.521,34.182596,-118.129088,-1.00,-0.10,0.00,3.40,0.40,-175.20,0,1,0,91,100,-7390,3301,16521,3061.50,5,WP,1,0,0,0,0,0,0,1654647857431,4152,4128,4138,4140,0,0,27,,,,,,,0,0,0,-34.00,4.00,-1752.00,-2.00,0.00,-1749.00,14,18.00,10.05,29.16,-10.00,-1.00,0.00,0,,,100,100,0,2,0,0,0,1,0,,,,,0.0,0.0,0.0,0.0,0.0,0.0,0
34.182569,-118.129090,1.80,2.00,0.91,3.02,1.90,1.90,1.81,3.02,6955,2022-06-08 00:24:17.532,2022-06-07 17:24:17.532,15,0,0,16.521,34.182596,-118.129088,-0.90,-0.10,0.00,3.00,0.40,-175.30,0,1,0,91,100,-7390,3301,16521,3061.50,5,WP,1,0,0,0,0,0,0,1654647857531,4152,4128,4138,4140,0,0,27,,,,,,,0,0,0,-30.00,4.00,-1753.00,-2.00,0.00,-1749.00,14,18.00,9.06,30.18,-9.00,-1.00,0.00,0,,,100,100,0,2,0,0,0,1,0,,,,,0.0,0.0,0.0,0.0,0.0,0.0,0
34.182568,-118.129090,1.80,2.00,0.81,3.11,1.90,1.90,1.81,3.11,7056,2022-06-08 00:24:17.632,2022-06-07 17:24:17.632,15,0,0,16.521,34.182596,-118.129088,-0.80,-0.10,0.00,2.60,0.20,-175.20,0,1,0,91,100,-7390,3301,16521,3061.50,5,WP,1,0,0,0,0,0,0,1654647857632,4152,4128,4138,4140,0,0,27,,,,,,,0,0,0,-26.00,2.00,-1752.00,-2.00,0.00,-1749.00,14,18.00,8.06,31.09,-8.00,-1.00,0.00,0,,,100,100,0,2,0,0,0,1,0,,,,,0.0,0.0,0.0,0.0,0.0,0.0,0
34.182567,-118.129090,1.80,2.00,0.81,3.20,1.90,1.90,1.81,3.20,7155,2022-06-08 00:24:17.732,2022-06-07 17:24:17.732,15,0,0,16.521,34.182596,-118.129088,-0.80,-0.10,0.00,2.40,0.10,-175.20,0,1,0,91,100,-7390,3301,16521,3061.50,5,WP,1,0,0,0,0,0,0,1654647857731,4152,4128,4138,4140,0,0,27,,,,,,,0,0,0,-24.00,1.00,-1752.00,-2.00,0.00,-1749.00,14,18.00,8.06,31.98,-8.00,-1.00,0.00,0,,,100,100,0,2,0,0,0,1,0,,,,,0.0,0.0,0.0,0.0,0.0,0.0,0
34.182567,-118.129090,1.80,2.00,0.71,3.28,1.90,1.90,1.81,3.28,7256,2022-06-08 00:24:17.832,2022-06-07 17:24:17.832,15,0,0,16.521,34.182596,-118.129088,-0.70,-0.10,0.00,2.40,0.00,-175.20,0,1,0,91,100,-7390,3301,16521,3061.50,5,WP,1,0,0,0,0,0,0,1654647857832,4152,4128,4138,4140,0,0,27,,,,,,,0,0,0,-24.00,0.00,-1752.00,-2.00,0.00,-1749.00,14,18.00,7.07,32.80,-7.00,-1.00,0.00,0,,,100,100,0,2,0,0,0,1,0,,,,,0.0,0.0,0.0,0.0,0.0,0.0,0
34.182566,-118.129090,1.80,2.00,0.61,3.36,1.90,1.90,1.81,3.36,7357,2022-06-08 00:24:17.933,2022-06-07 17:24:17.933,15,0,0,16.521,34.182596,-118.129088,-0.60,-0.10,0.00,2.90,-0.10,-175.20,0,1,0,91,100,-7390,3301,16521,3061.50,5,WP,1,0,0,0,0,0,0,1654647857933,4152,4128,4138,4140,0,0,27,,,,,,,0,0,0,-29.00,-1.00,-1752.00,-2.00,0.00,-1749.00,14,18.00,6.08,33.58,-6.00,-1.00,0.00,0,,,100,100,0,2,0,0,0,1,0,,,,,0.0,0.0,0.0,0.0,0.0,0.0,0
34.182565,-118.129090,1.80,2.00,0.61,3.42,1.90,1.90,1.81,3.42,7456,2022-06-08 00:24:18.032,2022-06-07 17:24:18.032,15,0,0,16.521,34.182596,-118.129088,-0.60,-0.10,0.00,3.40,-0.50,-175.20,0,1,0,91,100,-7390,3301,16521,3061.50,5,WP,1,0,0,0,0,0,0,1654647858032,4152,4128,4138,4140,0,0,27,,,,,,,0,0,0,-34.00,-5.00,-1752.00,-2.00,0.00,-1749.00,14,18.00,6.08,34.25,-6.00,-1.00,0.00,0,,,100,100,0,2,0,0,0,1,0,,,,,0.0,0.0,0.0,0.0,0.0,0.0,0
34.182565,-118.129090,1.80,2.00,0.51,3.49,1.90,1.90,1.81,3.49,7557,2022-06-08 00:24:18.133,2022-06-07 17:24:18.133,15,0,0,16.521,34.182596,-118.129088,-0.50,-0.10,0.00,3.90,-0.60,-175.20,0,1,0,91,100,-7390,3301,16521,3061.50,5,WP,1,0,0,0,0,0,0,1654647858133,4152,4128,4138,4140,0,0,27,,,,,,,0,0,0,-39.00,-6.00,-1752.00,-2.00,0.00,-1749.00,14,18.00,5.10,34.89,-5.00,-1.00,0.00,0,,,100,100,0,2,0,0,0,1,0,,,,,0.0,0.0,0.0,0.0,0.0,0.0,0
34.182564,-118.129090,1.80,2.00,0.41,3.53,1.90,1.90,1.81,3.53,7656,2022-06-08 00:24:18.233,2022-06-07 17:24:18.233,15,0,0,16.498,34.182596,-118.129088,-0.40,-0.10,0.00,3.80,-0.60,-175.20,0,1,0,91,100,-7308,3295,16498,3061.50,5,WP,1,0,0,0,0,0,0,1654647858232,4152,4128,4138,4140,0,0,27,,,,,,,0,0,0,-38.00,-6.00,-1752.00,-2.00,0.00,-1749.00,14,18.00,4.12,35.29,-4.00,-1.00,0.00,0,,,100,100,0,2,0,0,0,1,0,,,,,0.0,0.0,0.0,0.0,0.0,0.0,0
34.182564,-118.129090,1.80,2.00,0.40,3.58,1.90,1.90,1.81,3.58,7757,2022-06-08 00:24:18.333,2022-06-07 17:24:18.333,15,0,0,16.498,34.182596,-118.129088,-0.40,0.00,0.00,3.60,-0.60,-175.30,0,1,0,91,100,-7308,3295,16498,3061.50,5,WP,1,0,0,0,0,0,0,1654647858333,4152,4128,4138,4140,0,0,27,,,,,,,0,0,0,-36.00,-6.00,-1753.00,-2.00,0.00,-1749.00,14,18.00,4.00,35.78,-4.00,0.00,0.00,0,,,100,100,0,2,0,0,0,1,0,,,,,0.0,0.0,0.0,0.0,0.0,0.0,0
34.182564,-118.129090,1.80,2.00,0.30,3.61,1.90,1.90,1.81,3.61,7857,2022-06-08 00:24:18.433,2022-06-07 17:24:18.433,15,0,0,16.498,34.182596,-118.129088,-0.30,0.00,0.00,4.10,-0.70,-175.30,0,1,0,91,100,-7308,3295,16498,3061.50,5,WP,1,0,0,0,0,0,0,1654647858433,4152,4128,4138,4140,0,0,27,,,,,,,0,0,0,-41.00,-7.00,-1753.00,-2.00,0.00,-1749.00,14,18.00,3.00,36.08,-3.00,0.00,0.00,0,,,100,100,0,2,0,0,0,1,0,,,,,0.0,0.0,0.0,0.0,0.0,0.0,0
34.182563,-118.129091,1.80,2.00,0.20,3.64,1.90,1.90,1.81,3.64,7957,2022-06-08 00:24:18.533,2022-06-07 17:24:18.533,15,0,0,16.498,34.182596,-118.129088,-0.20,0.00,0.00,4.80,-0.80,-175.40,0,1,0,91,100,-7308,3295,16498,3061.50,5,WP,1,0,0,0,0,0,0,1654647858533,4152,4128,4138,4140,0,0,27,,,,,,,0,0,0,-48.00,-8.00,-1754.00,-2.00,0.00,-1749.00,14,18.00,2.00,36.42,-2.00,0.00,0.00,0,,,100,100,0,2,0,0,0,1,0,,,,,0.0,0.0,0.0,0.0,0.0,0.0,0
34.182563,-118.129090,1.80,2.00,0.10,3.66,1.90,1.90,1.81,3.66,8056,2022-06-08 00:24:18.633,2022-06-07 17:24:18.633,15,0,0,16.498,34.182596,-118.129088,-0.10,0.00,0.00,3.40,-0.40,-175.50,0,1,0,91,100,-7308,3295,16498,3061.50,5,WP,1,0,0,0,0,0,0,1654647858632,4152,4128,4138,4140,0,0,27,,,,,,,0,0,0,-34.00,-4.00,-1755.00,-2.00,0.00,-1749.00,14,18.00,1.00,36.64,-1.00,0.00,0.00,0,,,100,100,0,2,0,0,0,1,0,,,,,0.0,0.0,0.0,0.0,0.0,0.0,0
34.182563,-118.129090,1.80,2.00,0.10,3.68,1.90,1.90,1.81,3.68,8158,2022-06-08 00:24:18.734,2022-06-07 17:24:18.734,15,0,0,16.498,34.182596,-118.129088,-0.10,0.00,0.00,2.20,-0.40,-174.80,0,1,0,91,100,-7308,3295,16498,3061.50,5,WP,1,0,0,0,0,0,0,1654647858734,4152,4128,4138,4140,0,0,27,,,,,,,0,0,0,-22.00,-4.00,-1748.00,-2.00,0.00,-1749.00,14,18.00,1.00,36.82,-1.00,0.00,0.00,0,,,100,100,0,2,0,0,0,1,0,,,,,0.0,0.0,0.0,0.0,0.0,0.0,0
34.182563,-118.129091,1.80,2.00,0.00,3.69,1.90,1.90,1.81,3.69,8257,2022-06-08 00:24:18.833,2022-06-07 17:24:18.833,15,0,0,16.498,34.182596,-118.129088,0.00,0.00,0.00,1.50,-0.50,-167.40,0,1,0,91,100,-7308,3295,16498,3061.50,5,WP,1,0,0,0,0,0,0,1654647858833,4152,4128,4138,4140,0,0,27,,,,,,,0,0,0,-15.00,-5.00,-1674.00,-2.00,0.00,-1749.00,14,18.00,0.00,36.87,0.00,0.00,0.00,0,,,100,100,0,2,0,0,0,1,0,,,,,0.0,0.0,0.0,0.0,0.0,0.0,0
34.182563,-118.129091,1.80,2.00,0.00,3.70,1.90,1.90,1.81,3.70,8357,2022-06-08 00:24:18.934,2022-06-07 17:24:18.934,15,0,0,16.498,34.182596,-118.129088,0.00,0.00,0.00,1.10,-0.30,-159.80,0,1,0,91,100,-7308,3295,16498,3061.50,5,WP,1,0,0,0,0,0,0,1654647858933,4152,4128,4138,4140,0,0,27,,,,,,,0,0,0,-11.00,-3.00,-1598.00,-2.00,0.00,-1724.00,14,18.00,0.00,36.96,0.00,0.00,0.00,0,,,100,100,0,2,0,0,0,1,0,,,,,0.0,0.0,0.0,0.0,0.0,0.0,0
34.182563,-118.129091,1.80,2.00,0.00,3.69,1.90,1.90,1.81,3.70,8458,2022-06-08 00:24:19.034,2022-06-07 17:24:19.034,15,0,0,16.498,34.182596,-118.129088,0.00,0.00,0.00,0.80,-0.30,-152.20,0,1,0,91,100,-7308,3295,16498,3061.50,5,WP,1,0,0,0,0,0,0,1654647859034,4152,4128,4138,4140,0,0,27,,,,,,,0,0,0,-8.00,-3.00,-1522.00,-2.00,0.00,-1648.00,14,18.00,0.00,36.94,0.00,0.00,0.00,0,,,100,100,0,2,0,0,0,1,0,,,,,0.0,0.0,0.0,0.0,0.0,0.0,0
34.182563,-118.129091,1.80,2.00,0.00,3.70,1.90,1.90,1.81,3.70,8558,2022-06-08 00:24:19.134,2022-06-07 17:24:19.134,15,0,0,16.498,34.182596,-118.129088,0.00,0.00,0.00,0.50,-0.30,-144.70,0,1,0,91,100,-7308,3295,16498,3061.50,5,WP,1,0,0,0,0,0,0,1654647859134,4152,4128,4138,4140,0,0,27,,,,,,,0,0,0,-5.00,-3.00,-1447.00,-2.00,0.00,-1563.00,14,18.00,0.00,36.97,0.00,0.00,0.00,0,,,100,100,0,2,0,0,0,1,0,,,,,0.0,0.0,0.0,0.0,0.0,0.0,0
34.182563,-118.129091,1.80,2.00,0.00,3.70,1.90,1.90,1.81,3.70,8657,2022-06-08 00:24:19.234,2022-06-07 17:24:19.234,15,0,0,16.498,34.182596,-118.129088,0.00,0.00,0.00,0.20,-0.40,-137.30,0,1,0,91,100,-7308,3295,16498,3061.50,5,WP,1,0,0,0,0,0,0,1654647859233,4152,4128,4138,4140,0,0,27,,,,,,,0,0,0,-2.00,-4.00,-1373.00,-2.00,0.00,-1480.00,14,18.00,0.00,36.97,0.00,0.00,0.00,0,,,100,100,0,2,0,0,0,1,0,,,,,0.0,0.0,0.0,0.0,0.0,0.0,0
34.182563,-118.129091,1.80,2.00,0.00,3.70,1.90,1.90,1.81,3.70,8757,2022-06-08 00:24:19.334,2022-06-07 17:24:19.334,15,0,0,16.498,34.182596,-118.129088,0.00,0.00,0.00,0.00,-0.40,-129.90,0,1,0,91,100,-7308,3295,16498,3061.50,5,WP,1,0,0,0,0,0,0,1654647859333,4152,4128,4138,4140,0,0,27,,,,,,,0,0,0,-0.00,-4.00,-1299.00,-2.00,0.00,-1401.00,14,18.00,0.00,36.98,0.00,0.00,0.00,0,,,100,100,0,2,0,0,0,1,0,,,,,0.0,0.0,0.0,0.0,0.0,0.0,0
34.182563,-118.129091,1.80,2.00,0.00,3.67,1.90,1.90,1.81,3.70,8858,2022-06-08 00:24:19.434,2022-06-07 17:24:19.434,15,0,0,16.498,34.182596,-118.129088,0.00,0.00,0.00,-0.10,-0.60,-122.40,0,1,0,91,100,-7308,3295,16498,3061.50,5,WP,1,0,0,0,0,0,0,1654647859434,4152,4128,4138,4140,0,0,27,,,,,,,0,0,0,1.00,-6.00,-1224.00,-2.00,0.00,-1323.00,14,18.00,0.00,36.70,0.00,0.00,0.00,0,,,100,100,0,2,0,0,0,1,0,,,,,0.0,0.0,0.0,0.0,0.0,0.0,0
34.182563,-118.129091,1.80,2.00,0.00,3.67,1.90,1.90,1.81,3.70,8958,2022-06-08 00:24:19.534,2022-06-07 17:24:19.534,15,0,0,16.498,34.182596,-118.129088,0.00,0.00,0.00,0.00,-0.70,-115.00,0,1,0,91,100,-7308,3295,16498,3061.50,5,WP,1,0,0,0,0,0,0,1654647859534,4152,4128,4138,4140,0,0,27,,,,,,,0,0,0,-0.00,-7.00,-1150.00,-2.00,0.00,-1247.00,14,18.00,0.00,36.68,0.00,0.00,0.00,0,,,100,100,0,2,0,0,0,1,0,,,,,0.0,0.0,0.0,0.0,0.0,0.0,0
34.182563,-118.129091,1.80,2.00,0.00,3.66,1.90,1.90,1.81,3.70,9078,2022-06-08 00:24:19.654,2022-06-07 17:24:19.654,15,0,0,16.498,34.182596,-118.129088,0.00,0.00,0.00,0.10,-0.70,-107.50,0,1,0,91,100,-7308,3295,16498,3061.50,5,WP,1,0,0,0,0,0,0,1654647859654,4152,4128,4138,4140,0,0,27,,,,,,,0,0,0,-1.00,-7.00,-1075.00,-2.00,0.00,-1171.00,14,18.00,0.00,36.59,0.00,0.00,0.00,0,,,100,100,0,2,0,0,0,1,0,,,,,0.0,0.0,0.0,0.0,0.0,0.0,0
34.182563,-118.129091,1.80,2.00,0.00,3.66,1.90,1.90,1.81,3.70,9157,2022-06-08 00:24:19.734,2022-06-07 17:24:19.734,15,0,0,16.498,34.182596,-118.129088,0.00,0.00,0.00,0.20,-0.80,-100.00,0,1,0,91,100,-7308,3295,16498,3061.50,5,WP,1,0,0,0,0,0,0,1654647859733,4152,4128,4138,4140,0,0,27,,,,,,,0,0,0,-2.00,-8.00,-1000.00,-2.00,0.00,-1095.00,14,18.00,0.00,36.56,0.00,0.00,0.00,0,,,100,100,0,2,0,0,0,1,0,,,,,0.0,0.0,0.0,0.0,0.0,0.0,0
34.182564,-118.129091,1.80,2.00,0.00,3.64,1.90,1.90,1.81,3.70,9257,2022-06-08 00:24:19.833,2022-06-07 17:24:19.834,15,0,0,16.498,34.182596,-118.129088,0.00,0.00,0.00,0.40,-0.70,-92.60,0,1,0,91,100,-7308,3295,16498,3061.50,5,WP,1,0,0,0,0,0,0,1654647859833,4152,4128,4138,4140,0,0,27,,,,,,,0,0,0,-4.00,-7.00,-926.00,-2.00,0.00,-1019.00,14,18.00,0.00,36.39,0.00,0.00,0.00,0,,,100,100,0,2,0,0,0,1,0,,,,,0.0,0.0,0.0,0.0,0.0,0.0,0
34.182564,-118.129091,1.80,2.00,0.00,3.63,1.90,1.90,1.81,3.70,9357,2022-06-08 00:24:19.934,2022-06-07 17:24:19.934,15,0,0,16.498,34.182596,-118.129088,0.00,0.00,0.00,0.50,-0.70,-85.20,0,1,0,91,100,-7308,3295,16498,3061.50,5,WP,1,0,0,0,0,0,0,1654647859933,4152,4128,4138,4140,0,0,27,,,,,,,0,0,0,-5.00,-7.00,-852.00,-2.00,0.00,-943.00,14,18.00,0.00,36.34,0.00,0.00,0.00,0,,,100,100,0,2,0,0,0,1,0,,,,,0.0,0.0,0.0,0.0,0.0,0.0,0
34.182564,-118.129091,1.80,2.00,0.00,3.62,1.90,1.90,1.81,3.70,9458,2022-06-08 00:24:20.034,2022-06-07 17:24:20.034,15,0,0,16.498,34.182596,-118.129088,0.00,0.00,0.00,0.50,-0.80,-77.70,0,1,0,91,100,-7308,3295,16498,3061.50,5,WP,1,0,0,0,0,0,0,1654647860034,4152,4128,4138,4140,0,0,27,,,,,,,0,0,0,-5.00,-8.00,-777.00,-2.00,0.00,-867.00,14,18.00,0.00,36.24,0.00,0.00,0.00,0,,,100,100,0,2,0,0,0,1,0,,,,,0.0,0.0,0.0,0.0,0.0,0.0,0
34.182564,-118.129091,1.80,2.00,0.00,3.62,1.90,1.90,1.81,3.70,9558,2022-06-08 00:24:20.135,2022-06-07 17:24:20.135,15,0,0,16.498,34.182596,-118.129088,0.00,0.00,0.00,0.60,-0.90,-70.20,0,1,0,91,100,-7308,3295,16498,3061.50,5,WP,1,0,0,0,0,0,0,1654647860134,4152,4128,4138,4140,0,0,27,,,,,,,0,0,0,-6.00,-9.00,-702.00,-2.00,0.00,-791.00,14,18.00,0.00,36.17,0.00,0.00,0.00,0,,,100,100,0,2,0,0,0,1,0,,,,,0.0,0.0,0.0,0.0,0.0,0.0,0
34.182564,-118.129091,1.80,2.00,0.00,3.61,1.90,1.90,1.81,3.70,9658,2022-06-08 00:24:20.235,2022-06-07 17:24:20.235,15,0,0,16.461,34.182596,-118.129088,0.00,0.00,0.00,0.80,-0.90,-62.60,0,1,0,91,100,-7806,3291,16461,3071.50,5,WP,1,0,0,0,0,0,0,1654647860234,4152,4128,4138,4140,0,0,27,,,,,,,0,0,0,-8.00,-9.00,-626.00,-2.00,0.00,-716.00,14,18.00,0.00,36.10,0.00,0.00,0.00,0,,,100,100,0,2,0,0,0,1,0,,,,,0.0,0.0,0.0,0.0,0.0,0.0,0
34.182564,-118.129091,1.80,2.00,0.00,3.60,1.90,1.90,1.81,3.70,9759,2022-06-08 00:24:20.336,2022-06-07 17:24:20.336,15,0,0,16.461,34.182596,-118.129088,0.00,0.00,0.00,1.00,-0.90,-55.20,0,1,0,91,100,-7806,3291,16461,3071.50,5,WP,1,0,0,0,0,0,0,1654647860335,4152,4128,4138,4140,0,0,27,,,,,,,0,0,0,-10.00,-9.00,-552.00,-2.00,0.00,-641.00,14,18.00,0.00,36.03,0.00,0.00,0.00,0,,,100,100,0,2,0,0,0,1,0,,,,,0.0,0.0,0.0,0.0,0.0,0.0,0
34.182564,-118.129091,1.80,2.00,0.00,3.60,1.90,1.90,1.81,3.70,9859,2022-06-08 00:24:20.436,2022-06-07 17:24:20.436,15,0,0,16.461,34.182596,-118.129088,0.00,0.00,0.00,1.10,-0.90,-47.70,0,1,0,91,100,-7806,3291,16461,3071.50,5,WP,1,0,0,0,0,0,0,1654647860435,4152,4128,4138,4140,0,0,27,,,,,,,0,0,0,-11.00,-9.00,-477.00,-2.00,0.00,-566.00,14,18.00,0.00,36.00,0.00,0.00,0.00,0,,,100,100,0,2,0,0,0,1,0,,,,,0.0,0.0,0.0,0.0,0.0,0.0,0
34.182564,-118.129091,1.80,2.00,0.00,3.59,1.90,1.90,1.81,3.70,9959,2022-06-08 00:24:20.535,2022-06-07 17:24:20.535,15,0,0,16.461,34.182596,-118.129088,0.00,0.00,0.00,1.10,-0.80,-40.20,0,1,0,91,100,-7806,3291,16461,3071.50,5,WP,1,0,0,0,0,0,0,1654647860535,4152,4128,4138,4140,0,0,27,,,,,,,0,0,0,-11.00,-8.00,-402.00,-2.00,0.00,-490.00,14,18.00,0.00,35.94,0.00,0.00,0.00,0,,,100,100,0,2,0,0,0,1,0,,,,,0.0,0.0,0.0,0.0,0.0,0.0,0
34.182564,-118.129091,1.80,2.00,0.00,3.57,1.90,1.90,1.81,3.70,10059,2022-06-08 00:24:20.636,2022-06-07 17:24:20.636,15,0,0,16.461,34.182596,-118.129088,0.00,0.00,0.00,1.30,-0.50,-32.70,0,1,0,91,100,-7806,3291,16461,3071.50,5,WP,1,0,0,0,0,0,0,1654647860635,4152,4128,4138,4140,0,0,27,,,,,,,0,0,0,-13.00,-5.00,-327.00,-2.00,0.00,-415.00,14,18.00,0.00,35.74,0.00,0.00,0.00,0,,,100,100,0,2,0,0,0,1,0,,,,,0.0,0.0,0.0,0.0,0.0,0.0,0
34.182564,-118.129091,1.80,2.00,0.00,3.57,1.90,1.90,1.81,3.70,10158,2022-06-08 00:24:20.734,2022-06-07 17:24:20.734,15,0,0,16.461,34.182596,-118.129088,0.00,0.00,0.00,1.40,-0.20,-26.30,0,1,0,91,100,-7806,3291,16461,3071.50,5,WP,1,0,0,0,0,0,0,1654647860734,4152,4128,4138,4140,0,0,27,,,,,,,0,0,0,-14.00,-2.00,-263.00,-2.00,0.00,-342.00,14,18.00,0.00,35.67,0.00,0.00,0.00,0,,,100,100,0,2,0,0,0,1,0,,,,,0.0,0.0,0.0,0.0,0.0,0.0,0
34.182564,-118.129091,1.80,2.00,0.00,3.55,1.90,1.90,1.81,3.70,10258,2022-06-08 00:24:20.835,2022-06-07 17:24:20.835,15,0,0,16.461,34.182596,-118.129088,0.00,0.00,0.00,1.50,-0.10,-21.30,0,1,0,91,100,-7806,3291,16461,3071.50,5,WP,1,0,0,0,0,0,0,1654647860834,4152,4128,4138,4140,0,0,27,,,,,,,0,0,0,-15.00,-1.00,-213.00,-2.00,0.00,-278.00,14,18.00,0.00,35.47,0.00,0.00,0.00,0,,,100,100,0,2,0,0,0,1,0,,,,,0.0,0.0,0.0,0.0,0.0,0.0,0
34.182564,-118.129091,1.80,2.00,0.00,3.54,1.90,1.90,1.81,3.70,10359,2022-06-08 00:24:20.936,2022-06-07 17:24:20.936,15,0,0,16.461,34.182596,-118.129088,0.00,0.00,0.00,1.60,-0.20,-17.10,0,1,0,91,100,-7806,3291,16461,3071.50,5,WP,1,0,0,0,0,0,0,1654647860935,4152,4128,4138,4140,0,0,27,,,,,,,0,0,0,-16.00,-2.00,-171.00,-2.00,0.00,-226.00,14,18.00,0.00,35.40,0.00,0.00,0.00,0,,,100,100,0,2,0,0,0,1,0,,,,,0.0,0.0,0.0,0.0,0.0,0.0,0
34.182565,-118.129091,1.80,2.00,0.00,3.54,1.90,1.90,1.81,3.70,10459,2022-06-08 00:24:21.035,2022-06-07 17:24:21.035,15,0,0,16.461,34.182596,-118.129088,0.00,0.00,0.00,1.70,-0.10,-13.80,0,1,0,91,100,-7806,3291,16461,3071.50,5,WP,1,0,0,0,0,0,0,1654647861035,4152,4128,4138,4140,0,0,27,,,,,,,0,0,0,-17.00,-1.00,-138.00,-2.00,0.00,-184.00,14,18.00,0.00,35.35,0.00,0.00,0.00,0,,,100,100,0,2,0,0,0,1,0,,,,,0.0,0.0,0.0,0.0,0.0,0.0,0
34.182565,-118.129091,1.80,2.00,0.00,3.53,1.90,1.90,1.81,3.70,10558,2022-06-08 00:24:21.135,2022-06-07 17:24:21.135,15,0,0,16.461,34.182596,-118.129088,0.00,0.00,0.00,1.70,0.00,-11.10,0,1,0,91,100,-7806,3291,16461,3071.50,5,WP,1,0,0,0,0,0,0,1654647861134,4152,4128,4138,4140,0,0,27,,,,,,,0,0,0,-17.00,0.00,-111.00,-2.00,0.00,-151.00,14,18.00,0.00,35.30,0.00,0.00,0.00,0,,,100,100,0,2,0,0,0,1,0,,,,,0.0,0.0,0.0,0.0,0.0,0.0,0
34.182565,-118.129091,1.80,2.00,0.00,3.52,1.90,1.90,1.81,3.70,10659,2022-06-08 00:24:21.236,2022-06-07 17:24:21.236,15,0,0,16.461,34.182596,-118.129088,0.00,0.00,0.00,1.60,0.00,-8.90,0,1,0,91,100,-7806,3291,16461,3071.50,5,WP,1,0,0,0,0,0,0,1654647861235,4129,4105,4113,4114,0,0,27,,,,,,,0,0,0,-16.00,0.00,-89.00,-2.00,0.00,-125.00,14,18.00,0.00,35.20,0.00,0.00,0.00,0,,,100,100,0,2,0,0,0,1,0,,,,,0.0,0.0,0.0,0.0,0.0,0.0,0
34.182565,-118.129091,1.80,2.00,0.00,3.52,1.90,1.90,1.81,3.70,10759,2022-06-08 00:24:21.336,2022-06-07 17:24:21.336,15,0,0,16.461,34.182596,-118.129088,0.00,0.00,0.00,1.50,0.00,-7.20,0,1,0,91,100,-7806,3291,16461,3071.50,5,WP,1,0,0,0,0,0,0,1654647861335,4129,4105,4113,4114,0,0,27,,,,,,,0,0,0,-15.00,0.00,-72.00,-2.00,0.00,-103.00,14,18.00,0.00,35.17,0.00,0.00,0.00,0,,,100,100,0,2,0,0,0,1,0,,,,,0.0,0.0,0.0,0.0,0.0,0.0,0
34.182565,-118.129091,1.80,2.00,0.00,3.52,1.90,1.90,1.81,3.70,10860,2022-06-08 00:24:21.436,2022-06-07 17:24:21.436,15,0,0,16.461,34.182596,-118.129088,0.00,0.00,0.00,1.30,0.00,-5.80,0,1,0,91,100,-7806,3291,16461,3071.50,5,WP,1,0,0,0,0,0,0,1654647861436,4129,4105,4113,4114,0,0,27,,,,,,,0,0,0,-13.00,0.00,-58.00,-2.00,0.00,-86.00,14,18.00,0.00,35.19,0.00,0.00,0.00,0,,,100,100,0,2,0,0,0,1,0,,,,,0.0,0.0,0.0,0.0,0.0,0.0,0
34.182565,-118.129091,1.80,2.00,0.00,3.52,1.90,1.90,1.81,3.70,10960,2022-06-08 00:24:21.536,2022-06-07 17:24:21.536,15,0,0,16.461,34.182596,-118.129088,0.00,0.00,0.00,1.20,-0.20,-4.60,0,1,0,91,100,-7806,3291,16461,3071.50,5,WP,1,0,0,0,0,0,0,1654647861536,4129,4105,4113,4114,0,0,27,,,,,,,0,0,0,-12.00,-2.00,-46.00,-2.00,0.00,-71.00,14,18.00,0.00,35.17,0.00,0.00,0.00,0,,,100,100,0,2,0,0,0,1,0,,,,,0.0,0.0,0.0,0.0,0.0,0.0,0
34.182565,-118.129091,1.80,2.00,0.00,3.53,1.90,1.90,1.81,3.70,11059,2022-06-08 00:24:21.636,2022-06-07 17:24:21.636,15,0,0,16.461,34.182596,-118.129088,0.00,0.00,0.00,-0.40,-0.80,-2.70,0,1,0,91,100,-7806,3291,16461,3071.50,5,WP,1,0,0,0,0,0,0,1654647861635,4129,4105,4113,4114,0,0,27,,,,,,,0,0,0,4.00,-8.00,-27.00,-2.00,0.00,-59.00,14,18.00,0.00,35.30,0.00,0.00,0.00,0,,,100,100,0,2,0,0,0,1,0,,,,,0.0,0.0,0.0,0.0,0.0,0.0,0
34.182565,-118.129091,1.80,2.00,0.00,3.53,1.90,1.90,1.81,3.70,11159,2022-06-08 00:24:21.736,2022-06-07 17:24:21.736,15,0,0,16.461,34.182596,-118.129088,0.00,0.00,0.00,-0.30,-0.60,-0.40,0,1,0,91,100,-7806,3291,16461,3071.50,5,WP,1,0,0,0,0,0,0,1654647861735,4129,4105,4113,4114,0,0,27,,,,,,,0,0,0,3.00,-6.00,-4.00,-2.00,0.00,-45.00,14,18.00,0.00,35.29,0.00,0.00,0.00,0,,,100,100,0,2,0,0,0,1,0,,,,,0.0,0.0,0.0,0.0,0.0,0.0,0
34.182565,-118.129091,1.80,2.00,0.00,3.51,1.90,1.90,1.81,3.70,11260,2022-06-08 00:24:21.836,2022-06-07 17:24:21.836,15,0,0,16.461,34.182596,-118.129088,0.00,0.00,0.00,0.10,-0.40,1.20,0,1,0,91,100,-7806,3291,16461,3071.50,5,WP,1,0,0,0,0,0,0,1654647861836,4129,4105,4113,4114,0,0,27,,,,,,,0,0,0,-1.00,-4.00,12.00,-2.00,0.00,-24.00,14,18.00,0.00,35.12,0.00,0.00,0.00,0,,,100,100,0,2,0,0,0,1,0,,,,,0.0,0.0,0.0,0.0,0.0,0.0,0
34.182565,-118.129091,1.80,2.00,0.00,3.51,1.90,1.90,1.81,3.70,11359,2022-06-08 00:24:21.935,2022-06-07 17:24:21.935,15,0,0,16.461,34.182596,-118.129088,0.00,0.00,0.00,0.30,-0.10,2.40,0,1,0,91,100,-7806,3291,16461,3071.50,5,WP,1,0,0,0,0,0,0,1654647861935,4129,4105,4113,4114,0,0,27,,,,,,,0,0,0,-3.00,-1.00,24.00,-2.00,0.00,-6.00,14,18.00,0.00,35.06,0.00,0.00,0.00,0,,,100,100,0,2,0,0,0,1,0,,,,,0.0,0.0,0.0,0.0,0.0,0.0,0
34.182565,-118.129091,1.80,2.00,0.00,3.50,1.90,1.90,1.81,3.70,11460,2022-06-08 00:24:22.036,2022-06-07 17:24:22.036,15,0,0,16.461,34.182596,-118.129088,0.00,0.00,0.00,0.50,-0.10,3.30,0,1,0,91,100,-7806,3291,16461,3071.50,5,WP,1,0,0,0,0,0,0,1654647862036,4129,4105,4113,4114,0,0,27,,,,,,,0,0,0,-5.00,-1.00,33.00,-2.00,0.00,5.00,14,18.00,0.00,35.04,0.00,0.00,0.00,0,,,100,100,0,2,0,0,0,1,0,,,,,0.0,0.0,0.0,0.0,0.0,0.0,0
34.182565,-118.129091,1.80,2.00,0.00,3.50,1.90,1.90,1.81,3.70,11559,2022-06-08 00:24:22.136,2022-06-07 17:24:22.136,15,0,0,16.461,34.182596,-118.129088,0.00,0.00,0.00,0.50,-0.20,3.80,0,1,0,91,100,-7806,3291,16461,3071.50,5,WP,1,0,0,0,0,0,0,1654647862135,4129,4105,4113,4114,0,0,27,,,,,,,0,0,0,-5.00,-2.00,38.00,-2.00,0.00,14.00,14,18.00,0.00,34.98,0.00,0.00,0.00,0,,,100,100,0,2,0,0,0,1,0,,,,,0.0,0.0,0.0,0.0,0.0,0.0,0
34.182565,-118.129091,1.80,2.00,0.00,3.48,1.90,1.90,1.81,3.70,11660,2022-06-08 00:24:22.237,2022-06-07 17:24:22.237,15,0,0,16.448,34.182596,-118.129088,0.00,0.00,0.00,0.70,-0.30,4.30,0,1,0,91,100,-7508,3287,16448,3071.50,5,WP,1,0,0,0,0,0,0,1654647862236,4129,4105,4113,4114,0,0,27,,,,,,,0,0,0,-7.00,-3.00,43.00,-2.00,0.00,21.00,14,18.00,0.00,34.84,0.00,0.00,0.00,0,,,100,100,0,2,0,0,0,1,0,,,,,0.0,0.0,0.0,0.0,0.0,0.0,0
34.182565,-118.129090,1.80,2.00,0.00,3.48,1.90,1.90,1.81,3.70,11759,2022-06-08 00:24:22.336,2022-06-07 17:24:22.336,15,0,0,16.448,34.182596,-118.129088,0.00,0.00,0.00,0.80,-0.40,4.60,0,1,0,91,100,-7508,3287,16448,3071.50,5,WP,1,0,0,0,0,0,0,1654647862335,4129,4105,4113,4114,0,0,27,,,,,,,0,0,0,-8.00,-4.00,46.00,-2.00,0.00,25.00,14,18.00,0.00,34.77,0.00,0.00,0.00,0,,,100,100,0,2,0,0,0,1,0,,,,,0.0,0.0,0.0,0.0,0.0,0.0,0
34.182565,-118.129090,1.80,2.00,0.00,3.47,1.90,1.90,1.81,3.70,11861,2022-06-08 00:24:22.437,2022-06-07 17:24:22.437,15,0,0,16.448,34.182596,-118.129088,0.00,0.00,0.00,0.90,-0.50,4.70,0,1,0,91,100,-7508,3287,16448,3071.50,5,WP,1,0,0,0,0,0,0,1654647862437,4129,4105,4113,4114,0,0,27,,,,,,,0,0,0,-9.00,-5.00,47.00,-2.00,0.00,29.00,14,18.00,0.00,34.71,0.00,0.00,0.00,0,,,100,100,0,2,0,0,0,1,0,,,,,0.0,0.0,0.0,0.0,0.0,0.0,0
34.182565,-118.129090,1.80,2.00,0.00,3.46,1.90,1.90,1.81,3.70,11960,2022-06-08 00:24:22.537,2022-06-07 17:24:22.537,15,0,0,16.448,34.182596,-118.129088,0.00,0.00,0.00,1.00,-0.40,4.90,0,1,0,91,100,-7508,3287,16448,3071.50,5,WP,1,0,0,0,0,0,0,1654647862536,4129,4105,4113,4114,0,0,27,,,,,,,0,0,0,-10.00,-4.00,49.00,-2.00,0.00,31.00,14,18.00,0.00,34.65,0.00,0.00,0.00,0,,,100,100,0,2,0,0,0,1,0,,,,,0.0,0.0,0.0,0.0,0.0,0.0,0
34.182565,-118.129090,1.80,2.00,0.00,3.46,1.90,1.90,1.81,3.70,12061,2022-06-08 00:24:22.637,2022-06-07 17:24:22.637,15,0,0,16.448,34.182596,-118.129088,0.00,0.00,0.00,1.10,-0.40,5.00,0,1,0,91,100,-7508,3287,16448,3071.50,5,WP,1,0,0,0,0,0,0,1654647862637,4129,4105,4113,4114,0,0,27,,,,,,,0,0,0,-11.00,-4.00,50.00,-2.00,0.00,34.00,14,18.00,0.00,34.61,0.00,0.00,0.00,0,,,100,100,0,2,0,0,0,1,0,,,,,0.0,0.0,0.0,0.0,0.0,0.0,0
34.182565,-118.129090,1.80,2.00,0.00,3.46,1.90,1.90,1.81,3.70,12160,2022-06-08 00:24:22.736,2022-06-07 17:24:22.736,15,0,0,16.448,34.182596,-118.129088,0.00,0.00,0.00,1.10,-0.50,5.10,0,1,0,91,100,-7508,3287,16448,3071.50,5,WP,1,0,0,0,0,0,0,1654647862736,4129,4105,4113,4114,0,0,27,,,,,,,0,0,0,-11.00,-5.00,51.00,-2.00,0.00,36.00,14,18.00,0.00,34.55,0.00,0.00,0.00,0,,,100,100,0,2,0,0,0,1,0,,,,,0.0,0.0,0.0,0.0,0.0,0.0,0
34.182565,-118.129090,1.80,2.00,0.00,3.45,1.90,1.90,1.81,3.70,12260,2022-06-08 00:24:22.837,2022-06-07 17:24:22.837,15,0,0,16.448,34.182596,-118.129088,0.00,0.00,0.00,1.10,-0.50,5.10,0,1,0,91,100,-7508,3287,16448,3071.50,5,WP,1,0,0,0,0,0,0,1654647862836,4129,4105,4113,4114,0,0,27,,,,,,,0,0,0,-11.00,-5.00,51.00,-2.00,0.00,38.00,14,18.00,0.00,34.52,0.00,0.00,0.00,0,,,100,100,0,2,0,0,0,1,0,,,,,0.0,0.0,0.0,0.0,0.0,0.0,0
34.182565,-118.129090,1.80,2.00,0.00,3.45,1.90,1.90,1.81,3.70,12360,2022-06-08 00:24:22.936,2022-06-07 17:24:22.936,15,0,0,16.448,34.182596,-118.129088,0.00,0.00,0.00,1.00,-0.30,5.10,0,1,0,91,100,-7508,3287,16448,3071.50,5,WP,1,0,0,0,0,0,0,1654647862936,4129,4105,4113,4114,0,0,27,,,,,,,0,0,0,-10.00,-3.00,51.00,-2.00,0.00,39.00,14,18.00,0.00,34.48,0.00,0.00,0.00,0,,,100,100,0,2,0,0,0,1,0,,,,,0.0,0.0,0.0,0.0,0.0,0.0,0
34.182565,-118.129090,1.80,2.00,0.00,3.44,1.90,1.90,1.81,3.70,12463,2022-06-08 00:24:23.039,2022-06-07 17:24:23.039,15,0,0,16.448,34.182596,-118.129088,0.00,0.00,0.00,0.90,-0.20,5.10,0,1,0,91,100,-7508,3287,16448,3071.50,5,WP,1,0,0,0,0,0,0,1654647863039,4129,4105,4113,4114,0,0,27,,,,,,,0,0,0,-9.00,-2.00,51.00,-2.00,0.00,40.00,14,18.00,0.00,34.45,0.00,0.00,0.00,0,,,100,100,0,2,0,0,0,1,0,,,,,0.0,0.0,0.0,0.0,0.0,0.0,0
34.182565,-118.129090,1.80,2.00,0.00,3.44,1.90,1.90,1.81,3.70,12562,2022-06-08 00:24:23.138,2022-06-07 17:24:23.138,15,0,0,16.448,34.182596,-118.129088,0.00,0.00,0.00,0.80,-0.30,5.10,0,1,0,91,100,-7508,3287,16448,3071.50,5,WP,1,0,0,0,0,0,0,1654647863138,4129,4105,4113,4114,0,0,27,,,,,,,0,0,0,-8.00,-3.00,51.00,-2.00,0.00,41.00,14,18.00,0.00,34.41,0.00,0.00,0.00,0,,,100,100,0,2,0,0,0,1,0,,,,,0.0,0.0,0.0,0.0,0.0,0.0,0
34.182565,-118.129090,1.80,2.00,0.00,3.45,1.90,1.90,1.81,3.70,12660,2022-06-08 00:24:23.237,2022-06-07 17:24:23.237,15,0,0,16.448,34.182596,-118.129088,0.00,0.00,0.00,0.80,-0.40,5.10,0,1,0,91,100,-7508,3287,16448,3071.50,5,WP,1,0,0,0,0,0,0,1654647863236,4129,4105,4113,4114,0,0,27,,,,,,,0,0,0,-8.00,-4.00,51.00,-2.00,0.00,42.00,14,18.00,0.00,34.51,0.00,0.00,0.00,0,,,100,100,0,2,0,0,0,1,0,,,,,0.0,0.0,0.0,0.0,0.0,0.0,0
34.182565,-118.129090,1.80,2.00,0.00,3.45,1.90,1.90,1.81,3.70,12760,2022-06-08 00:24:23.337,2022-06-07 17:24:23.337,15,0,0,16.448,34.182596,-118.129088,0.00,0.00,0.00,0.90,-0.50,5.00,0,1,0,91,100,-7508,3287,16448,3071.50,5,WP,1,0,0,0,0,0,0,1654647863336,4129,4105,4113,4114,0,0,27,,,,,,,0,0,0,-9.00,-5.00,50.00,-2.00,0.00,42.00,14,18.00,0.00,34.49,0.00,0.00,0.00,0,,,100,100,0,2,0,0,0,1,0,,,,,0.0,0.0,0.0,0.0,0.0,0.0,0
34.182565,-118.129090,1.80,2.00,0.00,3.44,1.90,1.90,1.81,3.70,12862,2022-06-08 00:24:23.439,2022-06-07 17:24:23.439,15,0,0,16.448,34.182596,-118.129088,0.00,0.00,0.00,0.90,-0.60,5.00,0,1,0,91,100,-7508,3287,16448,3071.50,5,WP,1,0,0,0,0,0,0,1654647863438,4129,4105,4113,4114,0,0,27,,,,,,,0,0,0,-9.00,-6.00,50.00,-2.00,0.00,43.00,14,18.00,0.00,34.38,0.00,0.00,0.00,0,,,100,100,0,2,0,0,0,1,0,,,,,0.0,0.0,0.0,0.0,0.0,0.0,0
34.182565,-118.129090,1.80,2.00,0.00,3.43,1.90,1.90,1.81,3.70,12961,2022-06-08 00:24:23.537,2022-06-07 17:24:23.537,15,0,0,16.448,34.182596,-118.129088,0.00,0.00,0.00,1.00,-0.50,4.90,0,1,0,91,100,-7508,3287,16448,3071.50,5,WP,1,0,0,0,0,0,0,1654647863537,4129,4105,4113,4114,0,0,27,,,,,,,0,0,0,-10.00,-5.00,49.00,-2.00,0.00,43.00,14,18.00,0.00,34.35,0.00,0.00,0.00,0,,,100,100,0,2,0,0,0,1,0,,,,,0.0,0.0,0.0,0.0,0.0,0.0,0
34.182565,-118.129090,1.80,2.00,0.00,3.43,1.90,1.90,1.81,3.70,13060,2022-06-08 00:24:23.637,2022-06-07 17:24:23.637,15,0,0,16.448,34.182596,-118.129088,0.00,0.00,0.00,0.90,-0.30,4.90,0,1,0,91,100,-7508,3287,16448,3071.50,5,WP,1,0,0,0,0,0,0,1654647863636,4129,4105,4113,4114,0,0,27,,,,,,,0,0,0,-9.00,-3.00,49.00,-2.00,0.00,44.00,14,18.00,0.00,34.25,0.00,0.00,0.00,0,,,100,100,0,2,0,0,0,1,0,,,,,0.0,0.0,0.0,0.0,0.0,0.0,0
34.182565,-118.129091,1.80,2.00,0.00,3.42,1.90,1.90,1.81,3.70,13161,2022-06-08 00:24:23.737,2022-06-07 17:24:23.737,15,0,0,16.448,34.182596,-118.129088,0.00,0.00,0.00,0.90,-0.10,4.80,0,1,0,91,100,-7508,3287,16448,3071.50,5,WP,1,0,0,0,0,0,0,1654647863737,4129,4105,4113,4114,0,0,27,,,,,,,0,0,0,-9.00,-1.00,48.00,-2.00,0.00,44.00,14,18.00,0.00,34.21,0.00,0.00,0.00,0,,,100,100,0,2,0,0,0,1,0,,,,,0.0,0.0,0.0,0.0,0.0,0.0,0
34.182565,-118.129091,1.80,2.00,0.00,3.43,1.90,1.90,1.81,3.70,13262,2022-06-08 00:24:23.838,2022-06-07 17:24:23.838,15,0,0,16.448,34.182596,-118.129088,0.00,0.00,0.00,0.90,0.00,4.80,0,1,0,91,100,-7508,3287,16448,3071.50,5,WP,1,0,0,0,0,0,0,1654647863838,4129,4105,4113,4114,0,0,27,,,,,,,0,0,0,-9.00,0.00,48.00,-2.00,0.00,44.00,14,18.00,0.00,34.29,0.00,0.00,0.00,0,,,100,100,0,2,0,0,0,1,0,,,,,0.0,0.0,0.0,0.0,0.0,0.0,0
34.182565,-118.129091,1.80,2.00,0.00,3.43,1.90,1.90,1.81,3.70,13362,2022-06-08 00:24:23.939,2022-06-07 17:24:23.939,15,0,0,16.448,34.182596,-118.129088,0.00,0.00,0.00,1.00,0.10,4.80,0,1,0,91,100,-7508,3287,16448,3071.50,5,WP,1,0,0,0,0,0,0,1654647863938,4129,4105,4113,4114,0,0,27,,,,,,,0,0,0,-10.00,1.00,48.00,-2.00,0.00,44.00,14,18.00,0.00,34.27,0.00,0.00,0.00,0,,,100,100,0,2,0,0,0,1,0,,,,,0.0,0.0,0.0,0.0,0.0,0.0,0
34.182565,-118.129091,1.80,2.00,0.00,3.43,1.90,1.90,1.81,3.70,13462,2022-06-08 00:24:24.039,2022-06-07 17:24:24.039,15,0,0,16.448,34.182596,-118.129088,0.00,0.00,0.00,1.00,0.10,4.70,0,1,0,91,100,-7508,3287,16448,3071.50,5,WP,1,0,0,0,0,0,0,1654647864038,4129,4105,4113,4114,0,0,27,,,,,,,0,0,0,-10.00,1.00,47.00,-2.00,0.00,44.00,14,18.00,0.00,34.33,0.00,0.00,0.00,0,,,100,100,0,2,0,0,0,1,0,,,,,0.0,0.0,0.0,0.0,0.0,0.0,0
34.182565,-118.129091,1.80,2.00,0.00,3.43,1.90,1.90,1.81,3.70,13561,2022-06-08 00:24:24.137,2022-06-07 17:24:24.137,15,0,0,16.448,34.182596,-118.129088,0.00,0.00,0.00,1.00,0.20,4.70,0,1,0,91,100,-7508,3287,16448,3071.50,5,WP,1,0,0,0,0,0,0,1654647864137,4129,4105,4113,4114,0,0,27,,,,,,,0,0,0,-10.00,2.00,47.00,-2.00,0.00,44.00,14,18.00,0.00,34.31,0.00,0.00,0.00,0,,,100,100,0,2,0,0,0,1,0,,,,,0.0,0.0,0.0,0.0,0.0,0.0,0
