latitude,longitude,altitude(feet),ultrasonicHeight(feet),speed(mph),distance(feet),max_altitude(feet),max_ascent(feet),max_speed(mph),max_distance(feet),time(millisecond),datetime(utc),datetime(local),satellites,pressure(Pa),temperature(F),voltage(v),home_latitude,home_longitude,velocityX(mph),velocityY(mph),velocityZ(mph),pitch(deg),roll(deg),yaw(deg),powerlevel,isflying,istakingphoto,remainPowerPercent,remainLifePercent,currentCurrent,currentElectricity,currentVoltage,batteryTemperature,dischargeCount,flightmode,isMotorsOn,isTakingVideo,Rc_elevator,Rc_aileron,Rc_throttle,Rc_rudder,Rc_gyro,timestamp,Battery_Cell1,Battery_Cell2,Battery_Cell3,Battery_Cell4,Battery_Cell5,Battery_Cell6,Dronetype,AppVersion,Planename,FlyControllerSerialNumber,RemoteSerialNumber,BatterySerialNumber,CENTER_BATTERY.productDate,CENTER_BATTERY.serialNo,CENTER_BATTERY.fullCapacity,CENTER_BATTERY.productDateRaw,pitchRaw,rollRaw,yawRaw,gimbalPitchRaw,gimbalRollRaw,gimbalYawRaw,flyState,altitudeRaw,speedRaw,distanceRaw,velocityXRaw,velocityYRaw,velocityZRaw,data_reuse,App_Tip,App_Warning,downlinkSignalQuality,uplinkSignalQuality,transmissionChannel,rcModeSwitch,rcHome,rcPause,rcTransform,rcJoystickMode,appMode,FlyControllerSerialNumber_legacy,RemoteSerialNumber_legacy,BatterySerialNumber_legacy,Battery2SerialNumber,frontAvoidDist,backAvoidDist,rightAvoidDist,leftAvoidDist,upAvoidDist,downAvoidDist,isBrakingToAvoid
34.182609,-118.129086,0.98,1.31,0.89,0.32,0.98,0.98,0.89,0.32,3,2022-06-07 23:40:24.059,2022-06-07 16:40:24.060,14,0,0,16.750,34.182609,-118.129085,0.00,0.00,-0.89,1.70,-1.20,-2.40,0,1,0,88,100,-4941,3081,16750,3101.50,10,TakeOff,1,0,0,0,0,0,0,1654645224059,4235,4237,4236,4224,0,0,27,Litchi_iOS_2.14.0,Brian-MAVIC 2,163DFCK001S13F,1DUCFB800104PR,0P2AFBV5340045,,0,3507,0,-17.00,-12.00,-24.00,0.00,0.00,-75.00,11,3.00,4.00,0.98,0.00,0.00,-4.00,0,,,100,100,0,2,0,0,0,1,0,(null),(null),(null),(null),0.0,0.0,0.0,0.0,0.0,0.0,0
34.182609,-118.129085,1.31,1.31,0.89,0.33,1.31,1.31,0.89,0.33,111,2022-06-07 23:40:24.168,2022-06-07 16:40:24.168,14,0,0,16.750,34.182609,-118.129085,0.00,0.00,-0.89,1.60,-1.20,-2.40,0,1,0,88,100,-4941,3081,16750,3101.50,10,TakeOff,1,0,0,0,0,0,0,1654645224167,4235,4237,4236,4224,0,0,27,,,,,,,0,0,0,-16.00,-12.00,-24.00,0.00,0.00,-75.00,11,4.00,4.00,1.02,0.00,0.00,-4.00,0,,,100,100,0,2,0,0,0,1,0,,,,,0.0,0.0,0.0,0.0,0.0,0.0,0
34.182610,-118.129085,1.31,1.64,0.89,0.47,1.31,1.31,0.89,0.47,211,2022-06-07 23:40:24.267,2022-06-07 16:40:24.267,14,0,0,16.750,34.182609,-118.129085,0.00,0.00,-0.89,1.80,-1.20,-2.40,0,1,0,88,100,-4941,3081,16750,3101.50,10,TakeOff,1,0,0,0,0,0,0,1654645224267,4235,4237,4236,4224,0,0,27,,,,,,,0,0,0,-18.00,-12.00,-24.00,0.00,0.00,-75.00,11,4.00,4.00,1.43,0.00,0.00,-4.00,0,,,100,100,0,2,0,0,0,1,0,,,,,0.0,0.0,0.0,0.0,0.0,0.0,0
34.182610,-118.129085,1.64,1.64,0.89,0.49,1.64,1.64,0.89,0.49,311,2022-06-07 23:40:24.367,2022-06-07 16:40:24.367,14,0,0,16.750,34.182609,-118.129085,0.00,0.00,-0.89,1.60,-1.40,-2.40,0,1,0,88,100,-4941,3081,16750,3101.50,10,TakeOff,1,0,0,0,0,0,0,1654645224367,4235,4237,4236,4224,0,0,27,,,,,,,0,0,0,-16.00,-14.00,-24.00,0.00,0.00,-75.00,11,5.00,4.00,1.49,0.00,0.00,-4.00,0,,,100,100,0,2,0,0,0,1,0,,,,,0.0,0.0,0.0,0.0,0.0,0.0,0
34.182610,-118.129085,1.64,1.97,1.12,0.48,1.64,1.64,1.12,0.49,411,2022-06-07 23:40:24.468,2022-06-07 16:40:24.468,14,0,0,16.750,34.182609,-118.129085,0.00,0.00,-1.12,1.30,-1.80,-2.40,0,1,0,88,100,-4941,3081,16750,3101.50,10,TakeOff,1,0,0,0,0,0,0,1654645224467,4235,4237,4236,4224,0,0,27,,,,,,,0,0,0,-13.00,-18.00,-24.00,0.00,0.00,-75.00,11,5.00,5.00,1.47,0.00,0.00,-5.00,0,,,100,100,0,2,0,0,0,1,0,,,,,0.0,0.0,0.0,0.0,0.0,0.0,0
34.182610,-118.129085,1.97,1.97,1.12,0.50,1.97,1.97,1.12,0.50,512,2022-06-07 23:40:24.568,2022-06-07 16:40:24.568,14,0,0,16.750,34.182609,-118.129085,0.00,0.00,-1.12,1.50,-1.90,-2.50,0,1,0,88,100,-4941,3081,16750,3101.50,10,TakeOff,1,0,0,0,0,0,0,1654645224568,4235,4237,4236,4224,0,0,27,,,,,,,0,0,0,-15.00,-19.00,-25.00,0.00,0.00,-75.00,11,6.00,5.00,1.53,0.00,0.00,-5.00,0,,,100,100,0,2,0,0,0,1,0,,,,,0.0,0.0,0.0,0.0,0.0,0.0,0
34.182610,-118.129085,1.97,2.30,1.12,0.51,1.97,1.97,1.12,0.51,612,2022-06-07 23:40:24.668,2022-06-07 16:40:24.668,14,0,0,16.750,34.182609,-118.129085,0.00,0.00,-1.12,1.90,-1.50,-2.50,0,1,0,88,100,-4941,3081,16750,3101.50,10,TakeOff,1,0,0,0,0,0,0,1654645224668,4235,4237,4236,4224,0,0,27,,,,,,,0,0,0,-19.00,-15.00,-25.00,0.00,0.00,-75.00,11,6.00,5.00,1.55,0.00,0.00,-5.00,0,,,100,100,0,2,0,0,0,1,0,,,,,0.0,0.0,0.0,0.0,0.0,0.0,0
34.182610,-118.129085,2.30,2.30,1.12,0.53,2.30,2.30,1.12,0.53,712,2022-06-07 23:40:24.768,2022-06-07 16:40:24.768,14,0,0,16.566,34.182609,-118.129085,0.00,0.00,-1.12,2.50,-1.00,-2.50,0,1,0,88,100,-7675,3078,16566,3101.50,10,TakeOff,1,0,0,0,0,0,0,1654645224768,4235,4237,4236,4224,0,0,27,,,,,,,0,0,0,-25.00,-10.00,-25.00,0.00,0.00,-75.00,11,7.00,5.00,1.60,0.00,0.00,-5.00,0,,,100,100,0,2,0,0,0,1,0,,,,,0.0,0.0,0.0,0.0,0.0,0.0,0
34.182610,-118.129085,2.30,2.62,1.12,0.60,2.30,2.30,1.12,0.60,812,2022-06-07 23:40:24.868,2022-06-07 16:40:24.868,14,0,0,16.566,34.182609,-118.129085,0.00,0.00,-1.12,2.30,-0.80,-2.50,0,1,0,88,100,-7675,3078,16566,3101.50,10,TakeOff,1,0,0,0,0,0,0,1654645224868,4235,4237,4236,4224,0,0,27,,,,,,,0,0,0,-23.00,-8.00,-25.00,0.00,0.00,-75.00,11,7.00,5.00,1.82,0.00,0.00,-5.00,0,,,100,100,0,2,0,0,0,1,0,,,,,0.0,0.0,0.0,0.0,0.0,0.0,0
34.182610,-118.129085,2.62,2.95,1.12,0.61,2.62,2.62,1.12,0.61,912,2022-06-07 23:40:24.968,2022-06-07 16:40:24.968,14,0,0,16.566,34.182609,-118.129085,0.00,0.00,-1.12,1.90,-1.10,-2.50,0,1,0,88,100,-7675,3078,16566,3101.50,10,TakeOff,1,0,0,0,0,0,0,1654645224968,4235,4237,4236,4224,0,0,27,,,,,,,0,0,0,-19.00,-11.00,-25.00,0.00,0.00,-75.00,11,8.00,5.00,1.85,0.00,0.00,-5.00,0,,,100,100,0,2,0,0,0,1,0,,,,,0.0,0.0,0.0,0.0,0.0,0.0,0
34.182610,-118.129085,2.62,2.95,1.12,0.60,2.62,2.62,1.12,0.61,1012,2022-06-07 23:40:25.068,2022-06-07 16:40:25.068,14,0,0,16.566,34.182609,-118.129085,0.00,0.00,-1.12,1.90,-1.20,-2.50,0,1,0,88,100,-7675,3078,16566,3101.50,10,TakeOff,1,0,0,0,0,0,0,1654645225068,4235,4237,4236,4224,0,0,27,,,,,,,0,0,0,-19.00,-12.00,-25.00,0.00,0.00,-75.00,11,8.00,5.00,1.84,0.00,0.00,-5.00,0,,,100,100,0,2,0,0,0,1,0,,,,,0.0,0.0,0.0,0.0,0.0,0.0,0
34.182610,-118.129085,2.95,3.28,1.12,0.60,2.95,2.95,1.12,0.61,1112,2022-06-07 23:40:25.168,2022-06-07 16:40:25.168,14,0,0,16.566,34.182609,-118.129085,0.00,0.00,-1.12,1.80,-0.80,-2.60,0,1,0,88,100,-7675,3078,16566,3101.50,10,TakeOff,1,0,0,0,0,0,0,1654645225168,4235,4237,4236,4224,0,0,27,,,,,,,0,0,0,-18.00,-8.00,-26.00,0.00,0.00,-75.00,11,9.00,5.00,1.84,0.00,0.00,-5.00,0,,,100,100,0,2,0,0,0,1,0,,,,,0.0,0.0,0.0,0.0,0.0,0.0,0
34.182610,-118.129085,2.95,3.28,0.89,0.60,2.95,2.95,1.12,0.61,1215,2022-06-07 23:40:25.272,2022-06-07 16:40:25.272,14,0,0,16.566,34.182609,-118.129085,0.00,0.00,-0.89,1.40,-0.70,-2.50,0,1,0,88,100,-7675,3078,16566,3101.50,10,TakeOff,1,0,0,0,0,0,0,1654645225271,4235,4237,4236,4224,0,0,27,,,,,,,0,0,0,-14.00,-7.00,-25.00,0.00,0.00,-75.00,11,9.00,4.00,1.83,0.00,0.00,-4.00,0,,,100,100,0,2,0,0,0,1,0,,,,,0.0,0.0,0.0,0.0,0.0,0.0,0
34.182610,-118.129085,3.28,3.61,1.12,0.60,3.28,3.28,1.12,0.61,1311,2022-06-07 23:40:25.368,2022-06-07 16:40:25.368,14,0,0,16.566,34.182609,-118.129085,0.00,0.00,-1.12,1.20,-0.70,-2.50,0,1,0,88,100,-7675,3078,16566,3101.50,10,TakeOff,1,0,0,0,0,0,0,1654645225367,4235,4237,4236,4224,0,0,27,,,,,,,0,0,0,-12.00,-7.00,-25.00,0.00,0.00,-75.00,11,10.00,5.00,1.82,0.00,0.00,-5.00,0,,,100,100,0,2,0,0,0,1,0,,,,,0.0,0.0,0.0,0.0,0.0,0.0,0
34.182610,-118.129085,3.28,3.61,0.89,0.63,3.28,3.28,1.12,0.63,1412,2022-06-07 23:40:25.468,2022-06-07 16:40:25.468,14,0,0,16.566,34.182609,-118.129085,0.00,0.00,-0.89,0.20,-0.20,-2.60,0,1,0,88,100,-7675,3078,16566,3101.50,10,WP,1,0,0,0,0,0,0,1654645225468,4235,4237,4236,4224,0,0,27,,,,,,,0,0,0,-2.00,-2.00,-26.00,0.00,0.00,-75.00,14,10.00,4.00,1.91,0.00,0.00,-4.00,0,,,100,100,0,2,0,0,0,1,0,,,,,0.0,0.0,0.0,0.0,0.0,0.0,0
34.182610,-118.129085,3.61,3.94,0.89,0.63,3.61,3.61,1.12,0.63,1512,2022-06-07 23:40:25.569,2022-06-07 16:40:25.569,14,0,0,16.566,34.182609,-118.129085,0.00,0.00,-0.89,0.10,-0.40,-2.60,0,1,0,88,100,-7675,3078,16566,3101.50,10,WP,1,0,0,0,0,0,0,1654645225568,4235,4237,4236,4224,0,0,27,,,,,,,0,0,0,-1.00,-4.00,-26.00,0.00,0.00,-75.00,14,11.00,4.00,1.93,0.00,0.00,-4.00,0,,,100,100,0,2,0,0,0,1,0,,,,,0.0,0.0,0.0,0.0,0.0,0.0,0
34.182610,-118.129085,3.61,3.94,0.89,0.69,3.61,3.61,1.12,0.69,1615,2022-06-07 23:40:25.671,2022-06-07 16:40:25.671,14,0,0,16.566,34.182609,-118.129085,0.00,0.00,-0.89,0.60,-0.80,-2.60,0,1,0,88,100,-7675,3078,16566,3101.50,10,WP,1,0,0,0,0,0,0,1654645225671,4235,4237,4236,4224,0,0,27,,,,,,,0,0,0,-6.00,-8.00,-26.00,0.00,0.00,-75.00,14,11.00,4.00,2.12,0.00,0.00,-4.00,0,,,100,100,0,2,0,0,0,1,0,,,,,0.0,0.0,0.0,0.0,0.0,0.0,0
34.182611,-118.129085,3.94,4.27,0.89,0.72,3.94,3.94,1.12,0.72,1713,2022-06-07 23:40:25.769,2022-06-07 16:40:25.769,14,0,0,16.566,34.182609,-118.129085,0.00,0.00,-0.89,1.30,-1.30,-2.70,0,1,0,88,100,-7675,3078,16566,3101.50,10,WP,1,0,0,0,0,0,0,1654645225769,4235,4237,4236,4224,0,0,27,,,,,,,0,0,0,-13.00,-13.00,-27.00,0.00,0.00,-75.00,14,12.00,4.00,2.18,0.00,0.00,-4.00,0,,,100,100,0,2,0,0,0,1,0,,,,,0.0,0.0,0.0,0.0,0.0,0.0,0
34.182610,-118.129085,3.94,4.27,0.89,0.67,3.94,3.94,1.12,0.72,1812,2022-06-07 23:40:25.869,2022-06-07 16:40:25.869,14,0,0,16.566,34.182609,-118.129085,0.00,0.00,-0.89,1.40,-1.30,-2.80,0,1,0,88,100,-7675,3078,16566,3101.50,10,WP,1,0,0,0,0,0,0,1654645225868,4235,4237,4236,4224,0,0,27,,,,,,,0,0,0,-14.00,-13.00,-28.00,0.00,0.00,-75.00,14,12.00,4.00,2.03,0.00,0.00,-4.00,0,,,100,100,0,2,0,0,0,1,0,,,,,0.0,0.0,0.0,0.0,0.0,0.0,0
34.182610,-118.129085,4.27,4.59,0.89,0.68,4.27,4.27,1.12,0.72,1912,2022-06-07 23:40:25.969,2022-06-07 16:40:25.969,14,0,0,16.566,34.182609,-118.129085,0.00,0.00,-0.89,1.40,-1.40,-2.80,0,1,0,88,100,-7675,3078,16566,3101.50,10,WP,1,0,0,0,0,0,0,1654645225968,4235,4237,4236,4224,0,0,27,,,,,,,0,0,0,-14.00,-14.00,-28.00,0.00,0.00,-75.00,14,13.00,4.00,2.08,0.00,0.00,-4.00,0,,,100,100,0,2,0,0,0,1,0,,,,,0.0,0.0,0.0,0.0,0.0,0.0,0
34.182610,-118.129085,4.27,4.59,0.89,0.62,4.27,4.27,1.12,0.72,2012,2022-06-07 23:40:26.069,2022-06-07 16:40:26.069,14,0,0,16.566,34.182609,-118.129085,0.00,0.00,-0.89,1.00,-1.60,-2.70,0,1,0,88,100,-7675,3078,16566,3101.50,10,WP,1,0,0,0,0,0,0,1654645226068,4235,4237,4236,4224,0,0,27,,,,,,,0,0,0,-10.00,-16.00,-27.00,0.00,0.00,-75.00,14,13.00,4.00,1.89,0.00,0.00,-4.00,0,,,100,100,0,2,0,0,0,1,0,,,,,0.0,0.0,0.0,0.0,0.0,0.0,0
34.182610,-118.129085,4.59,4.92,0.89,0.63,4.59,4.59,1.12,0.72,2112,2022-06-07 23:40:26.169,2022-06-07 16:40:26.169,14,0,0,16.566,34.182609,-118.129085,0.00,0.00,-0.89,0.90,-1.70,-2.70,0,1,0,88,100,-7675,3078,16566,3101.50,10,WP,1,0,0,0,0,0,0,1654645226168,4235,4237,4236,4224,0,0,27,,,,,,,0,0,0,-9.00,-17.00,-27.00,0.00,0.00,-75.00,14,14.00,4.00,1.93,0.00,0.00,-4.00,0,,,100,100,0,2,0,0,0,1,0,,,,,0.0,0.0,0.0,0.0,0.0,0.0,0
34.182611,-118.129085,4.59,4.92,0.89,0.74,4.59,4.59,1.12,0.74,2214,2022-06-07 23:40:26.270,2022-06-07 16:40:26.270,14,0,0,16.566,34.182609,-118.129085,0.00,0.00,-0.89,1.60,-2.20,-2.70,0,1,0,88,100,-7675,3078,16566,3101.50,10,WP,1,0,0,0,0,0,0,1654645226270,4235,4237,4236,4224,0,0,27,,,,,,,0,0,0,-16.00,-22.00,-27.00,0.00,0.00,-75.00,14,14.00,4.00,2.26,0.00,0.00,-4.00,0,,,100,100,0,2,0,0,0,1,0,,,,,0.0,0.0,0.0,0.0,0.0,0.0,0
34.182611,-118.129085,4.92,5.25,0.89,0.77,4.92,4.92,1.12,0.77,2313,2022-06-07 23:40:26.369,2022-06-07 16:40:26.369,14,0,0,16.566,34.182609,-118.129085,0.00,0.00,-0.89,2.10,-2.40,-2.80,0,1,0,88,100,-7675,3078,16566,3101.50,10,WP,1,0,0,0,0,0,0,1654645226369,4235,4237,4236,4224,0,0,27,,,,,,,0,0,0,-21.00,-24.00,-28.00,0.00,0.00,-75.00,14,15.00,4.00,2.33,0.00,0.00,-4.00,0,,,100,100,0,2,0,0,0,1,0,,,,,0.0,0.0,0.0,0.0,0.0,0.0,0
34.182611,-118.129085,4.92,5.25,0.89,0.78,4.92,4.92,1.12,0.78,2414,2022-06-07 23:40:26.471,2022-06-07 16:40:26.471,14,0,0,16.566,34.182609,-118.129085,0.00,0.00,-0.89,2.30,-1.90,-2.90,0,1,0,88,100,-7675,3078,16566,3101.50,10,WP,1,0,0,0,0,0,0,1654645226470,4235,4237,4236,4224,0,0,27,,,,,,,0,0,0,-23.00,-19.00,-29.00,0.00,0.00,-75.00,14,15.00,4.00,2.39,0.00,0.00,-4.00,0,,,100,100,0,2,0,0,0,1,0,,,,,0.0,0.0,0.0,0.0,0.0,0.0,0
34.182611,-118.129085,5.25,5.58,0.89,0.80,5.25,5.25,1.12,0.80,2512,2022-06-07 23:40:26.569,2022-06-07 16:40:26.569,14,0,0,16.566,34.182609,-118.129085,0.00,0.00,-0.89,2.30,-1.80,-2.80,0,1,0,88,100,-7675,3078,16566,3101.50,10,WP,1,0,0,0,0,0,0,1654645226568,4235,4237,4236,4224,0,0,27,,,,,,,0,0,0,-23.00,-18.00,-28.00,0.00,0.00,-75.00,14,16.00,4.00,2.44,0.00,0.00,-4.00,0,,,100,100,0,2,0,0,0,1,0,,,,,0.0,0.0,0.0,0.0,0.0,0.0,0
34.182611,-118.129085,5.25,5.58,0.67,0.81,5.25,5.25,1.12,0.81,2613,2022-06-07 23:40:26.669,2022-06-07 16:40:26.669,14,0,0,16.566,34.182609,-118.129085,0.00,0.00,-0.67,2.30,-1.50,-2.80,0,1,0,88,100,-7675,3078,16566,3101.50,10,WP,1,0,0,0,0,0,0,1654645226669,4235,4237,4236,4224,0,0,27,,,,,,,0,0,0,-23.00,-15.00,-28.00,0.00,0.00,-75.00,14,16.00,3.00,2.48,0.00,0.00,-3.00,0,,,100,100,0,2,0,0,0,1,0,,,,,0.0,0.0,0.0,0.0,0.0,0.0,0
34.182611,-118.129085,5.58,5.58,0.89,0.82,5.58,5.58,1.12,0.82,2714,2022-06-07 23:40:26.771,2022-06-07 16:40:26.771,14,0,0,16.566,34.182609,-118.129085,0.00,0.00,-0.89,2.20,-1.80,-2.80,0,1,0,88,100,-7675,3078,16566,3101.50,10,WP,1,0,0,0,0,0,0,1654645226770,4235,4237,4236,4224,0,0,27,,,,,,,0,0,0,-22.00,-18.00,-28.00,0.00,0.00,-75.00,14,17.00,4.00,2.50,0.00,0.00,-4.00,0,,,100,100,0,2,0,0,0,1,0,,,,,0.0,0.0,0.0,0.0,0.0,0.0,0
34.182611,-118.129085,5.58,5.91,0.89,0.78,5.58,5.58,1.12,0.82,2814,2022-06-07 23:40:26.871,2022-06-07 16:40:26.871,14,0,0,16.549,34.182609,-118.129085,0.00,0.00,-0.89,1.60,-2.60,-2.70,0,1,0,88,100,-7458,3074,16549,3101.50,10,WP,1,0,0,0,0,0,0,1654645226870,4235,4237,4236,4224,0,0,27,,,,,,,0,0,0,-16.00,-26.00,-27.00,0.00,0.00,-75.00,14,17.00,4.00,2.38,0.00,0.00,-4.00,0,,,100,100,0,2,0,0,0,1,0,,,,,0.0,0.0,0.0,0.0,0.0,0.0,0
34.182611,-118.129084,5.58,5.91,0.67,0.78,5.58,5.58,1.12,0.82,2916,2022-06-07 23:40:26.972,2022-06-07 16:40:26.972,14,0,0,16.549,34.182609,-118.129085,0.00,0.00,-0.67,0.40,-1.20,-3.00,0,1,0,88,100,-7458,3074,16549,3101.50,10,WP,1,0,0,0,0,0,0,1654645226972,4235,4237,4236,4224,0,0,27,,,,,,,0,0,0,-4.00,-12.00,-30.00,0.00,0.00,-75.00,14,17.00,3.00,2.37,0.00,0.00,-3.00,0,,,100,100,0,2,0,0,0,1,0,,,,,0.0,0.0,0.0,0.0,0.0,0.0,0
34.182611,-118.129084,5.91,5.91,0.45,0.81,5.91,5.91,1.12,0.82,3014,2022-06-07 23:40:27.071,2022-06-07 16:40:27.071,14,0,0,16.549,34.182609,-118.129085,0.00,0.00,-0.45,0.30,-1.50,-3.80,0,1,0,88,100,-7458,3074,16549,3101.50,10,WP,1,0,0,0,0,0,0,1654645227070,4235,4237,4236,4224,0,0,27,,,,,,,0,0,0,-3.00,-15.00,-38.00,0.00,0.00,-75.00,14,18.00,2.00,2.46,0.00,0.00,-2.00,0,,,100,100,0,2,0,0,0,1,0,,,,,0.0,0.0,0.0,0.0,0.0,0.0,0
34.182611,-118.129084,5.91,6.23,0.45,0.81,5.91,5.91,1.12,0.82,3114,2022-06-07 23:40:27.171,2022-06-07 16:40:27.171,14,0,0,16.549,34.182609,-118.129085,0.00,0.00,-0.45,0.40,-1.80,-5.10,0,1,0,88,100,-7458,3074,16549,3101.50,10,WP,1,0,0,0,0,0,0,1654645227170,4235,4237,4236,4224,0,0,27,,,,,,,0,0,0,-4.00,-18.00,-51.00,0.00,0.00,-76.00,14,18.00,2.00,2.47,0.00,0.00,-2.00,0,,,100,100,0,2,0,0,0,1,0,,,,,0.0,0.0,0.0,0.0,0.0,0.0,0
34.182610,-118.129084,5.91,6.23,0.22,0.77,5.91,5.91,1.12,0.82,3214,2022-06-07 23:40:27.271,2022-06-07 16:40:27.271,14,0,0,16.549,34.182609,-118.129085,0.00,0.00,-0.22,0.40,-2.00,-7.10,0,1,0,88,100,-7458,3074,16549,3101.50,10,WP,1,0,0,0,0,0,0,1654645227270,4235,4237,4236,4224,0,0,27,,,,,,,0,0,0,-4.00,-20.00,-71.00,0.00,0.00,-81.00,14,18.00,1.00,2.35,0.00,0.00,-1.00,0,,,100,100,0,2,0,0,0,1,0,,,,,0.0,0.0,0.0,0.0,0.0,0.0,0
34.182611,-118.129084,5.91,6.23,0.22,0.78,5.91,5.91,1.12,0.82,3314,2022-06-07 23:40:27.371,2022-06-07 16:40:27.371,14,0,0,16.549,34.182609,-118.129085,0.00,0.00,-0.22,0.50,-1.90,-9.70,0,1,0,88,100,-7458,3074,16549,3101.50,10,WP,1,0,0,0,0,0,0,1654645227370,4235,4237,4236,4224,0,0,27,,,,,,,0,0,0,-5.00,-19.00,-97.00,0.00,0.00,-94.00,14,18.00,1.00,2.38,0.00,0.00,-1.00,0,,,100,100,0,2,0,0,0,1,0,,,,,0.0,0.0,0.0,0.0,0.0,0.0,0
34.182611,-118.129084,5.91,6.23,0.22,0.83,5.91,5.91,1.12,0.83,3416,2022-06-07 23:40:27.472,2022-06-07 16:40:27.472,14,0,0,16.549,34.182609,-118.129085,0.00,0.00,-0.22,0.80,-1.70,-12.90,0,1,0,88,100,-7458,3074,16549,3101.50,10,WP,1,0,0,0,0,0,0,1654645227472,4235,4237,4236,4224,0,0,27,,,,,,,0,0,0,-8.00,-17.00,-129.00,0.00,0.00,-117.00,14,18.00,1.00,2.54,0.00,0.00,-1.00,0,,,100,100,0,2,0,0,0,1,0,,,,,0.0,0.0,0.0,0.0,0.0,0.0,0
34.182611,-118.129084,5.91,6.23,0.00,0.85,5.91,5.91,1.12,0.85,3515,2022-06-07 23:40:27.572,2022-06-07 16:40:27.572,14,0,0,16.549,34.182609,-118.129085,0.00,0.00,0.00,1.10,-1.60,-16.60,0,1,0,88,100,-7458,3074,16549,3101.50,10,WP,1,0,0,0,0,0,0,1654645227571,4235,4237,4236,4224,0,0,27,,,,,,,0,0,0,-11.00,-16.00,-166.00,0.00,0.00,-149.00,14,18.00,0.00,2.59,0.00,0.00,0.00,0,,,100,100,0,2,0,0,0,1,0,,,,,0.0,0.0,0.0,0.0,0.0,0.0,0
34.182611,-118.129084,6.23,6.23,0.00,0.85,6.23,6.23,1.12,0.85,3615,2022-06-07 23:40:27.672,2022-06-07 16:40:27.672,14,0,0,16.549,34.182609,-118.129085,0.00,0.00,0.00,1.20,-1.40,-20.70,0,1,0,88,100,-7458,3074,16549,3101.50,10,WP,1,0,0,0,0,0,0,1654645227671,4235,4237,4236,4224,0,0,27,,,,,,,0,0,0,-12.00,-14.00,-207.00,0.00,0.00,-188.00,14,19.00,0.00,2.59,0.00,0.00,0.00,0,,,100,100,0,2,0,0,0,1,0,,,,,0.0,0.0,0.0,0.0,0.0,0.0,0
34.182611,-118.129084,6.23,6.23,0.00,0.87,6.23,6.23,1.12,0.87,3715,2022-06-07 23:40:27.771,2022-06-07 16:40:27.771,14,0,0,16.549,34.182609,-118.129085,0.00,0.00,0.00,1.40,-1.50,-25.50,0,1,0,88,100,-7458,3074,16549,3101.50,10,WP,1,0,0,0,0,0,0,1654645227771,4235,4237,4236,4224,0,0,27,,,,,,,0,0,0,-14.00,-15.00,-255.00,0.00,0.00,-233.00,14,19.00,0.00,2.64,0.00,0.00,0.00,0,,,100,100,0,2,0,0,0,1,0,,,,,0.0,0.0,0.0,0.0,0.0,0.0,0
34.182611,-118.129084,6.23,6.56,0.00,0.86,6.23,6.23,1.12,0.87,3816,2022-06-07 23:40:27.872,2022-06-07 16:40:27.873,14,0,0,16.549,34.182609,-118.129085,0.00,0.00,0.00,1.30,-1.60,-30.80,0,1,0,88,100,-7458,3074,16549,3101.50,10,WP,1,0,0,0,0,0,0,1654645227872,4235,4237,4236,4224,0,0,27,,,,,,,0,0,0,-13.00,-16.00,-308.00,0.00,0.00,-284.00,14,19.00,0.00,2.62,0.00,0.00,0.00,0,,,100,100,0,2,0,0,0,1,0,,,,,0.0,0.0,0.0,0.0,0.0,0.0,0
34.182611,-118.129084,6.23,6.56,0.00,0.88,6.23,6.23,1.12,0.88,3916,2022-06-07 23:40:27.972,2022-06-07 16:40:27.972,14,0,0,16.549,34.182609,-118.129085,0.00,0.00,0.00,1.00,-1.60,-36.70,0,1,0,88,100,-7458,3074,16549,3101.50,10,WP,1,0,0,0,0,0,0,1654645227972,4235,4237,4236,4224,0,0,27,,,,,,,0,0,0,-10.00,-16.00,-367.00,0.00,0.00,-342.00,14,19.00,0.00,2.67,0.00,0.00,0.00,0,,,100,100,0,2,0,0,0,1,0,,,,,0.0,0.0,0.0,0.0,0.0,0.0,0
34.182611,-118.129084,6.23,6.56,0.00,0.85,6.23,6.23,1.12,0.88,4016,2022-06-07 23:40:28.073,2022-06-07 16:40:28.073,14,0,0,16.549,34.182609,-118.129085,0.00,0.00,0.00,1.00,-1.70,-43.10,0,1,0,88,100,-7458,3074,16549,3101.50,10,WP,1,0,0,0,0,0,0,1654645228072,4235,4237,4236,4224,0,0,27,,,,,,,0,0,0,-10.00,-17.00,-431.00,0.00,0.00,-405.00,14,19.00,0.00,2.59,0.00,0.00,0.00,0,,,100,100,0,2,0,0,0,1,0,,,,,0.0,0.0,0.0,0.0,0.0,0.0,0
34.182611,-118.129084,6.23,6.56,0.00,0.86,6.23,6.23,1.12,0.88,4117,2022-06-07 23:40:28.174,2022-06-07 16:40:28.174,14,0,0,16.549,34.182609,-118.129085,0.00,0.00,0.00,0.70,-1.80,-50.20,0,1,0,88,100,-7458,3074,16549,3101.50,10,WP,1,0,0,0,0,0,0,1654645228173,4235,4237,4236,4224,0,0,27,,,,,,,0,0,0,-7.00,-18.00,-502.00,0.00,0.00,-473.00,14,19.00,0.00,2.63,0.00,0.00,0.00,0,,,100,100,0,2,0,0,0,1,0,,,,,0.0,0.0,0.0,0.0,0.0,0.0,0
34.182611,-118.129084,6.23,6.56,0.00,0.92,6.23,6.23,1.12,0.92,4216,2022-06-07 23:40:28.273,2022-06-07 16:40:28.273,14,0,0,16.549,34.182609,-118.129085,0.00,0.00,0.00,0.40,-2.10,-57.80,0,1,0,88,100,-7458,3074,16549,3101.50,10,WP,1,0,0,0,0,0,0,1654645228272,4235,4237,4236,4224,0,0,27,,,,,,,0,0,0,-4.00,-21.00,-578.00,0.00,0.00,-547.00,14,19.00,0.00,2.79,0.00,0.00,0.00,0,,,100,100,0,2,0,0,0,1,0,,,,,0.0,0.0,0.0,0.0,0.0,0.0,0
34.182611,-118.129084,6.23,6.56,0.00,0.93,6.23,6.23,1.12,0.93,4317,2022-06-07 23:40:28.374,2022-06-07 16:40:28.374,14,0,0,16.549,34.182609,-118.129085,0.00,0.00,0.00,0.10,-2.30,-65.40,0,1,0,88,100,-7458,3074,16549,3101.50,10,WP,1,0,0,0,0,0,0,1654645228373,4235,4237,4236,4224,0,0,27,,,,,,,0,0,0,-1.00,-23.00,-654.00,0.00,0.00,-623.00,14,19.00,0.00,2.83,0.00,0.00,0.00,0,,,100,100,0,2,0,0,0,1,0,,,,,0.0,0.0,0.0,0.0,0.0,0.0,0
34.182611,-118.129084,6.23,6.56,0.00,0.92,6.23,6.23,1.12,0.93,4417,2022-06-07 23:40:28.473,2022-06-07 16:40:28.474,14,0,0,16.549,34.182609,-118.129085,0.00,0.00,0.00,-0.10,-2.40,-72.80,0,1,0,88,100,-7458,3074,16549,3101.50,10,WP,1,0,0,0,0,0,0,1654645228473,4150,4143,4136,4127,0,0,27,,,,,,,0,0,0,1.00,-24.00,-728.00,0.00,0.00,-700.00,14,19.00,0.00,2.79,0.00,0.00,0.00,0,,,100,100,0,2,0,0,0,1,0,,,,,0.0,0.0,0.0,0.0,0.0,0.0,0
34.182611,-118.129084,6.23,6.56,0.00,0.92,6.23,6.23,1.12,0.93,4516,2022-06-07 23:40:28.573,2022-06-07 16:40:28.573,14,0,0,16.549,34.182609,-118.129085,0.00,0.00,0.00,-0.60,-2.30,-80.30,0,1,0,88,100,-7458,3074,16549,3101.50,10,WP,1,0,0,0,0,0,0,1654645228572,4150,4143,4136,4127,0,0,27,,,,,,,0,0,0,6.00,-23.00,-803.00,0.00,0.00,-777.00,14,19.00,0.00,2.81,0.00,0.00,0.00,0,,,100,100,0,2,0,0,0,1,0,,,,,0.0,0.0,0.0,0.0,0.0,0.0,0
34.182611,-118.129084,6.23,6.56,0.00,0.94,6.23,6.23,1.12,0.94,4616,2022-06-07 23:40:28.673,2022-06-07 16:40:28.673,14,0,0,16.549,34.182609,-118.129085,0.00,0.00,0.00,-1.00,-2.00,-87.80,0,1,0,88,100,-7458,3074,16549,3101.50,10,WP,1,0,0,0,0,0,0,1654645228672,4150,4143,4136,4127,0,0,27,,,,,,,0,0,0,10.00,-20.00,-878.00,0.00,0.00,-853.00,14,19.00,0.00,2.85,0.00,0.00,0.00,0,,,100,100,0,2,0,0,0,1,0,,,,,0.0,0.0,0.0,0.0,0.0,0.0,0
34.182611,-118.129084,6.23,6.56,0.00,0.93,6.23,6.23,1.12,0.94,4715,2022-06-07 23:40:28.772,2022-06-07 16:40:28.772,14,0,0,16.556,34.182609,-118.129085,0.00,0.00,0.00,-1.40,-1.40,-95.30,0,1,0,88,100,-7123,3072,16556,3101.50,10,WP,1,0,0,0,0,0,0,1654645228771,4150,4143,4136,4127,0,0,27,,,,,,,0,0,0,14.00,-14.00,-953.00,0.00,0.00,-853.00,14,19.00,0.00,2.84,0.00,0.00,0.00,0,,,100,100,0,2,0,0,0,1,0,,,,,0.0,0.0,0.0,0.0,0.0,0.0,0
34.182611,-118.129084,6.23,6.56,0.00,0.87,6.23,6.23,1.12,0.94,4816,2022-06-07 23:40:28.872,2022-06-07 16:40:28.872,14,0,0,16.556,34.182609,-118.129085,0.00,0.00,0.00,-1.40,-0.70,-102.70,0,1,0,88,100,-7123,3072,16556,3101.50,10,WP,1,0,0,0,0,0,0,1654645228872,4150,4143,4136,4127,0,0,27,,,,,,,0,0,0,14.00,-7.00,-1027.00,0.00,0.00,-1003.00,14,19.00,0.00,2.65,0.00,0.00,0.00,0,,,100,100,0,2,0,0,0,1,0,,,,,0.0,0.0,0.0,0.0,0.0,0.0,0
34.182611,-118.129084,6.23,6.56,0.00,0.85,6.23,6.23,1.12,0.94,4916,2022-06-07 23:40:28.973,2022-06-07 16:40:28.973,14,0,0,16.556,34.182609,-118.129085,0.00,0.00,0.00,-1.20,-0.30,-110.10,0,1,0,88,100,-7123,3072,16556,3101.50,10,WP,1,0,0,0,0,0,0,1654645228972,4150,4143,4136,4127,0,0,27,,,,,,,0,0,0,12.00,-3.00,-1101.00,0.00,0.00,-1078.00,14,19.00,0.00,2.60,0.00,0.00,0.00,0,,,100,100,0,2,0,0,0,1,0,,,,,0.0,0.0,0.0,0.0,0.0,0.0,0
34.182611,-118.129084,6.23,6.56,0.00,0.86,6.23,6.23,1.12,0.94,5017,2022-06-07 23:40:29.073,2022-06-07 16:40:29.073,14,0,0,16.556,34.182609,-118.129085,0.00,0.00,0.00,-1.00,0.10,-117.50,0,1,0,88,100,-7123,3072,16556,3101.50,10,WP,1,0,0,0,0,0,0,1654645229073,4150,4143,4136,4127,0,0,27,,,,,,,0,0,0,10.00,1.00,-1175.00,0.00,0.00,-1153.00,14,19.00,0.00,2.62,0.00,0.00,0.00,0,,,100,100,0,2,0,0,0,1,0,,,,,0.0,0.0,0.0,0.0,0.0,0.0,0
34.182611,-118.129084,6.23,6.56,0.00,0.84,6.23,6.23,1.12,0.94,5116,2022-06-07 23:40:29.173,2022-06-07 16:40:29.173,14,0,0,16.556,34.182609,-118.129085,0.00,0.00,0.00,-0.80,0.10,-124.90,0,1,0,88,100,-7123,3072,16556,3101.50,10,WP,1,0,0,0,0,0,0,1654645229172,4150,4143,4136,4127,0,0,27,,,,,,,0,0,0,8.00,1.00,-1249.00,0.00,0.00,-1227.00,14,19.00,0.00,2.57,0.00,0.00,0.00,0,,,100,100,0,2,0,0,0,1,0,,,,,0.0,0.0,0.0,0.0,0.0,0.0,0
34.182610,-118.129084,6.23,6.56,0.00,0.85,6.23,6.23,1.12,0.94,5216,2022-06-07 23:40:29.273,2022-06-07 16:40:29.273,14,0,0,16.556,34.182609,-118.129085,0.00,0.00,0.00,-0.90,0.00,-132.20,0,1,0,88,100,-7123,3072,16556,3101.50,10,WP,1,0,0,0,0,0,0,1654645229272,4150,4143,4136,4127,0,0,27,,,,,,,0,0,0,9.00,0.00,-1322.00,0.00,0.00,-1300.00,14,19.00,0.00,2.58,0.00,0.00,0.00,0,,,100,100,0,2,0,0,0,1,0,,,,,0.0,0.0,0.0,0.0,0.0,0.0,0
34.182610,-118.129084,6.23,6.56,0.00,0.83,6.23,6.23,1.12,0.94,5317,2022-06-07 23:40:29.373,2022-06-07 16:40:29.373,14,0,0,16.556,34.182609,-118.129085,0.00,0.00,0.00,-0.80,0.60,-139.50,0,1,0,88,100,-7123,3072,16556,3101.50,10,WP,1,0,0,0,0,0,0,1654645229373,4150,4143,4136,4127,0,0,27,,,,,,,0,0,0,8.00,6.00,-1395.00,0.00,0.00,-1374.00,14,19.00,0.00,2.53,0.00,0.00,0.00,0,,,100,100,0,2,0,0,0,1,0,,,,,0.0,0.0,0.0,0.0,0.0,0.0,0
34.182610,-118.129084,6.23,6.56,0.00,0.82,6.23,6.23,1.12,0.94,5416,2022-06-07 23:40:29.473,2022-06-07 16:40:29.473,14,0,0,16.556,34.182609,-118.129085,0.00,0.00,0.00,-0.70,0.90,-146.80,0,1,0,88,100,-7123,3072,16556,3101.50,10,WP,1,0,0,0,0,0,0,1654645229472,4150,4143,4136,4127,0,0,27,,,,,,,0,0,0,7.00,9.00,-1468.00,0.00,0.00,-1447.00,14,19.00,0.00,2.49,0.00,0.00,0.00,0,,,100,100,0,2,0,0,0,1,0,,,,,0.0,0.0,0.0,0.0,0.0,0.0,0
34.182610,-118.129084,6.23,6.56,0.00,0.80,6.23,6.23,1.12,0.94,5518,2022-06-07 23:40:29.575,2022-06-07 16:40:29.575,14,0,0,16.556,34.182609,-118.129085,0.00,0.00,0.00,-0.80,0.70,-154.10,0,1,0,88,100,-7123,3072,16556,3101.50,10,WP,1,0,0,0,0,0,0,1654645229574,4150,4143,4136,4127,0,0,27,,,,,,,0,0,0,8.00,7.00,-1541.00,0.00,0.00,-1520.00,14,19.00,0.00,2.45,0.00,0.00,0.00,0,,,100,100,0,2,0,0,0,1,0,,,,,0.0,0.0,0.0,0.0,0.0,0.0,0
34.182610,-118.129084,6.23,6.56,0.00,0.83,6.23,6.23,1.12,0.94,5618,2022-06-07 23:40:29.675,2022-06-07 16:40:29.675,14,0,0,16.556,34.182609,-118.129085,0.00,0.00,0.00,-0.90,0.60,-160.90,0,1,0,88,100,-7123,3072,16556,3101.50,10,WP,1,0,0,0,0,0,0,1654645229674,4150,4143,4136,4127,0,0,27,,,,,,,0,0,0,9.00,6.00,-1609.00,0.00,0.00,-1592.00,14,19.00,0.00,2.54,0.00,0.00,0.00,0,,,100,100,0,2,0,0,0,1,0,,,,,0.0,0.0,0.0,0.0,0.0,0.0,0
34.182610,-118.129084,6.23,6.56,0.00,0.83,6.23,6.23,1.12,0.94,5718,2022-06-07 23:40:29.775,2022-06-07 16:40:29.775,14,0,0,16.556,34.182609,-118.129085,0.00,0.00,0.00,-1.00,1.00,-165.70,0,1,0,88,100,-7123,3072,16556,3101.50,10,WP,1,0,0,0,0,0,0,1654645229774,4150,4143,4136,4127,0,0,27,,,,,,,0,0,0,10.00,10.00,-1657.00,0.00,0.00,-1655.00,14,19.00,0.00,2.53,0.00,0.00,0.00,0,,,100,100,0,2,0,0,0,1,0,,,,,0.0,0.0,0.0,0.0,0.0,0.0,0
34.182610,-118.129083,6.23,6.56,0.00,0.88,6.23,6.23,1.12,0.94,5816,2022-06-07 23:40:29.873,2022-06-07 16:40:29.873,14,0,0,16.556,34.182609,-118.129085,0.00,0.00,0.00,-1.30,1.60,-169.10,0,1,0,88,100,-7123,3072,16556,3101.50,10,WP,1,0,0,0,0,0,0,1654645229872,4150,4143,4136,4127,0,0,27,,,,,,,0,0,0,13.00,16.00,-1691.00,0.00,0.00,-1701.00,14,19.00,0.00,2.67,0.00,0.00,0.00,0,,,100,100,0,2,0,0,0,1,0,,,,,0.0,0.0,0.0,0.0,0.0,0.0,0
34.182610,-118.129083,6.23,6.56,0.00,0.88,6.23,6.23,1.12,0.94,5916,2022-06-07 23:40:29.973,2022-06-07 16:40:29.973,14,0,0,16.556,34.182609,-118.129085,0.00,0.00,0.00,-1.30,2.20,-171.20,0,1,0,88,100,-7123,3072,16556,3101.50,10,WP,1,0,0,0,0,0,0,1654645229972,4150,4143,4136,4127,0,0,27,,,,,,,0,0,0,13.00,22.00,-1712.00,0.00,0.00,-1732.00,14,19.00,0.00,2.69,0.00,0.00,0.00,0,,,100,100,0,2,0,0,0,1,0,,,,,0.0,0.0,0.0,0.0,0.0,0.0,0
34.182610,-118.129083,6.23,6.56,0.00,0.94,6.23,6.23,1.12,0.94,6017,2022-06-07 23:40:30.073,2022-06-07 16:40:30.073,14,0,0,16.556,34.182609,-118.129085,0.00,0.00,0.00,-1.40,2.40,-172.50,0,1,0,88,100,-7123,3072,16556,3101.50,10,WP,1,0,0,0,0,0,0,1654645230073,4150,4143,4136,4127,0,0,27,,,,,,,0,0,0,14.00,24.00,-1725.00,0.00,0.00,-1753.00,14,19.00,0.00,2.86,0.00,0.00,0.00,0,,,100,100,0,2,0,0,0,1,0,,,,,0.0,0.0,0.0,0.0,0.0,0.0,0
34.182610,-118.129083,6.23,6.56,0.00,0.95,6.23,6.23,1.12,0.95,6118,2022-06-07 23:40:30.174,2022-06-07 16:40:30.174,14,0,0,16.556,34.182609,-118.129085,0.00,0.00,0.00,-1.50,2.40,-173.30,0,1,0,88,100,-7123,3072,16556,3101.50,10,WP,1,0,0,0,0,0,0,1654645230174,4150,4143,4136,4127,0,0,27,,,,,,,0,0,0,15.00,24.00,-1733.00,0.00,0.00,-1767.00,14,19.00,0.00,2.89,0.00,0.00,0.00,0,,,100,100,0,2,0,0,0,1,0,,,,,0.0,0.0,0.0,0.0,0.0,0.0,0
34.182610,-118.129083,6.23,6.56,0.00,0.98,6.23,6.23,1.12,0.98,6217,2022-06-07 23:40:30.273,2022-06-07 16:40:30.273,14,0,0,16.556,34.182609,-118.129085,0.00,0.00,0.00,-1.70,2.40,-173.50,0,1,0,88,100,-7123,3072,16556,3101.50,10,WP,1,0,0,0,0,0,0,1654645230273,4150,4143,4136,4127,0,0,27,,,,,,,0,0,0,17.00,24.00,-1735.00,0.00,0.00,-1775.00,14,19.00,0.00,2.98,0.00,0.00,0.00,0,,,100,100,0,2,0,0,0,1,0,,,,,0.0,0.0,0.0,0.0,0.0,0.0,0
34.182610,-118.129083,6.23,6.56,0.00,0.99,6.23,6.23,1.12,0.99,6317,2022-06-07 23:40:30.374,2022-06-07 16:40:30.374,14,0,0,16.556,34.182609,-118.129085,0.00,0.00,0.00,-1.70,2.30,-173.20,0,1,0,88,100,-7123,3072,16556,3101.50,10,WP,1,0,0,0,0,0,0,1654645230373,4150,4143,4136,4127,0,0,27,,,,,,,0,0,0,17.00,23.00,-1732.00,0.00,0.00,-1775.00,14,19.00,0.00,3.02,0.00,0.00,0.00,0,,,100,100,0,2,0,0,0,1,0,,,,,0.0,0.0,0.0,0.0,0.0,0.0,0
34.182610,-118.129083,6.23,6.56,0.00,0.99,6.23,6.23,1.12,0.99,6417,2022-06-07 23:40:30.474,2022-06-07 16:40:30.474,14,0,0,16.556,34.182609,-118.129085,0.00,0.00,0.00,-1.80,2.50,-172.90,0,1,0,88,100,-7123,3072,16556,3101.50,10,WP,1,0,0,0,0,0,0,1654645230473,4150,4143,4136,4127,0,0,27,,,,,,,0,0,0,18.00,25.00,-1729.00,0.00,0.00,-1779.00,14,19.00,0.00,3.01,0.00,0.00,0.00,0,,,100,100,0,2,0,0,0,1,0,,,,,0.0,0.0,0.0,0.0,0.0,0.0,0
34.182610,-118.129083,6.23,6.56,0.00,0.99,6.23,6.23,1.12,0.99,6518,2022-06-07 23:40:30.575,2022-06-07 16:40:30.575,14,0,0,16.556,34.182609,-118.129085,0.00,0.00,0.00,-1.60,2.10,-172.70,0,1,0,88,100,-7123,3072,16556,3101.50,10,WP,1,0,0,0,0,0,0,1654645230574,4150,4143,4136,4127,0,0,27,,,,,,,0,0,0,16.00,21.00,-1727.00,0.00,0.00,-1779.00,14,19.00,0.00,3.03,0.00,0.00,0.00,0,,,100,100,0,2,0,0,0,1,0,,,,,0.0,0.0,0.0,0.0,0.0,0.0,0
34.182611,-118.129083,6.23,6.56,0.00,1.07,6.23,6.23,1.12,1.07,6617,2022-06-07 23:40:30.674,2022-06-07 16:40:30.674,14,0,0,16.556,34.182609,-118.129085,0.00,0.00,0.00,-5.90,1.90,-172.60,0,1,0,88,100,-7123,3072,16556,3101.50,10,WP,1,0,0,0,0,0,0,1654645230673,4150,4143,4136,4127,0,0,27,,,,,,,0,0,0,59.00,19.00,-1726.00,0.00,0.00,-1779.00,14,19.00,0.00,3.27,0.00,0.00,0.00,0,,,100,100,0,2,0,0,0,1,0,,,,,0.0,0.0,0.0,0.0,0.0,0.0,0
34.182611,-118.129083,6.23,6.56,0.00,1.07,6.23,6.23,1.12,1.07,6718,2022-06-07 23:40:30.774,2022-06-07 16:40:30.774,14,0,0,16.536,34.182609,-118.129085,0.00,0.00,0.00,-11.10,2.20,-172.80,0,1,0,88,100,-6926,3068,16536,3101.50,10,WP,1,0,0,0,0,0,0,1654645230774,4150,4143,4136,4127,0,0,27,,,,,,,0,0,0,111.00,22.00,-1728.00,0.00,0.00,-1779.00,14,19.00,0.00,3.28,0.00,0.00,0.00,0,,,100,100,0,2,0,0,0,1,0,,,,,0.0,0.0,0.0,0.0,0.0,0.0,0
34.182610,-118.129083,6.23,6.56,0.45,1.04,6.23,6.23,1.12,1.07,6819,2022-06-07 23:40:30.876,2022-06-07 16:40:30.876,14,0,0,16.536,34.182609,-118.129085,-0.45,0.00,0.00,-15.40,2.30,-172.90,0,1,0,88,100,-6926,3068,16536,3101.50,10,WP,1,0,0,0,0,0,0,1654645230875,4150,4143,4136,4127,0,0,27,,,,,,,0,0,0,154.00,23.00,-1729.00,0.00,0.00,-1779.00,14,19.00,2.00,3.16,-2.00,0.00,0.00,0,,,100,100,0,2,0,0,0,1,0,,,,,0.0,0.0,0.0,0.0,0.0,0.0,0
34.182610,-118.129083,6.23,6.56,1.12,0.96,6.23,6.23,1.12,1.07,6918,2022-06-07 23:40:30.974,2022-06-07 16:40:30.974,14,0,0,16.536,34.182609,-118.129085,-1.12,0.00,0.00,-18.40,3.00,-173.10,0,1,0,88,100,-6926,3068,16536,3101.50,10,WP,1,0,0,0,0,0,0,1654645230974,4150,4143,4136,4127,0,0,27,,,,,,,0,0,0,184.00,30.00,-1731.00,0.00,0.00,-1779.00,14,19.00,5.00,2.92,-5.00,0.00,0.00,0,,,100,100,0,2,0,0,0,1,0,,,,,0.0,0.0,0.0,0.0,0.0,0.0,0
34.182610,-118.129083,6.23,6.56,1.57,0.86,6.23,6.23,1.57,1.07,7017,2022-06-07 23:40:31.073,2022-06-07 16:40:31.073,14,0,0,16.536,34.182609,-118.129085,-1.57,0.00,0.00,-21.00,2.90,-173.20,0,1,0,88,100,-6926,3068,16536,3101.50,10,WP,1,0,0,0,0,0,0,1654645231073,4150,4143,4136,4127,0,0,27,,,,,,,0,0,0,210.00,29.00,-1732.00,0.00,0.00,-1778.00,14,19.00,7.00,2.63,-7.00,0.00,0.00,0,,,100,100,0,2,0,0,0,1,0,,,,,0.0,0.0,0.0,0.0,0.0,0.0,0
34.182609,-118.129083,6.23,6.56,2.25,0.75,6.23,6.23,2.25,1.07,7118,2022-06-07 23:40:31.174,2022-06-07 16:40:31.174,14,0,0,16.536,34.182609,-118.129085,-2.24,-0.22,0.00,-21.60,2.50,-173.40,0,1,0,88,100,-6926,3068,16536,3101.50,10,WP,1,0,0,0,0,0,0,1654645231174,4150,4143,4136,4127,0,0,27,,,,,,,0,0,0,216.00,25.00,-1734.00,0.00,0.00,-1778.00,14,19.00,10.05,2.27,-10.00,-1.00,0.00,0,,,100,100,0,2,0,0,0,1,0,,,,,0.0,0.0,0.0,0.0,0.0,0.0,0
34.182608,-118.129083,6.23,6.56,3.14,0.74,6.23,6.23,3.14,1.07,7218,2022-06-07 23:40:31.275,2022-06-07 16:40:31.275,14,0,0,16.536,34.182609,-118.129085,-3.13,-0.22,0.00,-20.80,2.50,-173.20,0,1,0,88,100,-6926,3068,16536,3101.50,10,WP,1,0,0,0,0,0,0,1654645231274,4150,4143,4136,4127,0,0,27,,,,,,,0,0,0,208.00,25.00,-1732.00,0.00,0.00,-1778.00,14,19.00,14.04,2.25,-14.00,-1.00,0.00,0,,,100,100,0,2,0,0,0,1,0,,,,,0.0,0.0,0.0,0.0,0.0,0.0,0
34.182606,-118.129083,6.23,6.56,3.61,1.00,6.23,6.23,3.61,1.07,7317,2022-06-07 23:40:31.374,2022-06-07 16:40:31.374,14,0,0,16.536,34.182609,-118.129085,-3.58,-0.45,0.00,-20.10,2.80,-173.20,0,1,0,88,100,-6926,3068,16536,3101.50,10,WP,1,0,0,0,0,0,0,1654645231373,4150,4143,4136,4127,0,0,27,,,,,,,0,0,0,201.00,28.00,-1732.00,0.00,0.00,-1778.00,14,19.00,16.12,3.03,-16.00,-2.00,0.00,0,,,100,100,0,2,0,0,0,1,0,,,,,0.0,0.0,0.0,0.0,0.0,0.0,0
34.182605,-118.129084,6.23,6.56,4.27,1.39,6.23,6.23,4.27,1.39,7417,2022-06-07 23:40:31.473,2022-06-07 16:40:31.473,14,0,0,16.536,34.182609,-118.129085,-4.25,-0.45,0.00,-19.00,2.50,-173.20,0,1,0,88,100,-6926,3068,16536,3101.50,10,WP,1,0,0,0,0,0,0,1654645231473,4150,4143,4136,4127,0,0,27,,,,,,,0,0,0,190.00,25.00,-1732.00,0.00,0.00,-1778.00,14,19.00,19.10,4.25,-19.00,-2.00,0.00,0,,,100,100,0,2,0,0,0,1,0,,,,,0.0,0.0,0.0,0.0,0.0,0.0,0
34.182603,-118.129084,6.23,6.56,4.72,2.02,6.23,6.23,4.72,2.02,7518,2022-06-07 23:40:31.574,2022-06-07 16:40:31.574,14,0,0,16.536,34.182609,-118.129085,-4.70,-0.45,0.00,-17.10,2.80,-173.10,0,1,0,88,100,-6926,3068,16536,3101.50,10,WP,1,0,0,0,0,0,0,1654645231574,4150,4143,4136,4127,0,0,27,,,,,,,0,0,0,171.00,28.00,-1731.00,0.00,0.00,-1778.00,14,19.00,21.10,6.15,-21.00,-2.00,0.00,0,,,100,100,0,2,0,0,0,1,0,,,,,0.0,0.0,0.0,0.0,0.0,0.0,0
34.182601,-118.129085,6.23,6.56,5.19,2.63,6.23,6.23,5.19,2.63,7618,2022-06-07 23:40:31.675,2022-06-07 16:40:31.675,14,0,0,16.536,34.182609,-118.129085,-5.14,-0.67,0.00,-15.30,2.60,-172.90,0,1,0,88,100,-6926,3068,16536,3101.50,10,WP,1,0,0,0,0,0,0,1654645231674,4150,4143,4136,4127,0,0,27,,,,,,,0,0,0,153.00,26.00,-1729.00,0.00,0.00,-1778.00,14,19.00,23.19,8.01,-23.00,-3.00,0.00,0,,,100,100,0,2,0,0,0,1,0,,,,,0.0,0.0,0.0,0.0,0.0,0.0,0
34.182599,-118.129085,6.23,6.56,5.63,3.41,6.23,6.23,5.63,3.41,7718,2022-06-07 23:40:31.774,2022-06-07 16:40:31.774,14,0,0,16.536,34.182609,-118.129085,-5.59,-0.67,0.00,-10.90,2.50,-172.70,0,1,0,88,100,-6926,3068,16536,3101.50,10,WP,1,0,0,0,0,0,0,1654645231774,4150,4143,4136,4127,0,0,27,,,,,,,0,0,0,109.00,25.00,-1727.00,0.00,0.00,-1778.00,14,19.00,25.18,10.39,-25.00,-3.00,0.00,0,,,100,100,0,2,0,0,0,1,0,,,,,0.0,0.0,0.0,0.0,0.0,0.0,0
34.182597,-118.129086,6.23,6.89,5.63,4.18,6.23,6.23,5.63,4.18,7818,2022-06-07 23:40:31.874,2022-06-07 16:40:31.874,14,0,0,16.536,34.182609,-118.129085,-5.59,-0.67,0.00,-6.80,1.60,-172.70,0,1,0,88,100,-6926,3068,16536,3101.50,10,WP,1,0,0,0,0,0,0,1654645231874,4150,4143,4136,4127,0,0,27,,,,,,,0,0,0,68.00,16.00,-1727.00,0.00,0.00,-1778.00,14,19.00,25.18,12.75,-25.00,-3.00,0.00,0,,,100,100,0,2,0,0,0,1,0,,,,,0.0,0.0,0.0,0.0,0.0,0.0,0
34.182595,-118.129086,6.23,6.89,5.66,5.01,6.23,6.23,5.66,5.01,7917,2022-06-07 23:40:31.974,2022-06-07 16:40:31.974,14,0,0,16.536,34.182609,-118.129085,-5.59,-0.89,0.00,-3.40,1.10,-172.50,0,1,0,88,100,-6926,3068,16536,3101.50,10,WP,1,0,0,0,0,0,0,1654645231973,4150,4143,4136,4127,0,0,27,,,,,,,0,0,0,34.00,11.00,-1725.00,0.00,0.00,-1778.00,14,19.00,25.32,15.27,-25.00,-4.00,0.00,0,,,100,100,0,2,0,0,0,1,0,,,,,0.0,0.0,0.0,0.0,0.0,0.0,0
34.182593,-118.129087,6.23,6.89,5.63,5.86,6.23,6.23,5.66,5.86,8018,2022-06-07 23:40:32.075,2022-06-07 16:40:32.075,14,0,0,16.536,34.182609,-118.129085,-5.59,-0.67,0.00,-0.60,0.00,-172.60,0,1,0,88,100,-6926,3068,16536,3101.50,10,WP,1,0,0,0,0,0,0,1654645232074,4150,4143,4136,4127,0,0,27,,,,,,,0,0,0,6.00,0.00,-1726.00,0.00,0.00,-1778.00,14,19.00,25.18,17.86,-25.00,-3.00,0.00,0,,,100,100,0,2,0,0,0,1,0,,,,,0.0,0.0,0.0,0.0,0.0,0.0,0
34.182590,-118.129087,6.23,6.89,5.41,6.66,6.23,6.23,5.66,6.66,8119,2022-06-07 23:40:32.175,2022-06-07 16:40:32.175,14,0,0,16.536,34.182609,-118.129085,-5.37,-0.67,0.00,0.80,0.20,-172.30,0,1,0,88,100,-6926,3068,16536,3101.50,10,WP,1,0,0,0,0,0,0,1654645232175,4150,4143,4136,4127,0,0,27,,,,,,,0,0,0,-8.00,2.00,-1723.00,0.00,0.00,-1778.00,14,19.00,24.19,20.31,-24.00,-3.00,0.00,0,,,100,100,0,2,0,0,0,1,0,,,,,0.0,0.0,0.0,0.0,0.0,0.0,0
34.182588,-118.129088,6.23,6.89,5.41,7.44,6.23,6.23,5.66,7.44,8218,2022-06-07 23:40:32.274,2022-06-07 16:40:32.274,14,0,0,16.536,34.182609,-118.129085,-5.37,-0.67,0.00,1.90,-0.10,-172.40,0,1,0,88,100,-6926,3068,16536,3101.50,10,WP,1,0,0,0,0,0,0,1654645232274,4150,4143,4136,4127,0,0,27,,,,,,,0,0,0,-19.00,-1.00,-1724.00,0.00,0.00,-1778.00,14,19.00,24.19,22.66,-24.00,-3.00,0.00,0,,,100,100,0,2,0,0,0,1,0,,,,,0.0,0.0,0.0,0.0,0.0,0.0,0
34.182586,-118.129089,6.23,6.56,4.97,8.17,6.23,6.23,5.66,8.17,8318,2022-06-07 23:40:32.375,2022-06-07 16:40:32.375,14,0,0,16.536,34.182609,-118.129085,-4.92,-0.67,0.00,2.40,-0.20,-172.20,0,1,0,88,100,-6926,3068,16536,3101.50,10,WP,1,0,0,0,0,0,0,1654645232374,4150,4143,4136,4127,0,0,27,,,,,,,0,0,0,-24.00,-2.00,-1722.00,0.00,0.00,-1778.00,14,19.00,22.20,24.91,-22.00,-3.00,0.00,0,,,100,100,0,2,0,0,0,1,0,,,,,0.0,0.0,0.0,0.0,0.0,0.0,0
34.182584,-118.129090,6.23,6.89,4.72,8.91,6.23,6.23,5.66,8.91,8417,2022-06-07 23:40:32.474,2022-06-07 16:40:32.474,14,0,0,16.536,34.182609,-118.129085,-4.70,-0.45,0.00,2.80,-1.10,-172.50,0,1,0,88,100,-6926,3068,16536,3101.50,10,WP,1,0,0,0,0,0,0,1654645232473,4150,4143,4136,4127,0,0,27,,,,,,,0,0,0,-28.00,-11.00,-1725.00,0.00,0.00,-1778.00,14,19.00,21.10,27.16,-21.00,-2.00,0.00,0,,,100,100,0,2,0,0,0,1,0,,,,,0.0,0.0,0.0,0.0,0.0,0.0,0
34.182583,-118.129090,6.23,6.56,4.48,9.58,6.23,6.23,5.66,9.58,8518,2022-06-07 23:40:32.575,2022-06-07 16:40:32.575,14,0,0,16.536,34.182609,-118.129085,-4.47,-0.22,0.00,3.70,-0.20,-172.20,0,1,0,88,100,-6926,3068,16536,3101.50,10,WP,1,0,0,0,0,0,0,1654645232574,4150,4143,4136,4127,0,0,27,,,,,,,0,0,0,-37.00,-2.00,-1722.00,0.00,0.00,-1778.00,14,19.00,20.02,29.19,-20.00,-1.00,0.00,0,,,100,100,0,2,0,0,0,1,0,,,,,0.0,0.0,0.0,0.0,0.0,0.0,0
34.182581,-118.129091,6.23,6.56,4.26,10.31,6.23,6.23,5.66,10.31,8618,2022-06-07 23:40:32.674,2022-06-07 16:40:32.674,14,0,0,16.536,34.182609,-118.129085,-4.25,-0.22,0.00,5.60,0.50,-172.10,0,1,0,88,100,-6926,3068,16536,3101.50,10,WP,1,0,0,0,0,0,0,1654645232674,4150,4143,4136,4127,0,0,27,,,,,,,0,0,0,-56.00,5.00,-1721.00,0.00,0.00,-1778.00,14,19.00,19.03,31.42,-19.00,-1.00,0.00,0,,,100,100,0,2,0,0,0,1,0,,,,,0.0,0.0,0.0,0.0,0.0,0.0,0
34.182579,-118.129091,6.23,6.56,3.81,10.88,6.23,6.23,5.66,10.88,8718,2022-06-07 23:40:32.775,2022-06-07 16:40:32.775,14,0,0,16.504,34.182609,-118.129085,-3.80,-0.22,0.00,6.10,0.80,-172.00,0,1,0,88,100,-7331,3062,16504,3101.50,10,WP,1,0,0,0,0,0,0,1654645232774,4150,4143,4136,4127,0,0,27,,,,,,,0,0,0,-61.00,8.00,-1720.00,0.00,0.00,-1778.00,14,19.00,17.03,33.18,-17.00,-1.00,0.00,0,,,100,100,0,2,0,0,0,1,0,,,,,0.0,0.0,0.0,0.0,0.0,0.0,0
34.182577,-118.129091,6.23,6.56,3.36,11.47,6.23,6.23,5.66,11.47,8794,2022-06-07 23:40:32.850,2022-06-07 16:40:32.850,14,0,0,16.504,34.182609,-118.129085,-3.36,0.00,0.00,4.90,-0.10,-172.20,0,1,0,88,100,-7331,3062,16504,3101.50,10,WP,1,0,0,0,0,0,0,1654645232850,4150,4143,4136,4127,0,0,27,,,,,,,0,0,0,-49.00,-1.00,-1722.00,0.00,0.00,-1778.00,14,19.00,15.00,34.95,-15.00,0.00,0.00,0,,,100,100,0,2,0,0,0,1,0,,,,,0.0,0.0,0.0,0.0,0.0,0.0,0
34.182576,-118.129091,6.23,6.56,3.13,11.94,6.23,6.23,5.66,11.94,8919,2022-06-07 23:40:32.975,2022-06-07 16:40:32.975,14,0,0,16.504,34.182609,-118.129085,-3.13,0.00,0.00,2.60,-1.40,-172.40,0,1,0,88,100,-7331,3062,16504,3101.50,10,WP,1,0,0,0,0,0,0,1654645232975,4150,4143,4136,4127,0,0,27,,,,,,,0,0,0,-26.00,-14.00,-1724.00,0.00,0.00,-1778.00,14,19.00,14.00,36.39,-14.00,0.00,0.00,0,,,100,100,0,2,0,0,0,1,0,,,,,0.0,0.0,0.0,0.0,0.0,0.0,0
34.182575,-118.129091,6.23,6.56,2.91,12.39,6.23,6.23,5.66,12.39,9020,2022-06-07 23:40:33.076,2022-06-07 16:40:33.076,14,0,0,16.504,34.182609,-118.129085,-2.91,0.00,0.00,1.60,-1.10,-172.60,0,1,0,88,100,-7331,3062,16504,3101.50,10,WP,1,0,0,0,0,0,0,1654645233076,4150,4143,4136,4127,0,0,27,,,,,,,0,0,0,-16.00,-11.00,-1726.00,0.00,0.00,-1778.00,14,19.00,13.00,37.75,-13.00,0.00,0.00,0,,,100,100,0,2,0,0,0,1,0,,,,,0.0,0.0,0.0,0.0,0.0,0.0,0
34.182574,-118.129091,6.23,6.56,2.68,12.78,6.23,6.23,5.66,12.78,9119,2022-06-07 23:40:33.175,2022-06-07 16:40:33.175,14,0,0,16.504,34.182609,-118.129085,-2.68,0.00,0.00,1.30,-0.20,-172.60,0,1,0,88,100,-7331,3062,16504,3101.50,10,WP,1,0,0,0,0,0,0,1654645233175,4150,4143,4136,4127,0,0,27,,,,,,,0,0,0,-13.00,-2.00,-1726.00,0.00,0.00,-1778.00,14,19.00,12.00,38.97,-12.00,0.00,0.00,0,,,100,100,0,2,0,0,0,1,0,,,,,0.0,0.0,0.0,0.0,0.0,0.0,0
34.182573,-118.129091,6.23,6.56,2.47,13.20,6.23,6.23,5.66,13.20,9218,2022-06-07 23:40:33.275,2022-06-07 16:40:33.275,14,0,0,16.504,34.182609,-118.129085,-2.46,0.22,0.00,1.40,1.70,-172.60,0,1,0,88,100,-7331,3062,16504,3101.50,10,WP,1,0,0,0,0,0,0,1654645233274,4150,4143,4136,4127,0,0,27,,,,,,,0,0,0,-14.00,17.00,-1726.00,0.00,0.00,-1778.00,14,19.00,11.05,40.23,-11.00,1.00,0.00,0,,,100,100,0,2,0,0,0,1,0,,,,,0.0,0.0,0.0,0.0,0.0,0.0,0
34.182572,-118.129091,6.23,6.56,2.25,13.54,6.23,6.23,5.66,13.54,9319,2022-06-07 23:40:33.375,2022-06-07 16:40:33.375,14,0,0,16.504,34.182609,-118.129085,-2.24,0.22,0.00,1.50,2.50,-172.50,0,1,0,88,100,-7331,3062,16504,3101.50,10,WP,1,0,0,0,0,0,0,1654645233375,4150,4143,4136,4127,0,0,27,,,,,,,0,0,0,-15.00,25.00,-1725.00,0.00,0.00,-1778.00,14,19.00,10.05,41.28,-10.00,1.00,0.00,0,,,100,100,0,2,0,0,0,1,0,,,,,0.0,0.0,0.0,0.0,0.0,0.0,0
34.182571,-118.129091,6.23,6.56,2.03,13.84,6.23,6.23,5.66,13.84,9419,2022-06-07 23:40:33.475,2022-06-07 16:40:33.475,14,0,0,16.504,34.182609,-118.129085,-2.01,0.22,0.00,0.80,2.90,-172.50,0,1,0,88,100,-7331,3062,16504,3101.50,10,WP,1,0,0,0,0,0,0,1654645233475,4150,4143,4136,4127,0,0,27,,,,,,,0,0,0,-8.00,29.00,-1725.00,0.00,0.00,-1778.00,14,19.00,9.06,42.20,-9.00,1.00,0.00,0,,,100,100,0,2,0,0,0,1,0,,,,,0.0,0.0,0.0,0.0,0.0,0.0,0
34.182570,-118.129091,6.23,6.56,2.03,14.14,6.23,6.23,5.66,14.14,9519,2022-06-07 23:40:33.575,2022-06-07 16:40:33.575,14,0,0,16.504,34.182609,-118.129085,-2.01,0.22,0.00,0.40,3.30,-172.50,0,1,0,88,100,-7331,3062,16504,3101.50,10,WP,1,0,0,0,0,0,0,1654645233575,4150,4143,4136,4127,0,0,27,,,,,,,0,0,0,-4.00,33.00,-1725.00,0.00,0.00,-1778.00,14,19.00,9.06,43.09,-9.00,1.00,0.00,0,,,100,100,0,2,0,0,0,1,0,,,,,0.0,0.0,0.0,0.0,0.0,0.0,0
34.182569,-118.129091,6.23,6.56,1.80,14.46,6.23,6.23,5.66,14.46,9619,2022-06-07 23:40:33.676,2022-06-07 16:40:33.676,14,0,0,16.504,34.182609,-118.129085,-1.79,0.22,0.00,0.20,4.00,-172.70,0,1,0,88,100,-7331,3062,16504,3101.50,10,WP,1,0,0,0,0,0,0,1654645233675,4150,4143,4136,4127,0,0,27,,,,,,,0,0,0,-2.00,40.00,-1727.00,0.00,0.00,-1778.00,14,19.00,8.06,44.08,-8.00,1.00,0.00,0,,,100,100,0,2,0,0,0,1,0,,,,,0.0,0.0,0.0,0.0,0.0,0.0,0
34.182568,-118.129090,6.23,6.56,1.58,14.72,6.23,6.23,5.66,14.72,9719,2022-06-07 23:40:33.775,2022-06-07 16:40:33.776,14,0,0,16.504,34.182609,-118.129085,-1.57,0.22,0.00,-0.10,4.10,-172.60,0,1,0,88,100,-7331,3062,16504,3101.50,10,WP,1,0,0,0,0,0,0,1654645233775,4150,4143,4136,4127,0,0,27,,,,,,,0,0,0,1.00,41.00,-1726.00,0.00,0.00,-1778.00,14,19.00,7.07,44.87,-7.00,1.00,0.00,0,,,100,100,0,2,0,0,0,1,0,,,,,0.0,0.0,0.0,0.0,0.0,0.0,0
34.182568,-118.129090,6.23,6.56,1.58,14.95,6.23,6.23,5.66,14.95,9820,2022-06-07 23:40:33.876,2022-06-07 16:40:33.877,14,0,0,16.504,34.182609,-118.129085,-1.57,0.22,0.00,-0.80,4.60,-172.70,0,1,0,88,100,-7331,3062,16504,3101.50,10,WP,1,0,0,0,0,0,0,1654645233876,4150,4143,4136,4127,0,0,27,,,,,,,0,0,0,8.00,46.00,-1727.00,0.00,0.00,-1778.00,14,19.00,7.07,45.57,-7.00,1.00,0.00,0,,,100,100,0,2,0,0,0,1,0,,,,,0.0,0.0,0.0,0.0,0.0,0.0,0
34.182567,-118.129090,6.23,6.56,1.58,15.18,6.23,6.23,5.66,15.18,9919,2022-06-07 23:40:33.975,2022-06-07 16:40:33.975,14,0,0,16.504,34.182609,-118.129085,-1.57,0.22,0.00,-0.90,4.90,-172.70,0,1,0,88,100,-7331,3062,16504,3101.50,10,WP,1,0,0,0,0,0,0,1654645233975,4150,4143,4136,4127,0,0,27,,,,,,,0,0,0,9.00,49.00,-1727.00,0.00,0.00,-1778.00,14,19.00,7.07,46.27,-7.00,1.00,0.00,0,,,100,100,0,2,0,0,0,1,0,,,,,0.0,0.0,0.0,0.0,0.0,0.0,0
34.182567,-118.129090,6.23,6.56,1.34,15.36,6.23,6.23,5.66,15.36,10019,2022-06-07 23:40:34.075,2022-06-07 16:40:34.075,14,0,0,16.504,34.182609,-118.129085,-1.34,0.00,0.00,-0.40,4.90,-172.80,0,1,0,88,100,-7331,3062,16504,3101.50,10,WP,1,0,0,0,0,0,0,1654645234075,4150,4143,4136,4127,0,0,27,,,,,,,0,0,0,4.00,49.00,-1728.00,0.00,0.00,-1778.00,14,19.00,6.00,46.82,-6.00,0.00,0.00,0,,,100,100,0,2,0,0,0,1,0,,,,,0.0,0.0,0.0,0.0,0.0,0.0,0
34.182566,-118.129090,6.23,6.56,1.34,15.56,6.23,6.23,5.66,15.56,10119,2022-06-07 23:40:34.176,2022-06-07 16:40:34.176,14,0,0,16.504,34.182609,-118.129085,-1.34,0.00,0.00,0.60,4.80,-172.70,0,1,0,88,100,-7331,3062,16504,3101.50,10,WP,1,0,0,0,0,0,0,1654645234175,4150,4143,4136,4127,0,0,27,,,,,,,0,0,0,-6.00,48.00,-1727.00,0.00,0.00,-1778.00,14,19.00,6.00,47.44,-6.00,0.00,0.00,0,,,100,100,0,2,0,0,0,1,0,,,,,0.0,0.0,0.0,0.0,0.0,0.0,0
34.182566,-118.129090,6.23,6.56,1.12,15.72,6.23,6.23,5.66,15.72,10220,2022-06-07 23:40:34.276,2022-06-07 16:40:34.276,14,0,0,16.504,34.182609,-118.129085,-1.12,0.00,0.00,1.20,4.60,-172.80,0,1,0,88,100,-7331,3062,16504,3101.50,10,WP,1,0,0,0,0,0,0,1654645234276,4150,4143,4136,4127,0,0,27,,,,,,,0,0,0,-12.00,46.00,-1728.00,0.00,0.00,-1778.00,14,19.00,5.00,47.92,-5.00,0.00,0.00,0,,,100,100,0,2,0,0,0,1,0,,,,,0.0,0.0,0.0,0.0,0.0,0.0,0
34.182565,-118.129090,6.23,6.89,0.89,15.88,6.23,6.23,5.66,15.88,10319,2022-06-07 23:40:34.375,2022-06-07 16:40:34.375,14,0,0,16.504,34.182609,-118.129085,-0.89,0.00,0.00,1.30,4.20,-172.70,0,1,0,88,100,-7331,3062,16504,3101.50,10,WP,1,0,0,0,0,0,0,1654645234375,4150,4143,4136,4127,0,0,27,,,,,,,0,0,0,-13.00,42.00,-1727.00,0.00,0.00,-1778.00,14,19.00,4.00,48.42,-4.00,0.00,0.00,0,,,100,100,0,2,0,0,0,1,0,,,,,0.0,0.0,0.0,0.0,0.0,0.0,0
34.182565,-118.129090,6.23,6.56,0.89,16.03,6.23,6.23,5.66,16.03,10419,2022-06-07 23:40:34.475,2022-06-07 16:40:34.475,14,0,0,16.504,34.182609,-118.129085,-0.89,0.00,0.00,1.40,3.90,-172.70,0,1,0,88,100,-7331,3062,16504,3101.50,10,WP,1,0,0,0,0,0,0,1654645234475,4150,4143,4136,4127,0,0,27,,,,,,,0,0,0,-14.00,39.00,-1727.00,0.00,0.00,-1778.00,14,19.00,4.00,48.85,-4.00,0.00,0.00,0,,,100,100,0,2,0,0,0,1,0,,,,,0.0,0.0,0.0,0.0,0.0,0.0,0
34.182564,-118.129090,6.23,6.56,0.67,16.14,6.23,6.23,5.66,16.14,10519,2022-06-07 23:40:34.576,2022-06-07 16:40:34.576,14,0,0,16.504,34.182609,-118.129085,-0.67,0.00,0.00,3.10,2.20,-172.70,0,1,0,88,100,-7331,3062,16504,3101.50,10,WP,1,0,0,0,0,0,0,1654645234575,4150,4143,4136,4127,0,0,27,,,,,,,0,0,0,-31.00,22.00,-1727.00,0.00,0.00,-1778.00,14,19.00,3.00,49.20,-3.00,0.00,0.00,0,,,100,100,0,2,0,0,0,1,0,,,,,0.0,0.0,0.0,0.0,0.0,0.0,0
34.182564,-118.129090,6.23,6.89,0.45,16.21,6.23,6.23,5.66,16.21,10569,2022-06-07 23:40:34.626,2022-06-07 16:40:34.626,14,0,0,16.504,34.182609,-118.129085,-0.45,0.00,0.00,3.70,1.20,-172.60,0,1,0,88,100,-7331,3062,16504,3101.50,10,WP,1,0,0,0,0,0,0,1654645234625,4150,4143,4136,4127,0,0,27,,,,,,,0,0,0,-37.00,12.00,-1726.00,0.00,0.00,-1778.00,14,19.00,2.00,49.41,-2.00,0.00,0.00,0,,,100,100,0,2,0,0,0,1,0,,,,,0.0,0.0,0.0,0.0,0.0,0.0,0
34.182564,-118.129090,6.23,6.89,0.00,16.25,6.23,6.23,5.66,16.25,10719,2022-06-07 23:40:34.776,2022-06-07 16:40:34.776,14,0,0,16.504,34.182609,-118.129085,0.00,0.00,0.00,1.70,1.30,-172.60,0,1,0,88,100,-7331,3062,16504,3101.50,10,WP,1,0,0,0,0,0,0,1654645234775,4150,4143,4136,4127,0,0,27,,,,,,,0,0,0,-17.00,13.00,-1726.00,0.00,0.00,-1778.00,14,19.00,0.00,49.55,0.00,0.00,0.00,0,,,100,100,0,2,0,0,0,1,0,,,,,0.0,0.0,0.0,0.0,0.0,0.0,0
34.182564,-118.129090,6.23,6.56,0.00,16.23,6.23,6.23,5.66,16.25,10819,2022-06-07 23:40:34.876,2022-06-07 16:40:34.876,14,0,0,16.509,34.182609,-118.129085,0.00,0.00,0.00,0.10,1.00,-170.40,0,1,0,88,100,-6853,3058,16509,3101.50,10,WP,1,0,0,0,0,0,0,1654645234875,4150,4143,4136,4127,0,0,27,,,,,,,0,0,0,-1.00,10.00,-1704.00,0.00,0.00,-1778.00,14,19.00,0.00,49.47,0.00,0.00,0.00,0,,,100,100,0,2,0,0,0,1,0,,,,,0.0,0.0,0.0,0.0,0.0,0.0,0
34.182564,-118.129090,6.23,6.56,0.00,16.22,6.23,6.23,5.66,16.25,10920,2022-06-07 23:40:34.976,2022-06-07 16:40:34.976,14,0,0,16.509,34.182609,-118.129085,0.00,0.00,0.00,-0.80,1.00,-163.10,0,1,0,88,100,-6853,3058,16509,3101.50,10,WP,1,0,0,0,0,0,0,1654645234976,4150,4143,4136,4127,0,0,27,,,,,,,0,0,0,8.00,10.00,-1631.00,0.00,0.00,-1771.00,14,19.00,0.00,49.45,0.00,0.00,0.00,0,,,100,100,0,2,0,0,0,1,0,,,,,0.0,0.0,0.0,0.0,0.0,0.0,0
34.182564,-118.129090,6.23,6.56,0.00,16.19,6.23,6.23,5.66,16.25,11019,2022-06-07 23:40:35.076,2022-06-07 16:40:35.076,14,0,0,16.509,34.182609,-118.129085,0.00,0.00,0.00,-1.40,1.20,-155.70,0,1,0,88,100,-6853,3058,16509,3101.50,10,WP,1,0,0,0,0,0,0,1654645235075,4150,4143,4136,4127,0,0,27,,,,,,,0,0,0,14.00,12.00,-1557.00,0.00,0.00,-1716.00,14,19.00,0.00,49.36,0.00,0.00,0.00,0,,,100,100,0,2,0,0,0,1,0,,,,,0.0,0.0,0.0,0.0,0.0,0.0,0
34.182564,-118.129090,6.23,6.56,0.22,16.16,6.23,6.23,5.66,16.25,11120,2022-06-07 23:40:35.177,2022-06-07 16:40:35.177,14,0,0,16.509,34.182609,-118.129085,0.22,0.00,0.00,-2.40,1.40,-148.50,0,1,0,88,100,-6853,3058,16509,3101.50,10,WP,1,0,0,0,0,0,0,1654645235176,4150,4143,4136,4127,0,0,27,,,,,,,0,0,0,24.00,14.00,-1485.00,0.00,0.00,-1635.00,14,19.00,1.00,49.25,1.00,0.00,0.00,0,,,100,100,0,2,0,0,0,1,0,,,,,0.0,0.0,0.0,0.0,0.0,0.0,0
34.182565,-118.129090,6.23,6.56,0.22,16.05,6.23,6.23,5.66,16.25,11220,2022-06-07 23:40:35.277,2022-06-07 16:40:35.277,14,0,0,16.509,34.182609,-118.129085,0.22,0.00,0.00,-3.40,0.30,-141.20,0,1,0,88,100,-6853,3058,16509,3101.50,10,WP,1,0,0,0,0,0,0,1654645235276,4150,4143,4136,4127,0,0,27,,,,,,,0,0,0,34.00,3.00,-1412.00,0.00,0.00,-1553.00,14,19.00,1.00,48.93,1.00,0.00,0.00,0,,,100,100,0,2,0,0,0,1,0,,,,,0.0,0.0,0.0,0.0,0.0,0.0,0
34.182565,-118.129090,6.23,6.56,0.32,15.99,6.23,6.23,5.66,16.25,11320,2022-06-07 23:40:35.377,2022-06-07 16:40:35.377,14,0,0,16.509,34.182609,-118.129085,0.22,-0.22,0.00,-3.30,-1.60,-134.00,0,1,0,88,100,-6853,3058,16509,3101.50,10,WP,1,0,0,0,0,0,0,1654645235376,4150,4143,4136,4127,0,0,27,,,,,,,0,0,0,33.00,-16.00,-1340.00,0.00,0.00,-1475.00,14,19.00,1.41,48.74,1.00,-1.00,0.00,0,,,100,100,0,2,0,0,0,1,0,,,,,0.0,0.0,0.0,0.0,0.0,0.0,0
34.182565,-118.129090,6.23,6.56,0.32,15.90,6.23,6.23,5.66,16.25,11420,2022-06-07 23:40:35.477,2022-06-07 16:40:35.477,14,0,0,16.509,34.182609,-118.129085,0.22,-0.22,0.00,-2.80,-3.10,-126.70,0,1,0,88,100,-6853,3058,16509,3101.50,10,WP,1,0,0,0,0,0,0,1654645235476,4150,4143,4136,4127,0,0,27,,,,,,,0,0,0,28.00,-31.00,-1267.00,0.00,0.00,-1399.00,14,19.00,1.41,48.47,1.00,-1.00,0.00,0,,,100,100,0,2,0,0,0,1,0,,,,,0.0,0.0,0.0,0.0,0.0,0.0,0
34.182565,-118.129090,5.91,6.56,0.32,15.84,6.23,6.23,5.66,16.25,11520,2022-06-07 23:40:35.576,2022-06-07 16:40:35.576,14,0,0,16.509,34.182609,-118.129085,0.22,-0.22,0.00,-2.30,-3.70,-119.50,0,1,0,88,100,-6853,3058,16509,3101.50,10,WP,1,0,0,0,0,0,0,1654645235576,4150,4143,4136,4127,0,0,27,,,,,,,0,0,0,23.00,-37.00,-1195.00,0.00,0.00,-1325.00,14,18.00,1.41,48.27,1.00,-1.00,0.00,0,,,100,100,0,2,0,0,0,1,0,,,,,0.0,0.0,0.0,0.0,0.0,0.0,0
34.182565,-118.129090,5.91,6.56,0.32,15.75,6.23,6.23,5.66,16.25,11620,2022-06-07 23:40:35.676,2022-06-07 16:40:35.676,14,0,0,16.509,34.182609,-118.129085,0.22,-0.22,0.00,-1.60,-4.00,-112.10,0,1,0,88,100,-6853,3058,16509,3101.50,10,WP,1,0,0,0,0,0,0,1654645235676,4150,4143,4136,4127,0,0,27,,,,,,,0,0,0,16.00,-40.00,-1121.00,0.00,0.00,-1249.00,14,18.00,1.41,48.00,1.00,-1.00,0.00,0,,,100,100,0,2,0,0,0,1,0,,,,,0.0,0.0,0.0,0.0,0.0,0.0,0
34.182566,-118.129090,5.91,6.56,0.32,15.69,6.23,6.23,5.66,16.25,11720,2022-06-07 23:40:35.776,2022-06-07 16:40:35.776,14,0,0,16.509,34.182609,-118.129085,0.22,-0.22,0.00,-1.20,-3.90,-104.70,0,1,0,88,100,-6853,3058,16509,3101.50,10,WP,1,0,0,0,0,0,0,1654645235776,4150,4143,4136,4127,0,0,27,,,,,,,0,0,0,12.00,-39.00,-1047.00,0.00,0.00,-1174.00,14,18.00,1.41,47.83,1.00,-1.00,0.00,0,,,100,100,0,2,0,0,0,1,0,,,,,0.0,0.0,0.0,0.0,0.0,0.0,0
34.182566,-118.129090,5.91,6.56,0.32,15.61,6.23,6.23,5.66,16.25,11820,2022-06-07 23:40:35.876,2022-06-07 16:40:35.876,14,0,0,16.509,34.182609,-118.129085,0.22,-0.22,0.00,-0.80,-4.00,-97.50,0,1,0,88,100,-6853,3058,16509,3101.50,10,WP,1,0,0,0,0,0,0,1654645235876,4150,4143,4136,4127,0,0,27,,,,,,,0,0,0,8.00,-40.00,-975.00,0.00,0.00,-1099.00,14,18.00,1.41,47.59,1.00,-1.00,0.00,0,,,100,100,0,2,0,0,0,1,0,,,,,0.0,0.0,0.0,0.0,0.0,0.0,0
34.182566,-118.129090,5.91,6.56,0.32,15.56,6.23,6.23,5.66,16.25,11921,2022-06-07 23:40:35.978,2022-06-07 16:40:35.978,14,0,0,16.509,34.182609,-118.129085,0.22,-0.22,0.00,0.00,-4.20,-90.30,0,1,0,88,100,-6853,3058,16509,3101.50,10,WP,1,0,0,0,0,0,0,1654645235977,4150,4143,4136,4127,0,0,27,,,,,,,0,0,0,-0.00,-42.00,-903.00,0.00,0.00,-1025.00,14,18.00,1.41,47.44,1.00,-1.00,0.00,0,,,100,100,0,2,0,0,0,1,0,,,,,0.0,0.0,0.0,0.0,0.0,0.0,0
34.182566,-118.129090,5.91,6.56,0.32,15.49,6.23,6.23,5.66,16.25,12021,2022-06-07 23:40:36.077,2022-06-07 16:40:36.077,14,0,0,16.509,34.182609,-118.129085,0.22,-0.22,0.00,0.50,-4.10,-83.10,0,1,0,88,100,-6853,3058,16509,3101.50,10,WP,1,0,0,0,0,0,0,1654645236077,4150,4143,4136,4127,0,0,27,,,,,,,0,0,0,-5.00,-41.00,-831.00,0.00,0.00,-953.00,14,18.00,1.41,47.20,1.00,-1.00,0.00,0,,,100,100,0,2,0,0,0,1,0,,,,,0.0,0.0,0.0,0.0,0.0,0.0,0
34.182566,-118.129090,5.91,6.23,0.22,15.44,6.23,6.23,5.66,16.25,12121,2022-06-07 23:40:36.177,2022-06-07 16:40:36.177,14,0,0,16.509,34.182609,-118.129085,0.22,0.00,0.00,1.30,-4.20,-75.90,0,1,0,88,100,-6853,3058,16509,3101.50,10,WP,1,0,0,0,0,0,0,1654645236177,4150,4143,4136,4127,0,0,27,,,,,,,0,0,0,-13.00,-42.00,-759.00,0.00,0.00,-880.00,14,18.00,1.00,47.05,1.00,0.00,0.00,0,,,100,100,0,2,0,0,0,1,0,,,,,0.0,0.0,0.0,0.0,0.0,0.0,0
34.182567,-118.129091,5.91,6.23,0.22,15.35,6.23,6.23,5.66,16.25,12220,2022-06-07 23:40:36.276,2022-06-07 16:40:36.276,14,0,0,16.509,34.182609,-118.129085,0.22,0.00,0.00,1.60,-4.30,-68.60,0,1,0,88,100,-6853,3058,16509,3101.50,10,WP,1,0,0,0,0,0,0,1654645236276,4150,4143,4136,4127,0,0,27,,,,,,,0,0,0,-16.00,-43.00,-686.00,0.00,0.00,-807.00,14,18.00,1.00,46.79,1.00,0.00,0.00,0,,,100,100,0,2,0,0,0,1,0,,,,,0.0,0.0,0.0,0.0,0.0,0.0,0
34.182567,-118.129091,5.91,6.23,0.00,15.31,6.23,6.23,5.66,16.25,12321,2022-06-07 23:40:36.377,2022-06-07 16:40:36.377,14,0,0,16.509,34.182609,-118.129085,0.00,0.00,0.00,1.90,-4.00,-61.20,0,1,0,88,100,-6853,3058,16509,3101.50,10,WP,1,0,0,0,0,0,0,1654645236377,4150,4143,4136,4127,0,0,27,,,,,,,0,0,0,-19.00,-40.00,-612.00,0.00,0.00,-733.00,14,18.00,0.00,46.65,0.00,0.00,0.00,0,,,100,100,0,2,0,0,0,1,0,,,,,0.0,0.0,0.0,0.0,0.0,0.0,0
34.182567,-118.129091,5.91,6.23,0.00,15.27,6.23,6.23,5.66,16.25,12421,2022-06-07 23:40:36.478,2022-06-07 16:40:36.478,14,0,0,16.509,34.182609,-118.129085,0.00,0.00,0.00,2.40,-3.50,-53.80,0,1,0,88,100,-6853,3058,16509,3101.50,10,WP,1,0,0,0,0,0,0,1654645236477,4150,4143,4136,4127,0,0,27,,,,,,,0,0,0,-24.00,-35.00,-538.00,0.00,0.00,-659.00,14,18.00,0.00,46.55,0.00,0.00,0.00,0,,,100,100,0,2,0,0,0,1,0,,,,,0.0,0.0,0.0,0.0,0.0,0.0,0
34.182567,-118.129091,5.91,6.23,0.00,15.23,6.23,6.23,5.66,16.25,12521,2022-06-07 23:40:36.577,2022-06-07 16:40:36.577,14,0,0,16.509,34.182609,-118.129085,0.00,0.00,0.00,3.10,-3.10,-46.50,0,1,0,88,100,-6853,3058,16509,3101.50,10,WP,1,0,0,0,0,0,0,1654645236577,4150,4143,4136,4127,0,0,27,,,,,,,0,0,0,-31.00,-31.00,-465.00,0.00,0.00,-586.00,14,18.00,0.00,46.43,0.00,0.00,0.00,0,,,100,100,0,2,0,0,0,1,0,,,,,0.0,0.0,0.0,0.0,0.0,0.0,0
34.182567,-118.129091,5.91,6.23,0.00,15.18,6.23,6.23,5.66,16.25,12622,2022-06-07 23:40:36.678,2022-06-07 16:40:36.678,14,0,0,16.509,34.182609,-118.129085,0.00,0.00,0.00,3.90,-2.30,-39.10,0,1,0,88,100,-6853,3058,16509,3101.50,10,WP,1,0,0,0,0,0,0,1654645236678,4150,4143,4136,4127,0,0,27,,,,,,,0,0,0,-39.00,-23.00,-391.00,0.00,0.00,-512.00,14,18.00,0.00,46.28,0.00,0.00,0.00,0,,,100,100,0,2,0,0,0,1,0,,,,,0.0,0.0,0.0,0.0,0.0,0.0,0
34.182567,-118.129091,5.91,6.23,0.00,15.15,6.23,6.23,5.66,16.25,12720,2022-06-07 23:40:36.777,2022-06-07 16:40:36.777,14,0,0,16.462,34.182609,-118.129085,0.00,0.00,0.00,4.20,-1.80,-31.80,0,1,0,88,100,-7183,3054,16462,3101.50,10,WP,1,0,0,0,0,0,0,1654645236776,4150,4143,4136,4127,0,0,27,,,,,,,0,0,0,-42.00,-18.00,-318.00,0.00,0.00,-438.00,14,18.00,0.00,46.18,0.00,0.00,0.00,0,,,100,100,0,2,0,0,0,1,0,,,,,0.0,0.0,0.0,0.0,0.0,0.0,0
34.182567,-118.129091,5.91,6.23,0.00,15.08,6.23,6.23,5.66,16.25,12823,2022-06-07 23:40:36.879,2022-06-07 16:40:36.879,14,0,0,16.462,34.182609,-118.129085,0.00,0.00,0.00,4.00,-1.20,-25.60,0,1,0,88,100,-7183,3054,16462,3101.50,10,WP,1,0,0,0,0,0,0,1654645236879,4150,4143,4136,4127,0,0,27,,,,,,,0,0,0,-40.00,-12.00,-256.00,0.00,0.00,-368.00,14,18.00,0.00,45.97,0.00,0.00,0.00,0,,,100,100,0,2,0,0,0,1,0,,,,,0.0,0.0,0.0,0.0,0.0,0.0,0
34.182567,-118.129091,5.91,6.23,0.00,15.05,6.23,6.23,5.66,16.25,12922,2022-06-07 23:40:36.979,2022-06-07 16:40:36.979,14,0,0,16.462,34.182609,-118.129085,0.00,0.00,0.00,3.90,-1.00,-20.70,0,1,0,88,100,-7183,3054,16462,3101.50,10,WP,1,0,0,0,0,0,0,1654645236978,4150,4143,4136,4127,0,0,27,,,,,,,0,0,0,-39.00,-10.00,-207.00,0.00,0.00,-308.00,14,18.00,0.00,45.89,0.00,0.00,0.00,0,,,100,100,0,2,0,0,0,1,0,,,,,0.0,0.0,0.0,0.0,0.0,0.0,0
34.182567,-118.129090,5.91,6.23,0.00,15.08,6.23,6.23,5.66,16.25,13021,2022-06-07 23:40:37.077,2022-06-07 16:40:37.077,14,0,0,16.462,34.182609,-118.129085,0.00,0.00,0.00,3.90,-1.30,-16.60,0,1,0,88,100,-7183,3054,16462,3101.50,10,WP,1,0,0,0,0,0,0,1654645237077,4150,4143,4136,4127,0,0,27,,,,,,,0,0,0,-39.00,-13.00,-166.00,0.00,0.00,-261.00,14,18.00,0.00,45.96,0.00,0.00,0.00,0,,,100,100,0,2,0,0,0,1,0,,,,,0.0,0.0,0.0,0.0,0.0,0.0,0
34.182567,-118.129090,5.91,6.23,0.00,15.06,6.23,6.23,5.66,16.25,13122,2022-06-07 23:40:37.178,2022-06-07 16:40:37.178,14,0,0,16.462,34.182609,-118.129085,0.00,0.00,0.00,3.90,-1.30,-13.70,0,1,0,88,100,-7183,3054,16462,3101.50,10,WP,1,0,0,0,0,0,0,1654645237178,4150,4143,4136,4127,0,0,27,,,,,,,0,0,0,-39.00,-13.00,-137.00,0.00,0.00,-224.00,14,18.00,0.00,45.91,0.00,0.00,0.00,0,,,100,100,0,2,0,0,0,1,0,,,,,0.0,0.0,0.0,0.0,0.0,0.0,0
34.182567,-118.129090,5.91,6.23,0.00,15.11,6.23,6.23,5.66,16.25,13221,2022-06-07 23:40:37.278,2022-06-07 16:40:37.278,14,0,0,16.462,34.182609,-118.129085,0.00,0.00,0.00,3.80,-1.30,-11.20,0,1,0,88,100,-7183,3054,16462,3101.50,10,WP,1,0,0,0,0,0,0,1654645237277,4150,4143,4136,4127,0,0,27,,,,,,,0,0,0,-38.00,-13.00,-112.00,0.00,0.00,-194.00,14,18.00,0.00,46.05,0.00,0.00,0.00,0,,,100,100,0,2,0,0,0,1,0,,,,,0.0,0.0,0.0,0.0,0.0,0.0,0
34.182567,-118.129090,5.91,6.23,0.00,15.10,6.23,6.23,5.66,16.25,13322,2022-06-07 23:40:37.378,2022-06-07 16:40:37.378,14,0,0,16.462,34.182609,-118.129085,0.00,0.00,0.00,3.50,-1.10,-9.00,0,1,0,88,100,-7183,3054,16462,3101.50,10,WP,1,0,0,0,0,0,0,1654645237378,4150,4143,4136,4127,0,0,27,,,,,,,0,0,0,-35.00,-11.00,-90.00,0.00,0.00,-170.00,14,18.00,0.00,46.03,0.00,0.00,0.00,0,,,100,100,0,2,0,0,0,1,0,,,,,0.0,0.0,0.0,0.0,0.0,0.0,0
34.182567,-118.129090,5.91,6.23,0.00,15.16,6.23,6.23,5.66,16.25,13421,2022-06-07 23:40:37.477,2022-06-07 16:40:37.478,14,0,0,16.462,34.182609,-118.129085,0.00,0.00,0.00,3.40,-1.20,-7.30,0,1,0,88,100,-7183,3054,16462,3101.50,10,WP,1,0,0,0,0,0,0,1654645237477,4150,4143,4136,4127,0,0,27,,,,,,,0,0,0,-34.00,-12.00,-73.00,0.00,0.00,-150.00,14,18.00,0.00,46.20,0.00,0.00,0.00,0,,,100,100,0,2,0,0,0,1,0,,,,,0.0,0.0,0.0,0.0,0.0,0.0,0
34.182567,-118.129090,5.91,6.23,0.00,15.16,6.23,6.23,5.66,16.25,13522,2022-06-07 23:40:37.578,2022-06-07 16:40:37.578,14,0,0,16.462,34.182609,-118.129085,0.00,0.00,0.00,3.10,-1.10,-5.90,0,1,0,88,100,-7183,3054,16462,3101.50,10,WP,1,0,0,0,0,0,0,1654645237578,4150,4143,4136,4127,0,0,27,,,,,,,0,0,0,-31.00,-11.00,-59.00,0.00,0.00,-133.00,14,18.00,0.00,46.22,0.00,0.00,0.00,0,,,100,100,0,2,0,0,0,1,0,,,,,0.0,0.0,0.0,0.0,0.0,0.0,0
