latitude,longitude,altitude(m),ultrasonicHeight(m),speed(mps),distance(m),max_altitude(m),max_ascent(m),max_speed(mps),max_distance(m),time(millisecond),datetime(utc),datetime(local),satellites,pressure(Pa),temperature(F),voltage(v),home_latitude,home_longitude,velocityX(mps),velocityY(mps),velocityZ(mps),pitch(deg),roll(deg),yaw(deg),powerlevel,isflying,istakingphoto,remainPowerPercent,remainLifePercent,currentCurrent,currentElectricity,currentVoltage,batteryTemperature,dischargeCount,flightmode,isMotorsOn,isTakingVideo,Rc_elevator,Rc_aileron,Rc_throttle,Rc_rudder,Rc_gyro,timestamp,Battery_Cell1,Battery_Cell2,Battery_Cell3,Battery_Cell4,Battery_Cell5,Battery_Cell6,Dronetype,AppVersion,Planename,FlyControllerSerialNumber,RemoteSerialNumber,BatterySerialNumber,CENTER_BATTERY.productDate,CENTER_BATTERY.serialNo,CENTER_BATTERY.fullCapacity,CENTER_BATTERY.productDateRaw,pitchRaw,rollRaw,yawRaw,gimbalPitchRaw,gimbalRollRaw,gimbalYawRaw,flyState,altitudeRaw,speedRaw,distanceRaw,velocityXRaw,velocityYRaw,velocityZRaw,data_reuse,App_Tip,App_Warning,downlinkSignalQuality,uplinkSignalQuality,transmissionChannel,rcModeSwitch,rcHome,rcPause,rcTransform,rcJoystickMode,appMode,FlyControllerSerialNumber_legacy,RemoteSerialNumber_legacy,BatterySerialNumber_legacy,Battery2SerialNumber,frontAvoidDist,backAvoidDist,rightAvoidDist,leftAvoidDist,upAvoidDist,downAvoidDist,isBrakingToAvoid
34.182638,-118.129102,0.30,0.40,0.42,0.17,0.30,0.30,0.42,0.17,1,2022-06-05 23:17:20.340,2022-06-05 16:17:20.340,16,0,0,15.085,34.182637,-118.129103,0.10,0.10,-0.40,2.00,-2.70,-18.70,0,1,0,43,100,-7450,1534,15085,3221.50,4,TakeOff,1,0,0,0,0,0,0,1654471040340,3805,3799,3802,3801,0,0,27,Litchi_iOS_2.14.0,Brian-MAVIC 2,163DFCK001S13F,1DUCFB800104PR,0P2AG3L53400KG,,0,3645,0,-20.00,-27.00,-187.00,0.00,0.00,-257.00,11,3.00,4.24,1.67,1.00,1.00,-4.00,0,,,100,100,0,2,0,0,0,1,0,(null),(null),,,0.0,0.0,0.0,0.0,0.0,0.0,0
34.182639,-118.129102,0.40,0.40,0.41,0.20,0.40,0.40,0.42,0.20,99,2022-06-05 23:17:20.439,2022-06-05 16:17:20.439,16,0,0,15.085,34.182637,-118.129103,0.10,0.00,-0.40,2.00,-2.60,-18.70,0,1,0,43,100,-7450,1534,15085,3221.50,4,TakeOff,1,0,0,0,0,0,0,1654471040438,3805,3799,3802,3801,0,0,27,,,,,,,0,0,0,-20.00,-26.00,-187.00,0.00,0.00,-257.00,11,4.00,4.12,2.02,1.00,0.00,-4.00,0,,,100,100,0,2,0,0,0,1,0,,,,,0.0,0.0,0.0,0.0,0.0,0.0,0
34.182639,-118.129102,0.40,0.50,0.51,0.22,0.40,0.40,0.51,0.22,196,2022-06-05 23:17:20.535,2022-06-05 16:17:20.535,16,0,0,15.085,34.182637,-118.129103,0.10,0.00,-0.50,2.50,-2.80,-18.70,0,1,0,43,100,-7450,1534,15085,3221.50,4,TakeOff,1,0,0,0,0,0,0,1654471040535,3805,3799,3802,3801,0,0,27,,,,,,,0,0,0,-25.00,-28.00,-187.00,0.00,0.00,-257.00,11,4.00,5.10,2.22,1.00,0.00,-5.00,0,,,100,100,0,2,0,0,0,1,0,,,,,0.0,0.0,0.0,0.0,0.0,0.0,0
34.182639,-118.129102,0.50,0.50,0.51,0.23,0.50,0.50,0.51,0.23,299,2022-06-05 23:17:20.639,2022-06-05 16:17:20.639,16,0,0,15.085,34.182637,-118.129103,0.10,0.00,-0.50,2.70,-2.80,-18.80,0,1,0,43,100,-7450,1534,15085,3221.50,4,TakeOff,1,0,0,0,0,0,0,1654471040638,3805,3799,3802,3801,0,0,27,,,,,,,0,0,0,-27.00,-28.00,-188.00,0.00,0.00,-257.00,11,5.00,5.10,2.35,1.00,0.00,-5.00,0,,,100,100,0,2,0,0,0,1,0,,,,,0.0,0.0,0.0,0.0,0.0,0.0,0
34.182639,-118.129102,0.50,0.60,0.51,0.25,0.50,0.50,0.51,0.25,399,2022-06-05 23:17:20.738,2022-06-05 16:17:20.738,16,0,0,15.085,34.182637,-118.129103,0.10,0.00,-0.50,2.70,-2.50,-18.90,0,1,0,43,100,-7450,1534,15085,3221.50,4,TakeOff,1,0,0,0,0,0,0,1654471040738,3805,3799,3802,3801,0,0,27,,,,,,,0,0,0,-27.00,-25.00,-189.00,0.00,0.00,-257.00,11,5.00,5.10,2.52,1.00,0.00,-5.00,0,,,100,100,0,2,0,0,0,1,0,,,,,0.0,0.0,0.0,0.0,0.0,0.0,0
34.182639,-118.129102,0.60,0.60,0.51,0.27,0.60,0.60,0.51,0.27,499,2022-06-05 23:17:20.839,2022-06-05 16:17:20.839,16,0,0,15.085,34.182637,-118.129103,0.10,0.00,-0.50,2.80,-2.30,-19.00,0,1,0,43,100,-7450,1534,15085,3221.50,4,TakeOff,1,0,0,0,0,0,0,1654471040838,3805,3799,3802,3801,0,0,27,,,,,,,0,0,0,-28.00,-23.00,-190.00,0.00,0.00,-257.00,11,6.00,5.10,2.71,1.00,0.00,-5.00,0,,,100,100,0,2,0,0,0,1,0,,,,,0.0,0.0,0.0,0.0,0.0,0.0,0
34.182639,-118.129102,0.60,0.70,0.51,0.29,0.60,0.60,0.51,0.29,600,2022-06-05 23:17:20.940,2022-06-05 16:17:20.940,16,0,0,15.085,34.182637,-118.129103,0.10,0.00,-0.50,2.80,-2.30,-19.00,0,1,0,43,100,-7450,1534,15085,3221.50,4,TakeOff,1,0,0,0,0,0,0,1654471040939,3805,3799,3802,3801,0,0,27,,,,,,,0,0,0,-28.00,-23.00,-190.00,0.00,0.00,-257.00,11,6.00,5.10,2.86,1.00,0.00,-5.00,0,,,100,100,0,2,0,0,0,1,0,,,,,0.0,0.0,0.0,0.0,0.0,0.0,0
34.182639,-118.129102,0.70,0.70,0.51,0.29,0.70,0.70,0.51,0.29,700,2022-06-05 23:17:21.039,2022-06-05 16:17:21.039,16,0,0,15.085,34.182637,-118.129103,0.10,0.00,-0.50,2.70,-2.30,-18.90,0,1,0,43,100,-7450,1534,15085,3221.50,4,TakeOff,1,0,0,0,0,0,0,1654471041039,3805,3799,3802,3801,0,0,27,,,,,,,0,0,0,-27.00,-23.00,-189.00,0.00,0.00,-257.00,11,7.00,5.10,2.95,1.00,0.00,-5.00,0,,,100,100,0,2,0,0,0,1,0,,,,,0.0,0.0,0.0,0.0,0.0,0.0,0
34.182639,-118.129102,0.70,0.80,0.51,0.31,0.70,0.70,0.51,0.31,805,2022-06-05 23:17:21.145,2022-06-05 16:17:21.145,16,0,0,15.085,34.182637,-118.129103,0.10,0.00,-0.50,2.90,-2.30,-19.00,0,1,0,43,100,-7450,1534,15085,3221.50,4,TakeOff,1,0,0,0,0,0,0,1654471041144,3805,3799,3802,3801,0,0,27,,,,,,,0,0,0,-29.00,-23.00,-190.00,0.00,0.00,-257.00,11,7.00,5.10,3.07,1.00,0.00,-5.00,0,,,100,100,0,2,0,0,0,1,0,,,,,0.0,0.0,0.0,0.0,0.0,0.0,0
34.182640,-118.129102,0.80,0.80,0.41,0.33,0.80,0.80,0.51,0.33,900,2022-06-05 23:17:21.239,2022-06-05 16:17:21.239,16,0,0,15.085,34.182637,-118.129103,0.10,0.00,-0.40,3.10,-2.10,-19.00,0,1,0,43,100,-7450,1534,15085,3221.50,4,TakeOff,1,0,0,0,0,0,0,1654471041239,3805,3799,3802,3801,0,0,27,,,,,,,0,0,0,-31.00,-21.00,-190.00,0.00,0.00,-257.00,11,8.00,4.12,3.34,1.00,0.00,-4.00,0,,,100,100,0,2,0,0,0,1,0,,,,,0.0,0.0,0.0,0.0,0.0,0.0,0
34.182640,-118.129102,0.80,0.90,0.41,0.35,0.80,0.80,0.51,0.35,1001,2022-06-05 23:17:21.341,2022-06-05 16:17:21.341,16,0,0,15.085,34.182637,-118.129103,0.10,0.00,-0.40,3.40,-2.00,-19.00,0,1,0,43,100,-7450,1534,15085,3221.50,4,TakeOff,1,0,0,0,0,0,0,1654471041340,3805,3799,3802,3801,0,0,27,,,,,,,0,0,0,-34.00,-20.00,-190.00,0.00,0.00,-257.00,11,8.00,4.12,3.47,1.00,0.00,-4.00,0,,,100,100,0,2,0,0,0,1,0,,,,,0.0,0.0,0.0,0.0,0.0,0.0,0
34.182640,-118.129102,0.90,0.90,0.41,0.35,0.90,0.90,0.51,0.35,1100,2022-06-05 23:17:21.440,2022-06-05 16:17:21.440,16,0,0,15.085,34.182637,-118.129103,0.10,0.00,-0.40,3.50,-1.90,-19.00,0,1,0,43,100,-7450,1534,15085,3221.50,4,TakeOff,1,0,0,0,0,0,0,1654471041439,3805,3799,3802,3801,0,0,27,,,,,,,0,0,0,-35.00,-19.00,-190.00,0.00,0.00,-257.00,11,9.00,4.12,3.50,1.00,0.00,-4.00,0,,,100,100,0,2,0,0,0,1,0,,,,,0.0,0.0,0.0,0.0,0.0,0.0,0
34.182640,-118.129102,0.90,1.00,0.50,0.36,0.90,0.90,0.51,0.36,1199,2022-06-05 23:17:21.539,2022-06-05 16:17:21.539,16,0,0,15.085,34.182637,-118.129103,0.00,0.00,-0.50,3.40,-2.00,-18.90,0,1,0,43,100,-7450,1534,15085,3221.50,4,TakeOff,1,0,0,0,0,0,0,1654471041538,3805,3799,3802,3801,0,0,27,,,,,,,0,0,0,-34.00,-20.00,-189.00,0.00,0.00,-257.00,11,9.00,5.00,3.59,0.00,0.00,-5.00,0,,,100,100,0,2,0,0,0,1,0,,,,,0.0,0.0,0.0,0.0,0.0,0.0,0
34.182640,-118.129102,1.00,1.00,0.50,0.39,1.00,1.00,0.51,0.39,1300,2022-06-05 23:17:21.639,2022-06-05 16:17:21.639,16,0,0,15.085,34.182637,-118.129103,0.00,0.00,-0.50,3.40,-2.00,-19.00,0,1,0,43,100,-7450,1534,15085,3221.50,4,TakeOff,1,0,0,0,0,0,0,1654471041639,3805,3799,3802,3801,0,0,27,,,,,,,0,0,0,-34.00,-20.00,-190.00,0.00,0.00,-257.00,11,10.00,5.00,3.88,0.00,0.00,-5.00,0,,,100,100,0,2,0,0,0,1,0,,,,,0.0,0.0,0.0,0.0,0.0,0.0,0
34.182640,-118.129102,1.00,1.10,0.40,0.40,1.00,1.00,0.51,0.40,1402,2022-06-05 23:17:21.742,2022-06-05 16:17:21.742,16,0,0,15.085,34.182637,-118.129103,0.00,0.00,-0.40,3.40,-1.90,-19.00,0,1,0,43,100,-7450,1534,15085,3221.50,4,GPS,1,0,0,0,0,0,0,1654471041741,3805,3799,3802,3801,0,0,27,,,,,,,0,0,0,-34.00,-19.00,-190.00,0.00,0.00,-257.00,6,10.00,4.00,3.97,0.00,0.00,-4.00,0,,,100,100,0,2,0,0,0,1,0,,,,,0.0,0.0,0.0,0.0,0.0,0.0,0
34.182640,-118.129102,1.10,1.10,0.40,0.40,1.10,1.10,0.51,0.40,1500,2022-06-05 23:17:21.840,2022-06-05 16:17:21.840,16,0,0,15.085,34.182637,-118.129103,0.00,0.00,-0.40,2.00,-1.20,-19.10,0,1,0,43,100,-7450,1534,15085,3221.50,4,WP,1,0,0,0,0,0,0,1654471041839,3805,3799,3802,3801,0,0,27,,,,,,,0,0,0,-20.00,-12.00,-191.00,0.00,0.00,-257.00,14,11.00,4.00,3.98,0.00,0.00,-4.00,0,,,100,100,0,2,0,0,0,1,0,,,,,0.0,0.0,0.0,0.0,0.0,0.0,0
34.182640,-118.129102,1.10,1.20,0.40,0.41,1.10,1.10,0.51,0.41,1601,2022-06-05 23:17:21.940,2022-06-05 16:17:21.941,16,0,0,15.085,34.182637,-118.129103,0.00,0.00,-0.40,2.10,-1.10,-19.00,0,1,0,43,100,-7450,1534,15085,3221.50,4,WP,1,0,0,0,0,0,0,1654471041940,3805,3799,3802,3801,0,0,27,,,,,,,0,0,0,-21.00,-11.00,-190.00,0.00,0.00,-257.00,14,11.00,4.00,4.07,0.00,0.00,-4.00,0,,,100,100,0,2,0,0,0,1,0,,,,,0.0,0.0,0.0,0.0,0.0,0.0,0
34.182641,-118.129102,1.20,1.20,0.41,0.42,1.20,1.20,0.51,0.42,1700,2022-06-05 23:17:22.040,2022-06-05 16:17:22.040,16,0,0,15.085,34.182637,-118.129103,0.10,0.00,-0.40,2.50,-1.50,-19.10,0,1,0,43,100,-7450,1534,15085,3221.50,4,WP,1,0,0,0,0,0,0,1654471042039,3805,3799,3802,3801,0,0,27,,,,,,,0,0,0,-25.00,-15.00,-191.00,0.00,0.00,-257.00,14,12.00,4.12,4.24,1.00,0.00,-4.00,0,,,100,100,0,2,0,0,0,1,0,,,,,0.0,0.0,0.0,0.0,0.0,0.0,0
34.182641,-118.129102,1.20,1.30,0.41,0.44,1.20,1.20,0.51,0.44,1805,2022-06-05 23:17:22.145,2022-06-05 16:17:22.145,16,0,0,15.070,34.182637,-118.129103,0.10,0.00,-0.40,3.20,-1.90,-19.10,0,1,0,43,100,-8365,1532,15070,3221.50,4,WP,1,0,0,0,0,0,0,1654471042144,3805,3799,3802,3801,0,0,27,,,,,,,0,0,0,-32.00,-19.00,-191.00,0.00,0.00,-257.00,14,12.00,4.12,4.37,1.00,0.00,-4.00,0,,,100,100,0,2,0,0,0,1,0,,,,,0.0,0.0,0.0,0.0,0.0,0.0,0
34.182641,-118.129102,1.20,1.30,0.40,0.42,1.20,1.20,0.51,0.44,1900,2022-06-05 23:17:22.239,2022-06-05 16:17:22.239,16,0,0,15.070,34.182637,-118.129103,0.00,0.00,-0.40,3.40,-2.10,-19.20,0,1,0,43,100,-8365,1532,15070,3221.50,4,WP,1,0,0,0,0,0,0,1654471042239,3805,3799,3802,3801,0,0,27,,,,,,,0,0,0,-34.00,-21.00,-192.00,0.00,0.00,-257.00,14,12.00,4.00,4.24,0.00,0.00,-4.00,0,,,100,100,0,2,0,0,0,1,0,,,,,0.0,0.0,0.0,0.0,0.0,0.0,0
34.182641,-118.129102,1.30,1.40,0.40,0.43,1.30,1.30,0.51,0.44,2000,2022-06-05 23:17:22.339,2022-06-05 16:17:22.339,16,0,0,15.070,34.182637,-118.129103,0.00,0.00,-0.40,3.20,-2.30,-19.30,0,1,0,43,100,-8365,1532,15070,3221.50,4,WP,1,0,0,0,0,0,0,1654471042339,3805,3799,3802,3801,0,0,27,,,,,,,0,0,0,-32.00,-23.00,-193.00,0.00,0.00,-257.00,14,13.00,4.00,4.34,0.00,0.00,-4.00,0,,,100,100,0,2,0,0,0,1,0,,,,,0.0,0.0,0.0,0.0,0.0,0.0,0
34.182641,-118.129101,1.30,1.40,0.40,0.46,1.30,1.30,0.51,0.46,2101,2022-06-05 23:17:22.440,2022-06-05 16:17:22.440,16,0,0,15.070,34.182637,-118.129103,0.00,0.00,-0.40,3.20,-2.50,-19.10,0,1,0,43,100,-8365,1532,15070,3221.50,4,WP,1,0,0,0,0,0,0,1654471042440,3805,3799,3802,3801,0,0,27,,,,,,,0,0,0,-32.00,-25.00,-191.00,0.00,0.00,-257.00,14,13.00,4.00,4.55,0.00,0.00,-4.00,0,,,100,100,0,2,0,0,0,1,0,,,,,0.0,0.0,0.0,0.0,0.0,0.0,0
34.182641,-118.129101,1.40,1.40,0.40,0.46,1.40,1.40,0.51,0.46,2201,2022-06-05 23:17:22.540,2022-06-05 16:17:22.540,16,0,0,15.070,34.182637,-118.129103,0.00,0.00,-0.40,3.20,-2.70,-19.10,0,1,0,43,100,-8365,1532,15070,3221.50,4,WP,1,0,0,0,0,0,0,1654471042540,3805,3799,3802,3801,0,0,27,,,,,,,0,0,0,-32.00,-27.00,-191.00,0.00,0.00,-257.00,14,14.00,4.00,4.65,0.00,0.00,-4.00,0,,,100,100,0,2,0,0,0,1,0,,,,,0.0,0.0,0.0,0.0,0.0,0.0,0
34.182641,-118.129101,1.40,1.50,0.40,0.44,1.40,1.40,0.51,0.46,2300,2022-06-05 23:17:22.640,2022-06-05 16:17:22.640,16,0,0,15.070,34.182637,-118.129103,0.00,0.00,-0.40,3.10,-2.70,-19.20,0,1,0,43,100,-8365,1532,15070,3221.50,4,WP,1,0,0,0,0,0,0,1654471042639,3805,3799,3802,3801,0,0,27,,,,,,,0,0,0,-31.00,-27.00,-192.00,0.00,0.00,-257.00,14,14.00,4.00,4.43,0.00,0.00,-4.00,0,,,100,100,0,2,0,0,0,1,0,,,,,0.0,0.0,0.0,0.0,0.0,0.0,0
34.182641,-118.129101,1.50,1.50,0.40,0.45,1.50,1.50,0.51,0.46,2401,2022-06-05 23:17:22.740,2022-06-05 16:17:22.740,16,0,0,15.070,34.182637,-118.129103,0.00,0.00,-0.40,2.80,-2.20,-19.20,0,1,0,43,100,-8365,1532,15070,3221.50,4,WP,1,0,0,0,0,0,0,1654471042740,3805,3799,3802,3801,0,0,27,,,,,,,0,0,0,-28.00,-22.00,-192.00,0.00,0.00,-257.00,14,15.00,4.00,4.47,0.00,0.00,-4.00,0,,,100,100,0,2,0,0,0,1,0,,,,,0.0,0.0,0.0,0.0,0.0,0.0,0
34.182641,-118.129101,1.50,1.60,0.50,0.48,1.50,1.50,0.51,0.48,2501,2022-06-05 23:17:22.840,2022-06-05 16:17:22.840,16,0,0,15.070,34.182637,-118.129103,0.00,0.00,-0.50,3.00,-1.80,-19.20,0,1,0,43,100,-8365,1532,15070,3221.50,4,WP,1,0,0,0,0,0,0,1654471042840,3805,3799,3802,3801,0,0,27,,,,,,,0,0,0,-30.00,-18.00,-192.00,0.00,0.00,-257.00,14,15.00,5.00,4.77,0.00,0.00,-5.00,0,,,100,100,0,2,0,0,0,1,0,,,,,0.0,0.0,0.0,0.0,0.0,0.0,0
34.182641,-118.129101,1.60,1.60,0.60,0.48,1.60,1.60,0.60,0.48,2600,2022-06-05 23:17:22.940,2022-06-05 16:17:22.940,16,0,0,15.070,34.182637,-118.129103,0.00,0.00,-0.60,3.40,-2.00,-19.20,0,1,0,43,100,-8365,1532,15070,3221.50,4,WP,1,0,0,0,0,0,0,1654471042939,3805,3799,3802,3801,0,0,27,,,,,,,0,0,0,-34.00,-20.00,-192.00,0.00,0.00,-257.00,14,16.00,6.00,4.83,0.00,0.00,-6.00,0,,,100,100,0,2,0,0,0,1,0,,,,,0.0,0.0,0.0,0.0,0.0,0.0,0
34.182641,-118.129101,1.70,1.70,0.60,0.48,1.70,1.70,0.60,0.48,2701,2022-06-05 23:17:23.041,2022-06-05 16:17:23.041,16,0,0,15.070,34.182637,-118.129103,0.00,0.00,-0.60,3.70,-2.00,-19.20,0,1,0,43,100,-8365,1532,15070,3221.50,4,WP,1,0,0,0,0,0,0,1654471043040,3805,3799,3802,3801,0,0,27,,,,,,,0,0,0,-37.00,-20.00,-192.00,0.00,0.00,-257.00,14,17.00,6.00,4.82,0.00,0.00,-6.00,0,,,100,100,0,2,0,0,0,1,0,,,,,0.0,0.0,0.0,0.0,0.0,0.0,0
34.182641,-118.129101,1.70,1.80,0.70,0.48,1.70,1.70,0.70,0.48,2802,2022-06-05 23:17:23.142,2022-06-05 16:17:23.142,16,0,0,15.070,34.182637,-118.129103,0.00,0.00,-0.70,3.80,-1.30,-19.30,0,1,0,43,100,-8365,1532,15070,3221.50,4,WP,1,0,0,0,0,0,0,1654471043141,3805,3799,3802,3801,0,0,27,,,,,,,0,0,0,-38.00,-13.00,-193.00,0.00,0.00,-257.00,14,17.00,7.00,4.84,0.00,0.00,-7.00,0,,,100,100,0,2,0,0,0,1,0,,,,,0.0,0.0,0.0,0.0,0.0,0.0,0
34.182641,-118.129101,1.80,1.80,0.80,0.49,1.80,1.80,0.80,0.49,2901,2022-06-05 23:17:23.240,2022-06-05 16:17:23.240,16,0,0,15.070,34.182637,-118.129103,0.00,0.00,-0.80,3.80,-1.00,-19.20,0,1,0,43,100,-8365,1532,15070,3221.50,4,WP,1,0,0,0,0,0,0,1654471043240,3805,3799,3802,3801,0,0,27,,,,,,,0,0,0,-38.00,-10.00,-192.00,0.00,0.00,-257.00,14,18.00,8.00,4.85,0.00,0.00,-8.00,0,,,100,100,0,2,0,0,0,1,0,,,,,0.0,0.0,0.0,0.0,0.0,0.0,0
34.182641,-118.129101,1.90,1.90,0.90,0.49,1.90,1.90,0.90,0.49,3003,2022-06-05 23:17:23.342,2022-06-05 16:17:23.342,16,0,0,15.070,34.182637,-118.129103,0.00,0.00,-0.90,3.70,-1.30,-19.20,0,1,0,43,100,-8365,1532,15070,3221.50,4,WP,1,0,0,0,0,0,0,1654471043342,3805,3799,3802,3801,0,0,27,,,,,,,0,0,0,-37.00,-13.00,-192.00,0.00,0.00,-257.00,14,19.00,9.00,4.86,0.00,0.00,-9.00,0,,,100,100,0,2,0,0,0,1,0,,,,,0.0,0.0,0.0,0.0,0.0,0.0,0
34.182641,-118.129101,2.00,2.00,0.80,0.49,2.00,2.00,0.90,0.49,3103,2022-06-05 23:17:23.442,2022-06-05 16:17:23.442,16,0,0,15.070,34.182637,-118.129103,0.00,0.00,-0.80,3.40,-1.70,-19.20,0,1,0,43,100,-8365,1532,15070,3221.50,4,WP,1,0,0,0,0,0,0,1654471043442,3805,3799,3802,3801,0,0,27,,,,,,,0,0,0,-34.00,-17.00,-192.00,0.00,0.00,-257.00,14,20.00,8.00,4.89,0.00,0.00,-8.00,0,,,100,100,0,2,0,0,0,1,0,,,,,0.0,0.0,0.0,0.0,0.0,0.0,0
34.182641,-118.129101,2.10,2.10,0.80,0.49,2.10,2.10,0.90,0.49,3203,2022-06-05 23:17:23.542,2022-06-05 16:17:23.542,16,0,0,15.070,34.182637,-118.129103,0.00,0.00,-0.80,3.20,-2.00,-19.20,0,1,0,43,100,-8365,1532,15070,3221.50,4,WP,1,0,0,0,0,0,0,1654471043542,3805,3799,3802,3801,0,0,27,,,,,,,0,0,0,-32.00,-20.00,-192.00,0.00,0.00,-257.00,14,21.00,8.00,4.87,0.00,0.00,-8.00,0,,,100,100,0,2,0,0,0,1,0,,,,,0.0,0.0,0.0,0.0,0.0,0.0,0
34.182641,-118.129101,2.20,2.20,0.80,0.46,2.20,2.20,0.90,0.49,3302,2022-06-05 23:17:23.641,2022-06-05 16:17:23.641,16,0,0,15.070,34.182637,-118.129103,0.00,0.00,-0.80,2.70,-1.70,-19.00,0,1,0,43,100,-8365,1532,15070,3221.50,4,WP,1,0,0,0,0,0,0,1654471043641,3805,3799,3802,3801,0,0,27,,,,,,,0,0,0,-27.00,-17.00,-190.00,0.00,0.00,-257.00,14,22.00,8.00,4.62,0.00,0.00,-8.00,0,,,100,100,0,2,0,0,0,1,0,,,,,0.0,0.0,0.0,0.0,0.0,0.0,0
34.182641,-118.129101,2.20,2.20,0.60,0.46,2.20,2.20,0.90,0.49,3403,2022-06-05 23:17:23.742,2022-06-05 16:17:23.742,16,0,0,15.070,34.182637,-118.129103,0.00,0.00,-0.60,1.10,-0.40,-19.20,0,1,0,43,100,-8365,1532,15070,3221.50,4,WP,1,0,0,0,0,0,0,1654471043742,3805,3799,3802,3801,0,0,27,,,,,,,0,0,0,-11.00,-4.00,-192.00,0.00,0.00,-257.00,14,22.00,6.00,4.58,0.00,0.00,-6.00,0,,,100,100,0,2,0,0,0,1,0,,,,,0.0,0.0,0.0,0.0,0.0,0.0,0
34.182641,-118.129102,2.30,2.30,0.40,0.47,2.30,2.30,0.90,0.49,3503,2022-06-05 23:17:23.842,2022-06-05 16:17:23.842,16,0,0,15.070,34.182637,-118.129103,0.00,0.00,-0.40,1.50,-1.00,-20.10,0,1,0,43,100,-8365,1532,15070,3221.50,4,WP,1,0,0,0,0,0,0,1654471043842,3805,3799,3802,3801,0,0,27,,,,,,,0,0,0,-15.00,-10.00,-201.00,0.00,0.00,-257.00,14,23.00,4.00,4.73,0.00,0.00,-4.00,0,,,100,100,0,2,0,0,0,1,0,,,,,0.0,0.0,0.0,0.0,0.0,0.0,0
34.182641,-118.129102,2.30,2.30,0.20,0.48,2.30,2.30,0.90,0.49,3602,2022-06-05 23:17:23.942,2022-06-05 16:17:23.942,16,0,0,15.070,34.182637,-118.129103,0.00,0.00,-0.20,1.80,-1.50,-21.60,0,1,0,43,100,-8365,1532,15070,3221.50,4,WP,1,0,0,0,0,0,0,1654471043941,3805,3799,3802,3801,0,0,27,,,,,,,0,0,0,-18.00,-15.00,-216.00,0.00,0.00,-258.00,14,23.00,2.00,4.76,0.00,0.00,-2.00,0,,,100,100,0,2,0,0,0,1,0,,,,,0.0,0.0,0.0,0.0,0.0,0.0,0
34.182641,-118.129102,2.30,2.30,0.10,0.47,2.30,2.30,0.90,0.49,3702,2022-06-05 23:17:24.042,2022-06-05 16:17:24.042,16,0,0,15.040,34.182637,-118.129103,0.00,0.00,-0.10,1.80,-1.80,-23.60,0,1,0,42,100,-8621,1527,15040,3221.50,4,WP,1,0,0,0,0,0,0,1654471044041,3805,3799,3802,3801,0,0,27,,,,,,,0,0,0,-18.00,-18.00,-236.00,0.00,0.00,-263.00,14,23.00,1.00,4.73,0.00,0.00,-1.00,0,,,100,100,0,2,0,0,0,1,0,,,,,0.0,0.0,0.0,0.0,0.0,0.0,0
34.182641,-118.129102,2.40,2.30,0.00,0.48,2.40,2.40,0.90,0.49,3805,2022-06-05 23:17:24.144,2022-06-05 16:17:24.144,16,0,0,15.040,34.182637,-118.129103,0.00,0.00,0.00,1.80,-1.90,-26.20,0,1,0,42,100,-8621,1527,15040,3221.50,4,WP,1,0,0,0,0,0,0,1654471044144,3805,3799,3802,3801,0,0,27,,,,,,,0,0,0,-18.00,-19.00,-262.00,0.00,0.00,-277.00,14,24.00,0.00,4.77,0.00,0.00,0.00,0,,,100,100,0,2,0,0,0,1,0,,,,,0.0,0.0,0.0,0.0,0.0,0.0,0
34.182641,-118.129101,2.40,2.30,0.00,0.47,2.40,2.40,0.90,0.49,3902,2022-06-05 23:17:24.241,2022-06-05 16:17:24.241,16,0,0,15.040,34.182637,-118.129103,0.00,0.00,0.00,1.70,-2.00,-29.20,0,1,0,42,100,-8621,1527,15040,3221.50,4,WP,1,0,0,0,0,0,0,1654471044241,3805,3799,3802,3801,0,0,27,,,,,,,0,0,0,-17.00,-20.00,-292.00,0.00,0.00,-300.00,14,24.00,0.00,4.72,0.00,0.00,0.00,0,,,100,100,0,2,0,0,0,1,0,,,,,0.0,0.0,0.0,0.0,0.0,0.0,0
34.182641,-118.129101,2.30,2.30,0.00,0.48,2.40,2.40,0.90,0.49,4002,2022-06-05 23:17:24.342,2022-06-05 16:17:24.342,16,0,0,15.040,34.182637,-118.129103,0.00,0.00,0.00,1.70,-2.50,-32.80,0,1,0,42,100,-8621,1527,15040,3221.50,4,WP,1,0,0,0,0,0,0,1654471044341,3805,3799,3802,3801,0,0,27,,,,,,,0,0,0,-17.00,-25.00,-328.00,0.00,0.00,-331.00,14,23.00,0.00,4.77,0.00,0.00,0.00,0,,,100,100,0,2,0,0,0,1,0,,,,,0.0,0.0,0.0,0.0,0.0,0.0,0
34.182641,-118.129101,2.30,2.30,0.00,0.47,2.40,2.40,0.90,0.49,4104,2022-06-05 23:17:24.443,2022-06-05 16:17:24.443,16,0,0,15.040,34.182637,-118.129103,0.00,0.00,0.00,1.50,-2.90,-37.00,0,1,0,42,100,-8621,1527,15040,3221.50,4,WP,1,0,0,0,0,0,0,1654471044443,3805,3799,3802,3801,0,0,27,,,,,,,0,0,0,-15.00,-29.00,-370.00,0.00,0.00,-370.00,14,23.00,0.00,4.66,0.00,0.00,0.00,0,,,100,100,0,2,0,0,0,1,0,,,,,0.0,0.0,0.0,0.0,0.0,0.0,0
34.182641,-118.129101,2.30,2.30,0.00,0.47,2.40,2.40,0.90,0.49,4206,2022-06-05 23:17:24.545,2022-06-05 16:17:24.545,16,0,0,15.040,34.182637,-118.129103,0.00,0.00,0.00,1.20,-2.90,-41.90,0,1,0,42,100,-8621,1527,15040,3221.50,4,WP,1,0,0,0,0,0,0,1654471044545,3805,3799,3802,3801,0,0,27,,,,,,,0,0,0,-12.00,-29.00,-419.00,0.00,0.00,-415.00,14,23.00,0.00,4.70,0.00,0.00,0.00,0,,,100,100,0,2,0,0,0,1,0,,,,,0.0,0.0,0.0,0.0,0.0,0.0,0
34.182641,-118.129101,2.30,2.30,0.00,0.47,2.40,2.40,0.90,0.49,4305,2022-06-05 23:17:24.645,2022-06-05 16:17:24.645,16,0,0,15.040,34.182637,-118.129103,0.00,0.00,0.00,1.00,-2.90,-47.50,0,1,0,42,100,-8621,1527,15040,3221.50,4,WP,1,0,0,0,0,0,0,1654471044644,3805,3799,3802,3801,0,0,27,,,,,,,0,0,0,-10.00,-29.00,-475.00,0.00,0.00,-469.00,14,23.00,0.00,4.72,0.00,0.00,0.00,0,,,100,100,0,2,0,0,0,1,0,,,,,0.0,0.0,0.0,0.0,0.0,0.0,0
34.182641,-118.129101,2.30,2.30,0.00,0.47,2.40,2.40,0.90,0.49,4404,2022-06-05 23:17:24.744,2022-06-05 16:17:24.744,16,0,0,15.040,34.182637,-118.129103,0.00,0.00,0.00,0.70,-3.00,-53.60,0,1,0,42,100,-8621,1527,15040,3221.50,4,WP,1,0,0,0,0,0,0,1654471044743,3805,3799,3802,3801,0,0,27,,,,,,,0,0,0,-7.00,-30.00,-536.00,0.00,0.00,-528.00,14,23.00,0.00,4.75,0.00,0.00,0.00,0,,,100,100,0,2,0,0,0,1,0,,,,,0.0,0.0,0.0,0.0,0.0,0.0,0
34.182641,-118.129101,2.30,2.30,0.00,0.48,2.40,2.40,0.90,0.49,4504,2022-06-05 23:17:24.844,2022-06-05 16:17:24.844,16,0,0,15.040,34.182637,-118.129103,0.00,0.00,0.00,0.30,-3.20,-60.30,0,1,0,42,100,-8621,1527,15040,3221.50,4,WP,1,0,0,0,0,0,0,1654471044843,3805,3799,3802,3801,0,0,27,,,,,,,0,0,0,-3.00,-32.00,-603.00,0.00,0.00,-593.00,14,23.00,0.00,4.83,0.00,0.00,0.00,0,,,100,100,0,2,0,0,0,1,0,,,,,0.0,0.0,0.0,0.0,0.0,0.0,0
34.182641,-118.129101,2.30,2.30,0.00,0.48,2.40,2.40,0.90,0.49,4604,2022-06-05 23:17:24.943,2022-06-05 16:17:24.943,16,0,0,15.040,34.182637,-118.129103,0.00,0.00,0.00,-0.10,-3.10,-67.50,0,1,0,42,100,-8621,1527,15040,3221.50,4,WP,1,0,0,0,0,0,0,1654471044943,3805,3799,3802,3801,0,0,27,,,,,,,0,0,0,1.00,-31.00,-675.00,0.00,0.00,-663.00,14,23.00,0.00,4.84,0.00,0.00,0.00,0,,,100,100,0,2,0,0,0,1,0,,,,,0.0,0.0,0.0,0.0,0.0,0.0,0
34.182641,-118.129101,2.30,2.30,0.00,0.48,2.40,2.40,0.90,0.49,4705,2022-06-05 23:17:25.045,2022-06-05 16:17:25.045,16,0,0,15.040,34.182637,-118.129103,0.00,0.00,0.00,-0.50,-2.80,-75.00,0,1,0,42,100,-8621,1527,15040,3221.50,4,WP,1,0,0,0,0,0,0,1654471045044,3805,3799,3802,3801,0,0,27,,,,,,,0,0,0,5.00,-28.00,-750.00,0.00,0.00,-738.00,14,23.00,0.00,4.76,0.00,0.00,0.00,0,,,100,100,0,2,0,0,0,1,0,,,,,0.0,0.0,0.0,0.0,0.0,0.0,0
34.182641,-118.129101,2.30,2.30,0.00,0.47,2.40,2.40,0.90,0.49,4820,2022-06-05 23:17:25.159,2022-06-05 16:17:25.159,16,0,0,15.040,34.182637,-118.129103,0.00,0.00,0.00,-1.10,-2.50,-82.50,0,1,0,42,100,-8621,1527,15040,3221.50,4,WP,1,0,0,0,0,0,0,1654471045159,3805,3799,3802,3801,0,0,27,,,,,,,0,0,0,11.00,-25.00,-825.00,0.00,0.00,-815.00,14,23.00,0.00,4.74,0.00,0.00,0.00,0,,,100,100,0,2,0,0,0,1,0,,,,,0.0,0.0,0.0,0.0,0.0,0.0,0
34.182641,-118.129101,2.30,2.30,0.00,0.47,2.40,2.40,0.90,0.49,4907,2022-06-05 23:17:25.247,2022-06-05 16:17:25.247,16,0,0,15.040,34.182637,-118.129103,0.00,0.00,0.00,-1.30,-2.20,-89.90,0,1,0,42,100,-8621,1527,15040,3221.50,4,WP,1,0,0,0,0,0,0,1654471045246,3805,3799,3802,3801,0,0,27,,,,,,,0,0,0,13.00,-22.00,-899.00,0.00,0.00,-891.00,14,23.00,0.00,4.72,0.00,0.00,0.00,0,,,100,100,0,2,0,0,0,1,0,,,,,0.0,0.0,0.0,0.0,0.0,0.0,0
34.182641,-118.129101,2.30,2.30,0.00,0.47,2.40,2.40,0.90,0.49,5003,2022-06-05 23:17:25.343,2022-06-05 16:17:25.343,16,0,0,15.040,34.182637,-118.129103,0.00,0.00,0.00,-1.60,-1.80,-97.30,0,1,0,42,100,-8621,1527,15040,3221.50,4,WP,1,0,0,0,0,0,0,1654471045342,3805,3799,3802,3801,0,0,27,,,,,,,0,0,0,16.00,-18.00,-973.00,0.00,0.00,-966.00,14,23.00,0.00,4.70,0.00,0.00,0.00,0,,,100,100,0,2,0,0,0,1,0,,,,,0.0,0.0,0.0,0.0,0.0,0.0,0
34.182641,-118.129100,2.30,2.30,0.00,0.47,2.40,2.40,0.90,0.49,5103,2022-06-05 23:17:25.442,2022-06-05 16:17:25.442,16,0,0,15.040,34.182637,-118.129103,0.00,0.00,0.00,-1.70,-1.60,-104.90,0,1,0,42,100,-8621,1527,15040,3221.50,4,WP,1,0,0,0,0,0,0,1654471045442,3805,3799,3802,3801,0,0,27,,,,,,,0,0,0,17.00,-16.00,-1049.00,0.00,0.00,-1042.00,14,23.00,0.00,4.66,0.00,0.00,0.00,0,,,100,100,0,2,0,0,0,1,0,,,,,0.0,0.0,0.0,0.0,0.0,0.0,0
34.182640,-118.129100,2.30,2.30,0.00,0.46,2.40,2.40,0.90,0.49,5203,2022-06-05 23:17:25.542,2022-06-05 16:17:25.542,16,0,0,15.040,34.182637,-118.129103,0.00,0.00,0.00,-1.70,-1.20,-112.40,0,1,0,42,100,-8621,1527,15040,3221.50,4,WP,1,0,0,0,0,0,0,1654471045542,3805,3799,3802,3801,0,0,27,,,,,,,0,0,0,17.00,-12.00,-1124.00,0.00,0.00,-1118.00,14,23.00,0.00,4.62,0.00,0.00,0.00,0,,,100,100,0,2,0,0,0,1,0,,,,,0.0,0.0,0.0,0.0,0.0,0.0,0
34.182640,-118.129100,2.30,2.30,0.00,0.46,2.40,2.40,0.90,0.49,5303,2022-06-05 23:17:25.643,2022-06-05 16:17:25.643,16,0,0,15.040,34.182637,-118.129103,0.00,0.00,0.00,-1.70,-0.90,-119.90,0,1,0,42,100,-8621,1527,15040,3221.50,4,WP,1,0,0,0,0,0,0,1654471045642,3805,3799,3802,3801,0,0,27,,,,,,,0,0,0,17.00,-9.00,-1199.00,0.00,0.00,-1194.00,14,23.00,0.00,4.60,0.00,0.00,0.00,0,,,100,100,0,2,0,0,0,1,0,,,,,0.0,0.0,0.0,0.0,0.0,0.0,0
34.182640,-118.129100,2.30,2.30,0.00,0.46,2.40,2.40,0.90,0.49,5403,2022-06-05 23:17:25.743,2022-06-05 16:17:25.743,16,0,0,15.040,34.182637,-118.129103,0.00,0.00,0.00,-1.90,-0.60,-127.40,0,1,0,42,100,-8621,1527,15040,3221.50,4,WP,1,0,0,0,0,0,0,1654471045742,3805,3799,3802,3801,0,0,27,,,,,,,0,0,0,19.00,-6.00,-1274.00,0.00,0.00,-1269.00,14,23.00,0.00,4.55,0.00,0.00,0.00,0,,,100,100,0,2,0,0,0,1,0,,,,,0.0,0.0,0.0,0.0,0.0,0.0,0
34.182640,-118.129100,2.30,2.30,0.00,0.45,2.40,2.40,0.90,0.49,5503,2022-06-05 23:17:25.842,2022-06-05 16:17:25.842,16,0,0,15.040,34.182637,-118.129103,0.00,0.00,0.00,-1.80,-0.10,-135.00,0,1,0,42,100,-8621,1527,15040,3221.50,4,WP,1,0,0,0,0,0,0,1654471045842,3805,3799,3802,3801,0,0,27,,,,,,,0,0,0,18.00,-1.00,-1350.00,0.00,0.00,-1345.00,14,23.00,0.00,4.53,0.00,0.00,0.00,0,,,100,100,0,2,0,0,0,1,0,,,,,0.0,0.0,0.0,0.0,0.0,0.0,0
34.182640,-118.129100,2.30,2.30,0.00,0.45,2.40,2.40,0.90,0.49,5602,2022-06-05 23:17:25.942,2022-06-05 16:17:25.942,16,0,0,15.040,34.182637,-118.129103,0.00,0.00,0.00,-1.60,0.00,-142.50,0,1,0,42,100,-8621,1527,15040,3221.50,4,WP,1,0,0,0,0,0,0,1654471045941,3805,3799,3802,3801,0,0,27,,,,,,,0,0,0,16.00,0.00,-1425.00,0.00,0.00,-1421.00,14,23.00,0.00,4.47,0.00,0.00,0.00,0,,,100,100,0,2,0,0,0,1,0,,,,,0.0,0.0,0.0,0.0,0.0,0.0,0
34.182640,-118.129100,2.30,2.30,0.00,0.43,2.40,2.40,0.90,0.49,5704,2022-06-05 23:17:26.043,2022-06-05 16:17:26.043,16,0,0,15.040,34.182637,-118.129103,0.00,0.00,0.00,-1.40,0.20,-149.90,0,1,0,42,100,-8621,1527,15040,3221.50,4,WP,1,0,0,0,0,0,0,1654471046043,3805,3799,3802,3801,0,0,27,,,,,,,0,0,0,14.00,2.00,-1499.00,0.00,0.00,-1496.00,14,23.00,0.00,4.31,0.00,0.00,0.00,0,,,100,100,0,2,0,0,0,1,0,,,,,0.0,0.0,0.0,0.0,0.0,0.0,0
34.182640,-118.129100,2.30,2.30,0.00,0.42,2.40,2.40,0.90,0.49,5804,2022-06-05 23:17:26.143,2022-06-05 16:17:26.143,16,0,0,15.031,34.182637,-118.129103,0.00,0.00,0.00,-1.50,0.70,-157.30,0,1,0,42,100,-8374,1522,15031,3221.50,4,WP,1,0,0,0,0,0,0,1654471046143,3805,3799,3802,3801,0,0,27,,,,,,,0,0,0,15.00,7.00,-1573.00,0.00,0.00,-1570.00,14,23.00,0.00,4.23,0.00,0.00,0.00,0,,,100,100,0,2,0,0,0,1,0,,,,,0.0,0.0,0.0,0.0,0.0,0.0,0
34.182640,-118.129100,2.30,2.30,0.00,0.42,2.40,2.40,0.90,0.49,5904,2022-06-05 23:17:26.244,2022-06-05 16:17:26.244,16,0,0,15.031,34.182637,-118.129103,0.00,0.00,0.00,-1.30,1.10,-164.70,0,1,0,42,100,-8374,1522,15031,3221.50,4,WP,1,0,0,0,0,0,0,1654471046243,3805,3799,3802,3801,0,0,27,,,,,,,0,0,0,13.00,11.00,-1647.00,0.00,0.00,-1643.00,14,23.00,0.00,4.21,0.00,0.00,0.00,0,,,100,100,0,2,0,0,0,1,0,,,,,0.0,0.0,0.0,0.0,0.0,0.0,0
34.182640,-118.129100,2.30,2.30,0.00,0.41,2.40,2.40,0.90,0.49,6004,2022-06-05 23:17:26.344,2022-06-05 16:17:26.344,16,0,0,15.031,34.182637,-118.129103,0.00,0.00,0.00,-1.00,1.20,-171.80,0,1,0,42,100,-8374,1522,15031,3221.50,4,WP,1,0,0,0,0,0,0,1654471046343,3805,3799,3802,3801,0,0,27,,,,,,,0,0,0,10.00,12.00,-1718.00,0.00,0.00,-1718.00,14,23.00,0.00,4.12,0.00,0.00,0.00,0,,,100,100,0,2,0,0,0,1,0,,,,,0.0,0.0,0.0,0.0,0.0,0.0,0
34.182640,-118.129100,2.30,2.30,0.00,0.41,2.40,2.40,0.90,0.49,6104,2022-06-05 23:17:26.444,2022-06-05 16:17:26.444,16,0,0,15.031,34.182637,-118.129103,0.00,0.00,0.00,-0.80,1.20,-177.30,0,1,0,42,100,-8374,1522,15031,3221.50,4,WP,1,0,0,0,0,0,0,1654471046443,3805,3799,3802,3801,0,0,27,,,,,,,0,0,0,8.00,12.00,-1773.00,0.00,0.00,-1786.00,14,23.00,0.00,4.10,0.00,0.00,0.00,0,,,100,100,0,2,0,0,0,1,0,,,,,0.0,0.0,0.0,0.0,0.0,0.0,0
34.182639,-118.129100,2.30,2.30,0.00,0.40,2.40,2.40,0.90,0.49,6203,2022-06-05 23:17:26.543,2022-06-05 16:17:26.543,16,0,0,15.031,34.182637,-118.129103,0.00,0.00,0.00,-0.70,1.50,179.00,0,1,0,42,100,-8374,1522,15031,3221.50,4,WP,1,0,0,0,0,0,0,1654471046542,3805,3799,3802,3801,0,0,27,,,,,,,0,0,0,7.00,15.00,1790.00,0.00,0.00,1763.00,14,23.00,0.00,4.02,0.00,0.00,0.00,0,,,100,100,0,2,0,0,0,1,0,,,,,0.0,0.0,0.0,0.0,0.0,0.0,0
34.182640,-118.129100,2.30,2.30,0.00,0.40,2.40,2.40,0.90,0.49,6304,2022-06-05 23:17:26.644,2022-06-05 16:17:26.644,16,0,0,15.031,34.182637,-118.129103,0.00,0.00,0.00,-0.50,1.60,176.70,0,1,0,42,100,-8374,1522,15031,3221.50,4,WP,1,0,0,0,0,0,0,1654471046643,3805,3799,3802,3801,0,0,27,,,,,,,0,0,0,5.00,16.00,1767.00,0.00,0.00,1729.00,14,23.00,0.00,4.02,0.00,0.00,0.00,0,,,100,100,0,2,0,0,0,1,0,,,,,0.0,0.0,0.0,0.0,0.0,0.0,0
34.182639,-118.129100,2.30,2.30,0.00,0.39,2.40,2.40,0.90,0.49,6404,2022-06-05 23:17:26.743,2022-06-05 16:17:26.744,16,0,0,15.031,34.182637,-118.129103,0.00,0.00,0.00,-0.40,1.70,175.30,0,1,0,42,100,-8374,1522,15031,3221.50,4,WP,1,0,0,0,0,0,0,1654471046743,3805,3799,3802,3801,0,0,27,,,,,,,0,0,0,4.00,17.00,1753.00,0.00,0.00,1707.00,14,23.00,0.00,3.93,0.00,0.00,0.00,0,,,100,100,0,2,0,0,0,1,0,,,,,0.0,0.0,0.0,0.0,0.0,0.0,0
34.182640,-118.129100,2.30,2.30,0.00,0.41,2.40,2.40,0.90,0.49,6503,2022-06-05 23:17:26.843,2022-06-05 16:17:26.843,16,0,0,15.031,34.182637,-118.129103,0.00,0.00,0.00,-0.30,1.70,174.40,0,1,0,42,100,-8374,1522,15031,3221.50,4,WP,1,0,0,0,0,0,0,1654471046842,3805,3799,3802,3801,0,0,27,,,,,,,0,0,0,3.00,17.00,1744.00,0.00,0.00,1692.00,14,23.00,0.00,4.06,0.00,0.00,0.00,0,,,100,100,0,2,0,0,0,1,0,,,,,0.0,0.0,0.0,0.0,0.0,0.0,0
34.182640,-118.129100,2.30,2.30,0.00,0.40,2.40,2.40,0.90,0.49,6604,2022-06-05 23:17:26.943,2022-06-05 16:17:26.943,16,0,0,15.031,34.182637,-118.129103,0.00,0.00,0.00,-0.20,1.50,174.10,0,1,0,42,100,-8374,1522,15031,3221.50,4,WP,1,0,0,0,0,0,0,1654471046943,3805,3799,3802,3801,0,0,27,,,,,,,0,0,0,2.00,15.00,1741.00,0.00,0.00,1683.00,14,23.00,0.00,3.98,0.00,0.00,0.00,0,,,100,100,0,2,0,0,0,1,0,,,,,0.0,0.0,0.0,0.0,0.0,0.0,0
34.182640,-118.129100,2.30,2.30,0.00,0.40,2.40,2.40,0.90,0.49,6704,2022-06-05 23:17:27.044,2022-06-05 16:17:27.044,16,0,0,15.031,34.182637,-118.129103,0.00,0.00,0.00,0.00,1.50,174.10,0,1,0,42,100,-8374,1522,15031,3221.50,4,WP,1,0,0,0,0,0,0,1654471047043,3805,3799,3802,3801,0,0,27,,,,,,,0,0,0,-0.00,15.00,1741.00,0.00,0.00,1679.00,14,23.00,0.00,4.00,0.00,0.00,0.00,0,,,100,100,0,2,0,0,0,1,0,,,,,0.0,0.0,0.0,0.0,0.0,0.0,0
34.182639,-118.129100,2.30,2.30,0.00,0.39,2.40,2.40,0.90,0.49,6804,2022-06-05 23:17:27.143,2022-06-05 16:17:27.143,16,0,0,15.031,34.182637,-118.129103,0.00,0.00,0.00,0.00,1.30,174.00,0,1,0,42,100,-8374,1522,15031,3221.50,4,WP,1,0,0,0,0,0,0,1654471047143,3805,3799,3802,3801,0,0,27,,,,,,,0,0,0,-0.00,13.00,1740.00,0.00,0.00,1677.00,14,23.00,0.00,3.92,0.00,0.00,0.00,0,,,100,100,0,2,0,0,0,1,0,,,,,0.0,0.0,0.0,0.0,0.0,0.0,0
34.182640,-118.129100,2.30,2.30,0.00,0.40,2.40,2.40,0.90,0.49,6904,2022-06-05 23:17:27.243,2022-06-05 16:17:27.243,16,0,0,15.031,34.182637,-118.129103,0.00,0.00,0.00,-0.20,0.90,174.00,0,1,0,42,100,-8374,1522,15031,3221.50,4,WP,1,0,0,0,0,0,0,1654471047243,3805,3799,3802,3801,0,0,27,,,,,,,0,0,0,2.00,9.00,1740.00,0.00,0.00,1676.00,14,23.00,0.00,4.01,0.00,0.00,0.00,0,,,100,100,0,2,0,0,0,1,0,,,,,0.0,0.0,0.0,0.0,0.0,0.0,0
34.182640,-118.129100,2.30,2.30,0.00,0.39,2.40,2.40,0.90,0.49,7004,2022-06-05 23:17:27.343,2022-06-05 16:17:27.343,16,0,0,15.031,34.182637,-118.129103,0.00,0.00,0.00,-5.50,0.00,174.00,0,1,0,42,100,-8374,1522,15031,3221.50,4,WP,1,0,0,0,0,0,0,1654471047343,3805,3799,3802,3801,0,0,27,,,,,,,0,0,0,55.00,0.00,1740.00,0.00,0.00,1676.00,14,23.00,0.00,3.95,0.00,0.00,0.00,0,,,100,100,0,2,0,0,0,1,0,,,,,0.0,0.0,0.0,0.0,0.0,0.0,0
34.182640,-118.129100,2.30,2.30,0.10,0.39,2.40,2.40,0.90,0.49,7104,2022-06-05 23:17:27.444,2022-06-05 16:17:27.444,16,0,0,15.031,34.182637,-118.129103,-0.10,0.00,0.00,-10.40,0.10,174.00,0,1,0,42,100,-8374,1522,15031,3221.50,4,WP,1,0,0,0,0,0,0,1654471047443,3805,3799,3802,3801,0,0,27,,,,,,,0,0,0,104.00,1.00,1740.00,0.00,0.00,1675.00,14,23.00,1.00,3.93,-1.00,0.00,0.00,0,,,100,100,0,2,0,0,0,1,0,,,,,0.0,0.0,0.0,0.0,0.0,0.0,0
34.182639,-118.129100,2.30,2.30,0.30,0.37,2.40,2.40,0.90,0.49,7204,2022-06-05 23:17:27.544,2022-06-05 16:17:27.544,16,0,0,15.031,34.182637,-118.129103,-0.30,0.00,0.00,-14.10,0.40,174.00,0,1,0,42,100,-8374,1522,15031,3221.50,4,WP,1,0,0,0,0,0,0,1654471047543,3805,3799,3802,3801,0,0,27,,,,,,,0,0,0,141.00,4.00,1740.00,0.00,0.00,1675.00,14,23.00,3.00,3.75,-3.00,0.00,0.00,0,,,100,100,0,2,0,0,0,1,0,,,,,0.0,0.0,0.0,0.0,0.0,0.0,0
34.182639,-118.129100,2.30,2.30,0.50,0.35,2.40,2.40,0.90,0.49,7304,2022-06-05 23:17:27.644,2022-06-05 16:17:27.644,16,0,0,15.031,34.182637,-118.129103,-0.50,0.00,0.00,-16.50,0.70,174.00,0,1,0,42,100,-8374,1522,15031,3221.50,4,WP,1,0,0,0,0,0,0,1654471047643,3805,3799,3802,3801,0,0,27,,,,,,,0,0,0,165.00,7.00,1740.00,0.00,0.00,1675.00,14,23.00,5.00,3.52,-5.00,0.00,0.00,0,,,100,100,0,2,0,0,0,1,0,,,,,0.0,0.0,0.0,0.0,0.0,0.0,0
34.182638,-118.129100,2.30,2.30,0.80,0.32,2.40,2.40,0.90,0.49,7404,2022-06-05 23:17:27.743,2022-06-05 16:17:27.743,16,0,0,15.031,34.182637,-118.129103,-0.80,0.00,0.00,-18.20,0.90,174.00,0,1,0,42,100,-8374,1522,15031,3221.50,4,WP,1,0,0,0,0,0,0,1654471047743,3805,3799,3802,3801,0,0,27,,,,,,,0,0,0,182.00,9.00,1740.00,0.00,0.00,1675.00,14,23.00,8.00,3.16,-8.00,0.00,0.00,0,,,100,100,0,2,0,0,0,1,0,,,,,0.0,0.0,0.0,0.0,0.0,0.0,0
34.182637,-118.129100,2.30,2.30,1.10,0.30,2.40,2.40,1.10,0.49,7504,2022-06-05 23:17:27.844,2022-06-05 16:17:27.844,16,0,0,15.031,34.182637,-118.129103,-1.10,0.10,0.00,-19.50,0.90,173.90,0,1,0,42,100,-8374,1522,15031,3221.50,4,WP,1,0,0,0,0,0,0,1654471047843,3805,3799,3802,3801,0,0,27,,,,,,,0,0,0,195.00,9.00,1739.00,0.00,0.00,1675.00,14,23.00,11.05,2.95,-11.00,1.00,0.00,0,,,100,100,0,2,0,0,0,1,0,,,,,0.0,0.0,0.0,0.0,0.0,0.0,0
34.182636,-118.129100,2.30,2.30,1.40,0.31,2.40,2.40,1.40,0.49,7605,2022-06-05 23:17:27.945,2022-06-05 16:17:27.945,16,0,0,15.031,34.182637,-118.129103,-1.40,0.10,0.00,-20.60,1.20,174.00,0,1,0,42,100,-8374,1522,15031,3221.50,4,WP,1,0,0,0,0,0,0,1654471047944,3805,3799,3802,3801,0,0,27,,,,,,,0,0,0,206.00,12.00,1740.00,0.00,0.00,1675.00,14,23.00,14.04,3.13,-14.00,1.00,0.00,0,,,100,100,0,2,0,0,0,1,0,,,,,0.0,0.0,0.0,0.0,0.0,0.0,0
34.182635,-118.129100,2.30,2.30,1.70,0.38,2.40,2.40,1.70,0.49,7705,2022-06-05 23:17:28.044,2022-06-05 16:17:28.045,16,0,0,15.017,34.182637,-118.129103,-1.70,0.10,0.00,-21.50,1.60,173.70,0,1,0,42,100,-8417,1515,15017,3221.50,4,WP,1,0,0,0,0,0,0,1654471048044,3805,3799,3802,3801,0,0,27,,,,,,,0,0,0,215.00,16.00,1737.00,0.00,0.00,1674.00,14,23.00,17.03,3.78,-17.00,1.00,0.00,0,,,100,100,0,2,0,0,0,1,0,,,,,0.0,0.0,0.0,0.0,0.0,0.0,0
34.182633,-118.129099,2.30,2.30,2.11,0.53,2.40,2.40,2.11,0.53,7804,2022-06-05 23:17:28.144,2022-06-05 16:17:28.144,16,0,0,15.017,34.182637,-118.129103,-2.10,0.20,0.00,-22.00,1.50,173.80,0,1,0,42,100,-8417,1515,15017,3221.50,4,WP,1,0,0,0,0,0,0,1654471048143,3805,3799,3802,3801,0,0,27,,,,,,,0,0,0,220.00,15.00,1738.00,0.00,0.00,1674.00,14,23.00,21.10,5.33,-21.00,2.00,0.00,0,,,100,100,0,2,0,0,0,1,0,,,,,0.0,0.0,0.0,0.0,0.0,0.0,0
34.182631,-118.129099,2.30,2.30,2.51,0.72,2.40,2.40,2.51,0.72,7905,2022-06-05 23:17:28.244,2022-06-05 16:17:28.244,16,0,0,15.017,34.182637,-118.129103,-2.50,0.20,0.00,-21.80,1.00,173.80,0,1,0,42,100,-8417,1515,15017,3221.50,4,WP,1,0,0,0,0,0,0,1654471048244,3805,3799,3802,3801,0,0,27,,,,,,,0,0,0,218.00,10.00,1738.00,0.00,0.00,1674.00,14,23.00,25.08,7.19,-25.00,2.00,0.00,0,,,100,100,0,2,0,0,0,1,0,,,,,0.0,0.0,0.0,0.0,0.0,0.0,0
34.182629,-118.129099,2.30,2.30,2.81,0.97,2.40,2.40,2.81,0.97,8004,2022-06-05 23:17:28.344,2022-06-05 16:17:28.344,16,0,0,15.017,34.182637,-118.129103,-2.80,0.20,0.00,-21.30,1.00,173.80,0,1,0,42,100,-8417,1515,15017,3221.50,4,WP,1,0,0,0,0,0,0,1654471048343,3805,3799,3802,3801,0,0,27,,,,,,,0,0,0,213.00,10.00,1738.00,0.00,0.00,1674.00,14,23.00,28.07,9.73,-28.00,2.00,0.00,0,,,100,100,0,2,0,0,0,1,0,,,,,0.0,0.0,0.0,0.0,0.0,0.0,0
34.182626,-118.129099,2.40,2.40,3.11,1.23,2.40,2.40,3.11,1.23,8103,2022-06-05 23:17:28.443,2022-06-05 16:17:28.443,16,0,0,15.017,34.182637,-118.129103,-3.10,0.20,-0.10,-20.40,0.50,174.00,0,1,0,42,100,-8417,1515,15017,3221.50,4,WP,1,0,0,0,0,0,0,1654471048442,3805,3799,3802,3801,0,0,27,,,,,,,0,0,0,204.00,5.00,1740.00,0.00,0.00,1674.00,14,24.00,31.08,12.31,-31.00,2.00,-1.00,0,,,100,100,0,2,0,0,0,1,0,,,,,0.0,0.0,0.0,0.0,0.0,0.0,0
34.182623,-118.129099,2.40,2.40,3.41,1.56,2.40,2.40,3.41,1.56,8204,2022-06-05 23:17:28.544,2022-06-05 16:17:28.544,16,0,0,15.017,34.182637,-118.129103,-3.40,0.30,-0.10,-20.10,0.20,173.90,0,1,0,42,100,-8417,1515,15017,3221.50,4,WP,1,0,0,0,0,0,0,1654471048543,3805,3799,3802,3801,0,0,27,,,,,,,0,0,0,201.00,2.00,1739.00,0.00,0.00,1674.00,14,24.00,34.15,15.55,-34.00,3.00,-1.00,0,,,100,100,0,2,0,0,0,1,0,,,,,0.0,0.0,0.0,0.0,0.0,0.0,0
34.182620,-118.129099,2.40,2.40,3.71,1.91,2.40,2.40,3.71,1.91,8304,2022-06-05 23:17:28.644,2022-06-05 16:17:28.644,16,0,0,15.017,34.182637,-118.129103,-3.70,0.30,-0.10,-19.90,0.00,174.00,0,1,0,42,100,-8417,1515,15017,3221.50,4,WP,1,0,0,0,0,0,0,1654471048643,3748,3746,3750,3747,0,0,27,,,,,,,0,0,0,199.00,0.00,1740.00,0.00,0.00,1674.00,14,24.00,37.13,19.08,-37.00,3.00,-1.00,0,,,100,100,0,2,0,0,0,1,0,,,,,0.0,0.0,0.0,0.0,0.0,0.0,0
34.182617,-118.129098,2.40,2.40,4.01,2.29,2.40,2.40,4.01,2.29,8404,2022-06-05 23:17:28.743,2022-06-05 16:17:28.743,16,0,0,15.017,34.182637,-118.129103,-4.00,0.30,0.00,-16.00,-0.70,173.90,0,1,0,42,100,-8417,1515,15017,3221.50,4,WP,1,0,0,0,0,0,0,1654471048743,3748,3746,3750,3747,0,0,27,,,,,,,0,0,0,160.00,-7.00,1739.00,0.00,0.00,1674.00,14,24.00,40.11,22.91,-40.00,3.00,0.00,0,,,100,100,0,2,0,0,0,1,0,,,,,0.0,0.0,0.0,0.0,0.0,0.0,0
34.182613,-118.129098,2.40,2.50,4.22,2.68,2.40,2.40,4.22,2.68,8504,2022-06-05 23:17:28.844,2022-06-05 16:17:28.844,16,0,0,15.017,34.182637,-118.129103,-4.20,0.40,-0.10,-11.90,-0.40,173.90,0,1,0,42,100,-8417,1515,15017,3221.50,4,WP,1,0,0,0,0,0,0,1654471048843,3748,3746,3750,3747,0,0,27,,,,,,,0,0,0,119.00,-4.00,1739.00,0.00,0.00,1674.00,14,24.00,42.20,26.80,-42.00,4.00,-1.00,0,,,100,100,0,2,0,0,0,1,0,,,,,0.0,0.0,0.0,0.0,0.0,0.0,0
34.182609,-118.129098,2.40,2.50,4.32,3.10,2.40,2.40,4.32,3.10,8605,2022-06-05 23:17:28.945,2022-06-05 16:17:28.945,16,0,0,15.017,34.182637,-118.129103,-4.30,0.40,-0.10,-7.40,0.20,174.00,0,1,0,42,100,-8417,1515,15017,3221.50,4,WP,1,0,0,0,0,0,0,1654471048944,3748,3746,3750,3747,0,0,27,,,,,,,0,0,0,74.00,2.00,1740.00,0.00,0.00,1674.00,14,24.00,43.20,31.00,-43.00,4.00,-1.00,0,,,100,100,0,2,0,0,0,1,0,,,,,0.0,0.0,0.0,0.0,0.0,0.0,0
34.182605,-118.129098,2.40,2.50,4.32,3.54,2.40,2.40,4.32,3.54,8704,2022-06-05 23:17:29.044,2022-06-05 16:17:29.044,16,0,0,15.017,34.182637,-118.129103,-4.30,0.40,-0.10,-0.70,0.40,174.10,0,1,0,42,100,-8417,1515,15017,3221.50,4,WP,1,0,0,0,0,0,0,1654471049043,3748,3746,3750,3747,0,0,27,,,,,,,0,0,0,7.00,4.00,1741.00,0.00,0.00,1674.00,14,24.00,43.20,35.37,-43.00,4.00,-1.00,0,,,100,100,0,2,0,0,0,1,0,,,,,0.0,0.0,0.0,0.0,0.0,0.0,0
34.182601,-118.129097,2.40,2.50,4.22,3.96,2.40,2.40,4.32,3.96,8809,2022-06-05 23:17:29.149,2022-06-05 16:17:29.149,16,0,0,15.017,34.182637,-118.129103,-4.20,0.40,-0.10,4.70,0.00,174.00,0,1,0,42,100,-8417,1515,15017,3221.50,4,WP,1,0,0,0,0,0,0,1654471049148,3748,3746,3750,3747,0,0,27,,,,,,,0,0,0,-47.00,0.00,1740.00,0.00,0.00,1674.00,14,24.00,42.20,39.58,-42.00,4.00,-1.00,0,,,100,100,0,2,0,0,0,1,0,,,,,0.0,0.0,0.0,0.0,0.0,0.0,0
34.182598,-118.129097,2.50,2.50,4.02,4.37,2.50,2.50,4.32,4.37,8905,2022-06-05 23:17:29.244,2022-06-05 16:17:29.244,16,0,0,15.017,34.182637,-118.129103,-4.00,0.40,-0.10,8.40,-0.10,174.10,0,1,0,42,100,-8417,1515,15017,3221.50,4,WP,1,0,0,0,0,0,0,1654471049244,3748,3746,3750,3747,0,0,27,,,,,,,0,0,0,-84.00,-1.00,1741.00,0.00,0.00,1674.00,14,25.00,40.21,43.73,-40.00,4.00,-1.00,0,,,100,100,0,2,0,0,0,1,0,,,,,0.0,0.0,0.0,0.0,0.0,0.0,0
34.182594,-118.129097,2.50,2.50,3.82,4.76,2.50,2.50,4.32,4.76,9039,2022-06-05 23:17:29.379,2022-06-05 16:17:29.379,16,0,0,15.017,34.182637,-118.129103,-3.80,0.40,-0.10,10.80,-0.20,174.10,0,1,0,42,100,-8417,1515,15017,3221.50,4,WP,1,0,0,0,0,0,0,1654471049378,3748,3746,3750,3747,0,0,27,,,,,,,0,0,0,-108.00,-2.00,1741.00,0.00,0.00,1674.00,14,25.00,38.22,47.60,-38.00,4.00,-1.00,0,,,100,100,0,2,0,0,0,1,0,,,,,0.0,0.0,0.0,0.0,0.0,0.0,0
34.182591,-118.129097,2.50,2.50,3.62,5.16,2.50,2.50,4.32,5.16,9105,2022-06-05 23:17:29.444,2022-06-05 16:17:29.444,16,0,0,15.017,34.182637,-118.129103,-3.60,0.40,0.00,12.60,-0.40,174.40,0,1,0,42,100,-8417,1515,15017,3221.50,4,WP,1,0,0,0,0,0,0,1654471049444,3748,3746,3750,3747,0,0,27,,,,,,,0,0,0,-126.00,-4.00,1744.00,0.00,0.00,1674.00,14,25.00,36.22,51.63,-36.00,4.00,0.00,0,,,100,100,0,2,0,0,0,1,0,,,,,0.0,0.0,0.0,0.0,0.0,0.0,0
34.182588,-118.129097,2.50,2.50,3.32,5.50,2.50,2.50,4.32,5.50,9205,2022-06-05 23:17:29.544,2022-06-05 16:17:29.544,16,0,0,15.017,34.182637,-118.129103,-3.30,0.40,0.00,13.90,-1.00,174.30,0,1,0,42,100,-8417,1515,15017,3221.50,4,WP,1,0,0,0,0,0,0,1654471049544,3748,3746,3750,3747,0,0,27,,,,,,,0,0,0,-139.00,-10.00,1743.00,0.00,0.00,1674.00,14,25.00,33.24,55.05,-33.00,4.00,0.00,0,,,100,100,0,2,0,0,0,1,0,,,,,0.0,0.0,0.0,0.0,0.0,0.0,0
34.182584,-118.129096,2.40,2.50,3.03,5.85,2.50,2.50,4.32,5.85,9306,2022-06-05 23:17:29.646,2022-06-05 16:17:29.646,16,0,0,15.017,34.182637,-118.129103,-3.00,0.40,0.00,15.70,-1.20,174.40,0,1,0,42,100,-8417,1515,15017,3221.50,4,WP,1,0,0,0,0,0,0,1654471049645,3748,3746,3750,3747,0,0,27,,,,,,,0,0,0,-157.00,-12.00,1744.00,0.00,0.00,1674.00,14,24.00,30.27,58.45,-30.00,4.00,0.00,0,,,100,100,0,2,0,0,0,1,0,,,,,0.0,0.0,0.0,0.0,0.0,0.0,0
34.182582,-118.129096,2.40,2.60,2.75,6.13,2.50,2.50,4.32,6.13,9405,2022-06-05 23:17:29.744,2022-06-05 16:17:29.744,16,0,0,15.017,34.182637,-118.129103,-2.70,0.50,0.00,16.20,-0.60,174.30,0,1,0,42,100,-8417,1515,15017,3221.50,4,WP,1,0,0,0,0,0,0,1654471049744,3748,3746,3750,3747,0,0,27,,,,,,,0,0,0,-162.00,-6.00,1743.00,0.00,0.00,1674.00,14,24.00,27.46,61.28,-27.00,5.00,0.00,0,,,100,100,0,2,0,0,0,1,0,,,,,0.0,0.0,0.0,0.0,0.0,0.0,0
34.182579,-118.129095,2.40,2.60,2.33,6.40,2.50,2.50,4.32,6.40,9506,2022-06-05 23:17:29.845,2022-06-05 16:17:29.845,16,0,0,15.017,34.182637,-118.129103,-2.30,0.40,0.00,15.20,0.60,174.50,0,1,0,42,100,-8417,1515,15017,3221.50,4,WP,1,0,0,0,0,0,0,1654471049845,3748,3746,3750,3747,0,0,27,,,,,,,0,0,0,-152.00,6.00,1745.00,0.00,0.00,1674.00,14,24.00,23.35,64.03,-23.00,4.00,0.00,0,,,100,100,0,2,0,0,0,1,0,,,,,0.0,0.0,0.0,0.0,0.0,0.0,0
34.182577,-118.129095,2.40,2.60,2.04,6.63,2.50,2.50,4.32,6.63,9606,2022-06-05 23:17:29.945,2022-06-05 16:17:29.945,16,0,0,15.017,34.182637,-118.129103,-2.00,0.40,0.00,13.50,1.30,174.40,0,1,0,42,100,-8417,1515,15017,3221.50,4,WP,1,0,0,0,0,0,0,1654471049945,3748,3746,3750,3747,0,0,27,,,,,,,0,0,0,-135.00,13.00,1744.00,0.00,0.00,1674.00,14,24.00,20.40,66.25,-20.00,4.00,0.00,0,,,100,100,0,2,0,0,0,1,0,,,,,0.0,0.0,0.0,0.0,0.0,0.0,0
34.182575,-118.129095,2.40,2.60,1.84,6.86,2.50,2.50,4.32,6.86,9705,2022-06-05 23:17:30.044,2022-06-05 16:17:30.044,16,0,0,15.017,34.182637,-118.129103,-1.80,0.40,0.00,11.70,1.50,174.30,0,1,0,42,100,-8417,1515,15017,3221.50,4,WP,1,0,0,0,0,0,0,1654471050044,3748,3746,3750,3747,0,0,27,,,,,,,0,0,0,-117.00,15.00,1743.00,0.00,0.00,1674.00,14,24.00,18.44,68.58,-18.00,4.00,0.00,0,,,100,100,0,2,0,0,0,1,0,,,,,0.0,0.0,0.0,0.0,0.0,0.0,0
34.182574,-118.129094,2.40,2.60,1.55,7.03,2.50,2.50,4.32,7.03,9807,2022-06-05 23:17:30.146,2022-06-05 16:17:30.146,16,0,0,15.014,34.182637,-118.129103,-1.50,0.40,0.00,10.30,1.60,174.20,0,1,0,42,100,-8722,1510,15014,3221.50,4,WP,1,0,0,0,0,0,0,1654471050146,3748,3746,3750,3747,0,0,27,,,,,,,0,0,0,-103.00,16.00,1742.00,0.00,0.00,1674.00,14,24.00,15.52,70.33,-15.00,4.00,0.00,0,,,100,100,0,2,0,0,0,1,0,,,,,0.0,0.0,0.0,0.0,0.0,0.0,0
34.182572,-118.129094,2.40,2.60,1.33,7.19,2.50,2.50,4.32,7.19,9906,2022-06-05 23:17:30.246,2022-06-05 16:17:30.246,16,0,0,15.014,34.182637,-118.129103,-1.30,0.30,0.00,8.50,1.80,174.20,0,1,0,42,100,-8722,1510,15014,3221.50,4,WP,1,0,0,0,0,0,0,1654471050245,3748,3746,3750,3747,0,0,27,,,,,,,0,0,0,-85.00,18.00,1742.00,0.00,0.00,1674.00,14,24.00,13.34,71.91,-13.00,3.00,0.00,0,,,100,100,0,2,0,0,0,1,0,,,,,0.0,0.0,0.0,0.0,0.0,0.0,0
34.182571,-118.129093,2.50,2.60,1.24,7.33,2.50,2.50,4.32,7.33,10006,2022-06-05 23:17:30.345,2022-06-05 16:17:30.345,16,0,0,15.014,34.182637,-118.129103,-1.20,0.30,0.00,7.10,2.00,174.10,0,1,0,42,100,-8722,1510,15014,3221.50,4,WP,1,0,0,0,0,0,0,1654471050345,3748,3746,3750,3747,0,0,27,,,,,,,0,0,0,-71.00,20.00,1741.00,0.00,0.00,1674.00,14,25.00,12.37,73.27,-12.00,3.00,0.00,0,,,100,100,0,2,0,0,0,1,0,,,,,0.0,0.0,0.0,0.0,0.0,0.0,0
34.182570,-118.129093,2.50,2.70,1.04,7.44,2.50,2.50,4.32,7.44,10106,2022-06-05 23:17:30.445,2022-06-05 16:17:30.445,16,0,0,15.014,34.182637,-118.129103,-1.00,0.30,0.00,5.60,1.90,174.10,0,1,0,42,100,-8722,1510,15014,3221.50,4,WP,1,0,0,0,0,0,0,1654471050445,3748,3746,3750,3747,0,0,27,,,,,,,0,0,0,-56.00,19.00,1741.00,0.00,0.00,1674.00,14,25.00,10.44,74.37,-10.00,3.00,0.00,0,,,100,100,0,2,0,0,0,1,0,,,,,0.0,0.0,0.0,0.0,0.0,0.0,0
34.182569,-118.129093,2.50,2.70,0.92,7.55,2.50,2.50,4.32,7.55,10205,2022-06-05 23:17:30.545,2022-06-05 16:17:30.545,16,0,0,15.014,34.182637,-118.129103,-0.90,0.20,0.00,4.40,2.10,174.00,0,1,0,42,100,-8722,1510,15014,3221.50,4,WP,1,0,0,0,0,0,0,1654471050544,3748,3746,3750,3747,0,0,27,,,,,,,0,0,0,-44.00,21.00,1740.00,0.00,0.00,1674.00,14,25.00,9.22,75.47,-9.00,2.00,0.00,0,,,100,100,0,2,0,0,0,1,0,,,,,0.0,0.0,0.0,0.0,0.0,0.0,0
34.182568,-118.129092,2.50,2.70,0.82,7.65,2.50,2.50,4.32,7.65,10306,2022-06-05 23:17:30.646,2022-06-05 16:17:30.646,16,0,0,15.014,34.182637,-118.129103,-0.80,0.20,0.00,3.60,2.10,174.00,0,1,0,42,100,-8722,1510,15014,3221.50,4,WP,1,0,0,0,0,0,0,1654471050645,3748,3746,3750,3747,0,0,27,,,,,,,0,0,0,-36.00,21.00,1740.00,0.00,0.00,1674.00,14,25.00,8.25,76.49,-8.00,2.00,0.00,0,,,100,100,0,2,0,0,0,1,0,,,,,0.0,0.0,0.0,0.0,0.0,0.0,0
34.182568,-118.129092,2.50,2.70,0.82,7.74,2.50,2.50,4.32,7.74,10409,2022-06-05 23:17:30.748,2022-06-05 16:17:30.749,16,0,0,15.014,34.182637,-118.129103,-0.80,0.20,0.00,3.20,2.00,174.00,0,1,0,42,100,-8722,1510,15014,3221.50,4,WP,1,0,0,0,0,0,0,1654471050748,3748,3746,3750,3747,0,0,27,,,,,,,0,0,0,-32.00,20.00,1740.00,0.00,0.00,1674.00,14,25.00,8.25,77.43,-8.00,2.00,0.00,0,,,100,100,0,2,0,0,0,1,0,,,,,0.0,0.0,0.0,0.0,0.0,0.0,0
34.182567,-118.129092,2.50,2.70,0.73,7.82,2.50,2.50,4.32,7.82,10505,2022-06-05 23:17:30.845,2022-06-05 16:17:30.845,16,0,0,15.014,34.182637,-118.129103,-0.70,0.20,0.00,3.20,2.00,174.10,0,1,0,42,100,-8722,1510,15014,3221.50,4,WP,1,0,0,0,0,0,0,1654471050844,3748,3746,3750,3747,0,0,27,,,,,,,0,0,0,-32.00,20.00,1741.00,0.00,0.00,1674.00,14,25.00,7.28,78.18,-7.00,2.00,0.00,0,,,100,100,0,2,0,0,0,1,0,,,,,0.0,0.0,0.0,0.0,0.0,0.0,0
34.182566,-118.129092,2.50,2.70,0.63,7.90,2.50,2.50,4.32,7.90,10605,2022-06-05 23:17:30.945,2022-06-05 16:17:30.945,16,0,0,15.014,34.182637,-118.129103,-0.60,0.20,0.00,3.40,2.40,174.20,0,1,0,42,100,-8722,1510,15014,3221.50,4,WP,1,0,0,0,0,0,0,1654471050944,3748,3746,3750,3747,0,0,27,,,,,,,0,0,0,-34.00,24.00,1742.00,0.00,0.00,1674.00,14,25.00,6.32,78.98,-6.00,2.00,0.00,0,,,100,100,0,2,0,0,0,1,0,,,,,0.0,0.0,0.0,0.0,0.0,0.0,0
34.182566,-118.129091,2.50,2.70,0.61,7.96,2.50,2.50,4.32,7.96,10706,2022-06-05 23:17:31.045,2022-06-05 16:17:31.046,16,0,0,15.014,34.182637,-118.129103,-0.60,0.10,0.00,4.00,2.70,174.20,0,1,0,42,100,-8722,1510,15014,3221.50,4,WP,1,0,0,0,0,0,0,1654471051045,3748,3746,3750,3747,0,0,27,,,,,,,0,0,0,-40.00,27.00,1742.00,0.00,0.00,1674.00,14,25.00,6.08,79.64,-6.00,1.00,0.00,0,,,100,100,0,2,0,0,0,1,0,,,,,0.0,0.0,0.0,0.0,0.0,0.0,0
34.182565,-118.129091,2.50,2.70,0.51,8.03,2.50,2.50,4.32,8.03,10806,2022-06-05 23:17:31.146,2022-06-05 16:17:31.146,16,0,0,15.014,34.182637,-118.129103,-0.50,0.10,0.00,4.30,2.70,174.20,0,1,0,42,100,-8722,1510,15014,3221.50,4,WP,1,0,0,0,0,0,0,1654471051145,3748,3746,3750,3747,0,0,27,,,,,,,0,0,0,-43.00,27.00,1742.00,0.00,0.00,1674.00,14,25.00,5.10,80.29,-5.00,1.00,0.00,0,,,100,100,0,2,0,0,0,1,0,,,,,0.0,0.0,0.0,0.0,0.0,0.0,0
34.182565,-118.129091,2.50,2.70,0.41,8.07,2.50,2.50,4.32,8.07,10906,2022-06-05 23:17:31.246,2022-06-05 16:17:31.246,16,0,0,15.014,34.182637,-118.129103,-0.40,0.10,0.00,4.10,2.40,174.10,0,1,0,42,100,-8722,1510,15014,3221.50,4,WP,1,0,0,0,0,0,0,1654471051245,3748,3746,3750,3747,0,0,27,,,,,,,0,0,0,-41.00,24.00,1741.00,0.00,0.00,1674.00,14,25.00,4.12,80.71,-4.00,1.00,0.00,0,,,100,100,0,2,0,0,0,1,0,,,,,0.0,0.0,0.0,0.0,0.0,0.0,0
34.182564,-118.129091,2.50,2.70,0.40,8.12,2.50,2.50,4.32,8.12,11006,2022-06-05 23:17:31.345,2022-06-05 16:17:31.345,16,0,0,15.014,34.182637,-118.129103,-0.40,0.00,0.00,3.70,2.20,174.10,0,1,0,42,100,-8722,1510,15014,3221.50,4,WP,1,0,0,0,0,0,0,1654471051345,3748,3746,3750,3747,0,0,27,,,,,,,0,0,0,-37.00,22.00,1741.00,0.00,0.00,1674.00,14,25.00,4.00,81.18,-4.00,0.00,0.00,0,,,100,100,0,2,0,0,0,1,0,,,,,0.0,0.0,0.0,0.0,0.0,0.0,0
34.182564,-118.129091,2.50,2.70,0.30,8.14,2.50,2.50,4.32,8.14,11105,2022-06-05 23:17:31.445,2022-06-05 16:17:31.445,15,0,0,15.014,34.182637,-118.129103,-0.30,0.00,0.00,3.30,2.00,174.10,0,1,0,42,100,-8722,1510,15014,3221.50,4,WP,1,0,0,0,0,0,0,1654471051444,3748,3746,3750,3747,0,0,27,,,,,,,0,0,0,-33.00,20.00,1741.00,0.00,0.00,1674.00,14,25.00,3.00,81.37,-3.00,0.00,0.00,0,,,100,100,0,2,0,0,0,1,0,,,,,0.0,0.0,0.0,0.0,0.0,0.0,0
34.182564,-118.129091,2.50,2.70,0.20,8.17,2.50,2.50,4.32,8.17,11206,2022-06-05 23:17:31.546,2022-06-05 16:17:31.546,15,0,0,15.014,34.182637,-118.129103,-0.20,0.00,0.00,5.20,1.30,174.10,0,1,0,42,100,-8722,1510,15014,3221.50,4,WP,1,0,0,0,0,0,0,1654471051545,3748,3746,3750,3747,0,0,27,,,,,,,0,0,0,-52.00,13.00,1741.00,0.00,0.00,1674.00,14,25.00,2.00,81.68,-2.00,0.00,0.00,0,,,100,100,0,2,0,0,0,1,0,,,,,0.0,0.0,0.0,0.0,0.0,0.0,0
34.182564,-118.129090,2.50,2.70,0.10,8.19,2.50,2.50,4.32,8.19,11306,2022-06-05 23:17:31.645,2022-06-05 16:17:31.645,16,0,0,15.014,34.182637,-118.129103,-0.10,0.00,0.00,4.00,1.10,174.20,0,1,0,42,100,-8722,1510,15014,3221.50,4,WP,1,0,0,0,0,0,0,1654471051645,3748,3746,3750,3747,0,0,27,,,,,,,0,0,0,-40.00,11.00,1742.00,0.00,0.00,1674.00,14,25.00,1.00,81.87,-1.00,0.00,0.00,0,,,100,100,0,2,0,0,0,1,0,,,,,0.0,0.0,0.0,0.0,0.0,0.0,0
34.182564,-118.129090,2.50,2.70,0.10,8.20,2.50,2.50,4.32,8.20,11407,2022-06-05 23:17:31.746,2022-06-05 16:17:31.746,16,0,0,15.014,34.182637,-118.129103,-0.10,0.00,0.00,2.70,1.20,174.10,0,1,0,42,100,-8722,1510,15014,3221.50,4,WP,1,0,0,0,0,0,0,1654471051746,3748,3746,3750,3747,0,0,27,,,,,,,0,0,0,-27.00,12.00,1741.00,0.00,0.00,1674.00,14,25.00,1.00,81.99,-1.00,0.00,0.00,0,,,100,100,0,2,0,0,0,1,0,,,,,0.0,0.0,0.0,0.0,0.0,0.0,0
34.182564,-118.129090,2.50,2.70,0.00,8.21,2.50,2.50,4.32,8.21,11506,2022-06-05 23:17:31.845,2022-06-05 16:17:31.845,16,0,0,15.014,34.182637,-118.129103,0.00,0.00,0.00,1.70,1.20,167.20,0,1,0,42,100,-8722,1510,15014,3221.50,4,WP,1,0,0,0,0,0,0,1654471051845,3748,3746,3750,3747,0,0,27,,,,,,,0,0,0,-17.00,12.00,1672.00,0.00,0.00,1673.00,14,25.00,0.00,82.14,0.00,0.00,0.00,0,,,100,100,0,2,0,0,0,1,0,,,,,0.0,0.0,0.0,0.0,0.0,0.0,0
34.182564,-118.129090,2.50,2.70,0.00,8.22,2.50,2.50,4.32,8.22,11606,2022-06-05 23:17:31.945,2022-06-05 16:17:31.945,16,0,0,15.014,34.182637,-118.129103,0.00,0.00,0.00,1.00,0.70,159.50,0,1,0,42,100,-8722,1510,15014,3221.50,4,WP,1,0,0,0,0,0,0,1654471051945,3748,3746,3750,3747,0,0,27,,,,,,,0,0,0,-10.00,7.00,1595.00,0.00,0.00,1639.00,14,25.00,0.00,82.18,0.00,0.00,0.00,0,,,100,100,0,2,0,0,0,1,0,,,,,0.0,0.0,0.0,0.0,0.0,0.0,0
34.182564,-118.129090,2.50,2.70,0.00,8.21,2.50,2.50,4.32,8.22,11707,2022-06-05 23:17:32.046,2022-06-05 16:17:32.046,16,0,0,15.006,34.182637,-118.129103,0.00,0.00,0.00,0.50,0.60,152.00,0,1,0,42,100,-8046,1506,15006,3221.50,4,WP,1,0,0,0,0,0,0,1654471052046,3748,3746,3750,3747,0,0,27,,,,,,,0,0,0,-5.00,6.00,1520.00,0.00,0.00,1559.00,14,25.00,0.00,82.12,0.00,0.00,0.00,0,,,100,100,0,2,0,0,0,1,0,,,,,0.0,0.0,0.0,0.0,0.0,0.0,0
34.182564,-118.129090,2.50,2.70,0.00,8.21,2.50,2.50,4.32,8.22,11807,2022-06-05 23:17:32.147,2022-06-05 16:17:32.147,16,0,0,15.006,34.182637,-118.129103,0.00,0.00,0.00,0.30,0.70,144.50,0,1,0,42,100,-8046,1506,15006,3221.50,4,WP,1,0,0,0,0,0,0,1654471052146,3748,3746,3750,3747,0,0,27,,,,,,,0,0,0,-3.00,7.00,1445.00,0.00,0.00,1474.00,14,25.00,0.00,82.12,0.00,0.00,0.00,0,,,100,100,0,2,0,0,0,1,0,,,,,0.0,0.0,0.0,0.0,0.0,0.0,0
34.182564,-118.129090,2.50,2.60,0.00,8.20,2.50,2.50,4.32,8.22,11907,2022-06-05 23:17:32.246,2022-06-05 16:17:32.246,16,0,0,15.006,34.182637,-118.129103,0.00,0.00,0.00,0.50,0.90,137.10,0,1,0,42,100,-8046,1506,15006,3221.50,4,WP,1,0,0,0,0,0,0,1654471052246,3748,3746,3750,3747,0,0,27,,,,,,,0,0,0,-5.00,9.00,1371.00,0.00,0.00,1392.00,14,25.00,0.00,81.98,0.00,0.00,0.00,0,,,100,100,0,2,0,0,0,1,0,,,,,0.0,0.0,0.0,0.0,0.0,0.0,0
34.182564,-118.129090,2.50,2.60,0.00,8.20,2.50,2.50,4.32,8.22,12007,2022-06-05 23:17:32.347,2022-06-05 16:17:32.347,16,0,0,15.006,34.182637,-118.129103,0.00,0.00,0.00,0.90,0.90,129.60,0,1,0,42,100,-8046,1506,15006,3221.50,4,WP,1,0,0,0,0,0,0,1654471052346,3748,3746,3750,3747,0,0,27,,,,,,,0,0,0,-9.00,9.00,1296.00,0.00,0.00,1312.00,14,25.00,0.00,81.96,0.00,0.00,0.00,0,,,100,100,0,2,0,0,0,1,0,,,,,0.0,0.0,0.0,0.0,0.0,0.0,0
34.182564,-118.129090,2.50,2.60,0.00,8.19,2.50,2.50,4.32,8.22,12108,2022-06-05 23:17:32.448,2022-06-05 16:17:32.448,16,0,0,15.006,34.182637,-118.129103,0.00,0.00,0.00,1.10,1.20,122.10,0,1,0,42,100,-8046,1506,15006,3221.50,4,WP,1,0,0,0,0,0,0,1654471052447,3748,3746,3750,3747,0,0,27,,,,,,,0,0,0,-11.00,12.00,1221.00,0.00,0.00,1235.00,14,25.00,0.00,81.88,0.00,0.00,0.00,0,,,100,100,0,2,0,0,0,1,0,,,,,0.0,0.0,0.0,0.0,0.0,0.0,0
34.182564,-118.129090,2.50,2.60,0.00,8.18,2.50,2.50,4.32,8.22,12207,2022-06-05 23:17:32.547,2022-06-05 16:17:32.547,16,0,0,15.006,34.182637,-118.129103,0.00,0.00,0.00,1.50,1.40,114.70,0,1,0,42,100,-8046,1506,15006,3221.50,4,WP,1,0,0,0,0,0,0,1654471052546,3748,3746,3750,3747,0,0,27,,,,,,,0,0,0,-15.00,14.00,1147.00,0.00,0.00,1158.00,14,25.00,0.00,81.84,0.00,0.00,0.00,0,,,100,100,0,2,0,0,0,1,0,,,,,0.0,0.0,0.0,0.0,0.0,0.0,0
34.182564,-118.129089,2.50,2.60,0.00,8.19,2.50,2.50,4.32,8.22,12307,2022-06-05 23:17:32.646,2022-06-05 16:17:32.646,16,0,0,15.006,34.182637,-118.129103,0.00,0.00,0.00,1.90,1.20,107.20,0,1,0,42,100,-8046,1506,15006,3221.50,4,WP,1,0,0,0,0,0,0,1654471052646,3748,3746,3750,3747,0,0,27,,,,,,,0,0,0,-19.00,12.00,1072.00,0.00,0.00,1081.00,14,25.00,0.00,81.88,0.00,0.00,0.00,0,,,100,100,0,2,0,0,0,1,0,,,,,0.0,0.0,0.0,0.0,0.0,0.0,0
34.182564,-118.129089,2.50,2.60,0.00,8.18,2.50,2.50,4.32,8.22,12407,2022-06-05 23:17:32.747,2022-06-05 16:17:32.747,16,0,0,15.006,34.182637,-118.129103,0.00,0.00,0.00,2.20,1.20,99.80,0,1,0,42,100,-8046,1506,15006,3221.50,4,WP,1,0,0,0,0,0,0,1654471052746,3748,3746,3750,3747,0,0,27,,,,,,,0,0,0,-22.00,12.00,998.00,0.00,0.00,1005.00,14,25.00,0.00,81.84,0.00,0.00,0.00,0,,,100,100,0,2,0,0,0,1,0,,,,,0.0,0.0,0.0,0.0,0.0,0.0,0
34.182564,-118.129089,2.50,2.60,0.00,8.18,2.50,2.50,4.32,8.22,12507,2022-06-05 23:17:32.847,2022-06-05 16:17:32.847,16,0,0,15.006,34.182637,-118.129103,0.00,0.00,0.00,2.50,1.10,92.40,0,1,0,42,100,-8046,1506,15006,3221.50,4,WP,1,0,0,0,0,0,0,1654471052846,3748,3746,3750,3747,0,0,27,,,,,,,0,0,0,-25.00,11.00,924.00,0.00,0.00,931.00,14,25.00,0.00,81.77,0.00,0.00,0.00,0,,,100,100,0,2,0,0,0,1,0,,,,,0.0,0.0,0.0,0.0,0.0,0.0,0
34.182564,-118.129089,2.50,2.60,0.00,8.17,2.50,2.50,4.32,8.22,12607,2022-06-05 23:17:32.947,2022-06-05 16:17:32.947,16,0,0,15.006,34.182637,-118.129103,0.00,0.00,0.00,2.60,0.70,84.80,0,1,0,42,100,-8046,1506,15006,3221.50,4,WP,1,0,0,0,0,0,0,1654471052946,3748,3746,3750,3747,0,0,27,,,,,,,0,0,0,-26.00,7.00,848.00,0.00,0.00,854.00,14,25.00,0.00,81.73,0.00,0.00,0.00,0,,,100,100,0,2,0,0,0,1,0,,,,,0.0,0.0,0.0,0.0,0.0,0.0,0
34.182564,-118.129089,2.50,2.60,0.00,8.15,2.50,2.50,4.32,8.22,12710,2022-06-05 23:17:33.049,2022-06-05 16:17:33.049,16,0,0,15.006,34.182637,-118.129103,0.00,0.00,0.00,2.80,0.40,77.20,0,1,0,42,100,-8046,1506,15006,3221.50,4,WP,1,0,0,0,0,0,0,1654471053049,3748,3746,3750,3747,0,0,27,,,,,,,0,0,0,-28.00,4.00,772.00,0.00,0.00,778.00,14,25.00,0.00,81.53,0.00,0.00,0.00,0,,,100,100,0,2,0,0,0,1,0,,,,,0.0,0.0,0.0,0.0,0.0,0.0,0
34.182564,-118.129089,2.50,2.60,0.00,8.15,2.50,2.50,4.32,8.22,12807,2022-06-05 23:17:33.147,2022-06-05 16:17:33.147,16,0,0,15.006,34.182637,-118.129103,0.00,0.00,0.00,2.70,0.40,69.70,0,1,0,42,100,-8046,1506,15006,3221.50,4,WP,1,0,0,0,0,0,0,1654471053146,3748,3746,3750,3747,0,0,27,,,,,,,0,0,0,-27.00,4.00,697.00,0.00,0.00,702.00,14,25.00,0.00,81.46,0.00,0.00,0.00,0,,,100,100,0,2,0,0,0,1,0,,,,,0.0,0.0,0.0,0.0,0.0,0.0,0
34.182564,-118.129089,2.50,2.60,0.00,8.14,2.50,2.50,4.32,8.22,12908,2022-06-05 23:17:33.247,2022-06-05 16:17:33.247,16,0,0,15.006,34.182637,-118.129103,0.00,0.00,0.00,2.80,0.50,62.10,0,1,0,42,100,-8046,1506,15006,3221.50,4,WP,1,0,0,0,0,0,0,1654471053247,3748,3746,3750,3747,0,0,27,,,,,,,0,0,0,-28.00,5.00,621.00,0.00,0.00,627.00,14,25.00,0.00,81.43,0.00,0.00,0.00,0,,,100,100,0,2,0,0,0,1,0,,,,,0.0,0.0,0.0,0.0,0.0,0.0,0
34.182564,-118.129088,2.50,2.60,0.00,8.14,2.50,2.50,4.32,8.22,13007,2022-06-05 23:17:33.347,2022-06-05 16:17:33.347,16,0,0,15.006,34.182637,-118.129103,0.00,0.00,0.00,2.80,0.20,54.60,0,1,0,42,100,-8046,1506,15006,3221.50,4,WP,1,0,0,0,0,0,0,1654471053346,3748,3746,3750,3747,0,0,27,,,,,,,0,0,0,-28.00,2.00,546.00,0.00,0.00,551.00,14,25.00,0.00,81.39,0.00,0.00,0.00,0,,,100,100,0,2,0,0,0,1,0,,,,,0.0,0.0,0.0,0.0,0.0,0.0,0
34.182564,-118.129088,2.50,2.60,0.00,8.14,2.50,2.50,4.32,8.22,13108,2022-06-05 23:17:33.447,2022-06-05 16:17:33.447,16,0,0,15.006,34.182637,-118.129103,0.00,0.00,0.00,2.60,-0.10,47.20,0,1,0,42,100,-8046,1506,15006,3221.50,4,WP,1,0,0,0,0,0,0,1654471053447,3748,3746,3750,3747,0,0,27,,,,,,,0,0,0,-26.00,-1.00,472.00,0.00,0.00,476.00,14,25.00,0.00,81.42,0.00,0.00,0.00,0,,,100,100,0,2,0,0,0,1,0,,,,,0.0,0.0,0.0,0.0,0.0,0.0,0
34.182565,-118.129088,2.50,2.60,0.00,8.14,2.50,2.50,4.32,8.22,13207,2022-06-05 23:17:33.547,2022-06-05 16:17:33.547,16,0,0,15.006,34.182637,-118.129103,0.00,0.00,0.00,2.40,-0.80,39.80,0,1,0,42,100,-8046,1506,15006,3221.50,4,WP,1,0,0,0,0,0,0,1654471053546,3748,3746,3750,3747,0,0,27,,,,,,,0,0,0,-24.00,-8.00,398.00,0.00,0.00,402.00,14,25.00,0.00,81.40,0.00,0.00,0.00,0,,,100,100,0,2,0,0,0,1,0,,,,,0.0,0.0,0.0,0.0,0.0,0.0,0
34.182565,-118.129088,2.50,2.60,0.00,8.14,2.50,2.50,4.32,8.22,13357,2022-06-05 23:17:33.697,2022-06-05 16:17:33.697,16,0,0,15.006,34.182637,-118.129103,0.00,0.00,0.00,2.10,-1.50,32.60,0,1,0,42,100,-8046,1506,15006,3221.50,4,WP,1,0,0,0,0,0,0,1654471053696,3748,3746,3750,3747,0,0,27,,,,,,,0,0,0,-21.00,-15.00,326.00,0.00,0.00,329.00,14,25.00,0.00,81.37,0.00,0.00,0.00,0,,,100,100,0,2,0,0,0,1,0,,,,,0.0,0.0,0.0,0.0,0.0,0.0,0
34.182565,-118.129088,2.50,2.60,0.00,8.14,2.50,2.50,4.32,8.22,13408,2022-06-05 23:17:33.747,2022-06-05 16:17:33.747,16,0,0,15.006,34.182637,-118.129103,0.00,0.00,0.00,1.70,-2.00,26.40,0,1,0,42,100,-8046,1506,15006,3221.50,4,WP,1,0,0,0,0,0,0,1654471053747,3748,3746,3750,3747,0,0,27,,,,,,,0,0,0,-17.00,-20.00,264.00,0.00,0.00,258.00,14,25.00,0.00,81.38,0.00,0.00,0.00,0,,,100,100,0,2,0,0,0,1,0,,,,,0.0,0.0,0.0,0.0,0.0,0.0,0
34.182564,-118.129088,2.50,2.60,0.00,8.14,2.50,2.50,4.32,8.22,13507,2022-06-05 23:17:33.847,2022-06-05 16:17:33.847,16,0,0,15.006,34.182637,-118.129103,0.00,0.00,0.00,1.30,-2.10,21.40,0,1,0,42,100,-8046,1506,15006,3221.50,4,WP,1,0,0,0,0,0,0,1654471053846,3748,3746,3750,3747,0,0,27,,,,,,,0,0,0,-13.00,-21.00,214.00,0.00,0.00,199.00,14,25.00,0.00,81.42,0.00,0.00,0.00,0,,,100,100,0,2,0,0,0,1,0,,,,,0.0,0.0,0.0,0.0,0.0,0.0,0
34.182564,-118.129088,2.50,2.60,0.00,8.14,2.50,2.50,4.32,8.22,13608,2022-06-05 23:17:33.947,2022-06-05 16:17:33.947,16,0,0,15.006,34.182637,-118.129103,0.00,0.00,0.00,1.10,-1.90,17.30,0,1,0,42,100,-8046,1506,15006,3221.50,4,WP,1,0,0,0,0,0,0,1654471053947,3748,3746,3750,3747,0,0,27,,,,,,,0,0,0,-11.00,-19.00,173.00,0.00,0.00,150.00,14,25.00,0.00,81.42,0.00,0.00,0.00,0,,,100,100,0,2,0,0,0,1,0,,,,,0.0,0.0,0.0,0.0,0.0,0.0,0
