latitude,longitude,altitude(m),ultrasonicHeight(m),speed(mps),distance(m),max_altitude(m),max_ascent(m),max_speed(mps),max_distance(m),time(millisecond),datetime(utc),datetime(local),satellites,pressure(Pa),temperature(F),voltage(v),home_latitude,home_longitude,velocityX(mps),velocityY(mps),velocityZ(mps),pitch(deg),roll(deg),yaw(deg),powerlevel,isflying,istakingphoto,remainPowerPercent,remainLifePercent,currentCurrent,currentElectricity,currentVoltage,batteryTemperature,dischargeCount,flightmode,isMotorsOn,isTakingVideo,Rc_elevator,Rc_aileron,Rc_throttle,Rc_rudder,Rc_gyro,timestamp,Battery_Cell1,Battery_Cell2,Battery_Cell3,Battery_Cell4,Battery_Cell5,Battery_Cell6,Dronetype,AppVersion,Planename,FlyControllerSerialNumber,RemoteSerialNumber,BatterySerialNumber,CENTER_BATTERY.productDate,CENTER_BATTERY.serialNo,CENTER_BATTERY.fullCapacity,CENTER_BATTERY.productDateRaw,pitchRaw,rollRaw,yawRaw,gimbalPitchRaw,gimbalRollRaw,gimbalYawRaw,flyState,altitudeRaw,speedRaw,distanceRaw,velocityXRaw,velocityYRaw,velocityZRaw,data_reuse,App_Tip,App_Warning,downlinkSignalQuality,uplinkSignalQuality,transmissionChannel,rcModeSwitch,rcHome,rcPause,rcTransform,rcJoystickMode,appMode,FlyControllerSerialNumber_legacy,RemoteSerialNumber_legacy,BatterySerialNumber_legacy,Battery2SerialNumber,frontAvoidDist,backAvoidDist,rightAvoidDist,leftAvoidDist,upAvoidDist,downAvoidDist,isBrakingToAvoid
34.182624,-118.129104,0.30,0.40,0.40,0.15,0.30,0.30,0.40,0.15,0,2022-06-05 23:33:41.194,2022-06-05 16:33:41.194,16,0,0,16.862,34.182622,-118.129104,0.00,0.00,-0.40,2.50,-1.50,-6.00,0,1,0,90,100,-4267,3059,16862,3111.50,10,TakeOff,1,0,0,0,0,0,0,1654472021193,4243,4244,4242,4232,0,0,27,Litchi_iOS_2.14.0,Brian-MAVIC 2,163DFCK001S13F,1DUCFB800104PR,0P2AFBV5340045,,0,3403,0,-25.00,-15.00,-60.00,0.00,0.00,-63.00,11,3.00,4.00,1.45,0.00,0.00,-4.00,0,,,100,100,0,2,0,0,0,1,0,(null),(null),,,0.0,0.0,0.0,0.0,0.0,0.0,0
34.182624,-118.129104,0.40,0.40,0.40,0.14,0.40,0.40,0.40,0.15,99,2022-06-05 23:33:41.293,2022-06-05 16:33:41.293,16,0,0,16.862,34.182622,-118.129104,0.00,0.00,-0.40,2.30,-1.60,-5.90,0,1,0,90,100,-4267,3059,16862,3111.50,10,TakeOff,1,0,0,0,0,0,0,1654472021292,4243,4244,4242,4232,0,0,27,,,,,,,0,0,0,-23.00,-16.00,-59.00,0.00,0.00,-63.00,11,4.00,4.00,1.41,0.00,0.00,-4.00,0,,,100,100,0,2,0,0,0,1,0,,,,,0.0,0.0,0.0,0.0,0.0,0.0,0
34.182624,-118.129104,0.40,0.50,0.40,0.15,0.40,0.40,0.40,0.15,200,2022-06-05 23:33:41.393,2022-06-05 16:33:41.393,16,0,0,16.862,34.182622,-118.129104,0.00,0.00,-0.40,2.00,-1.70,-5.90,0,1,0,90,100,-4267,3059,16862,3111.50,10,TakeOff,1,0,0,0,0,0,0,1654472021393,4243,4244,4242,4232,0,0,27,,,,,,,0,0,0,-20.00,-17.00,-59.00,0.00,0.00,-63.00,11,4.00,4.00,1.48,0.00,0.00,-4.00,0,,,100,100,0,2,0,0,0,1,0,,,,,0.0,0.0,0.0,0.0,0.0,0.0,0
34.182623,-118.129104,0.50,0.50,0.50,0.14,0.50,0.50,0.50,0.15,299,2022-06-05 23:33:41.493,2022-06-05 16:33:41.493,16,0,0,16.862,34.182622,-118.129104,0.00,0.00,-0.50,1.80,-1.70,-5.90,0,1,0,90,100,-4267,3059,16862,3111.50,10,TakeOff,1,0,0,0,0,0,0,1654472021492,4243,4244,4242,4232,0,0,27,,,,,,,0,0,0,-18.00,-17.00,-59.00,0.00,0.00,-63.00,11,5.00,5.00,1.37,0.00,0.00,-5.00,0,,,100,100,0,2,0,0,0,1,0,,,,,0.0,0.0,0.0,0.0,0.0,0.0,0
34.182624,-118.129104,0.50,0.60,0.50,0.14,0.50,0.50,0.50,0.15,399,2022-06-05 23:33:41.593,2022-06-05 16:33:41.593,16,0,0,16.862,34.182622,-118.129104,0.00,0.00,-0.50,1.90,-1.60,-6.00,0,1,0,90,100,-4267,3059,16862,3111.50,10,TakeOff,1,0,0,0,0,0,0,1654472021592,4243,4244,4242,4232,0,0,27,,,,,,,0,0,0,-19.00,-16.00,-60.00,0.00,0.00,-63.00,11,5.00,5.00,1.42,0.00,0.00,-5.00,0,,,100,100,0,2,0,0,0,1,0,,,,,0.0,0.0,0.0,0.0,0.0,0.0,0
34.182624,-118.129104,0.60,0.60,0.50,0.17,0.60,0.60,0.50,0.17,500,2022-06-05 23:33:41.693,2022-06-05 16:33:41.693,16,0,0,16.862,34.182622,-118.129104,0.00,0.00,-0.50,2.40,-1.50,-6.10,0,1,0,90,100,-4267,3059,16862,3111.50,10,TakeOff,1,0,0,0,0,0,0,1654472021693,4243,4244,4242,4232,0,0,27,,,,,,,0,0,0,-24.00,-15.00,-61.00,0.00,0.00,-63.00,11,6.00,5.00,1.70,0.00,0.00,-5.00,0,,,100,100,0,2,0,0,0,1,0,,,,,0.0,0.0,0.0,0.0,0.0,0.0,0
34.182624,-118.129104,0.60,0.70,0.50,0.18,0.60,0.60,0.50,0.18,600,2022-06-05 23:33:41.793,2022-06-05 16:33:41.793,16,0,0,16.862,34.182622,-118.129104,0.00,0.00,-0.50,2.50,-1.10,-6.20,0,1,0,90,100,-4267,3059,16862,3111.50,10,TakeOff,1,0,0,0,0,0,0,1654472021793,4243,4244,4242,4232,0,0,27,,,,,,,0,0,0,-25.00,-11.00,-62.00,0.00,0.00,-63.00,11,6.00,5.00,1.75,0.00,0.00,-5.00,0,,,100,100,0,2,0,0,0,1,0,,,,,0.0,0.0,0.0,0.0,0.0,0.0,0
34.182624,-118.129104,0.70,0.70,0.50,0.21,0.70,0.70,0.50,0.21,700,2022-06-05 23:33:41.893,2022-06-05 16:33:41.893,16,0,0,16.862,34.182622,-118.129104,0.00,0.00,-0.50,2.50,-1.20,-6.20,0,1,0,90,100,-4267,3059,16862,3111.50,10,TakeOff,1,0,0,0,0,0,0,1654472021893,4243,4244,4242,4232,0,0,27,,,,,,,0,0,0,-25.00,-12.00,-62.00,0.00,0.00,-63.00,11,7.00,5.00,2.10,0.00,0.00,-5.00,0,,,100,100,0,2,0,0,0,1,0,,,,,0.0,0.0,0.0,0.0,0.0,0.0,0
34.182624,-118.129104,0.70,0.80,0.50,0.22,0.70,0.70,0.50,0.22,800,2022-06-05 23:33:41.993,2022-06-05 16:33:41.993,16,0,0,16.862,34.182622,-118.129104,0.00,0.00,-0.50,2.40,-1.40,-6.10,0,1,0,90,100,-4267,3059,16862,3111.50,10,TakeOff,1,0,0,0,0,0,0,1654472021993,4243,4244,4242,4232,0,0,27,,,,,,,0,0,0,-24.00,-14.00,-61.00,1.00,0.00,-63.00,11,7.00,5.00,2.15,0.00,0.00,-5.00,0,,,100,100,0,2,0,0,0,1,0,,,,,0.0,0.0,0.0,0.0,0.0,0.0,0
34.182624,-118.129104,0.80,0.80,0.50,0.19,0.80,0.80,0.50,0.22,899,2022-06-05 23:33:42.093,2022-06-05 16:33:42.093,16,0,0,16.862,34.182622,-118.129104,0.00,0.00,-0.50,2.20,-1.80,-6.20,0,1,0,90,100,-4267,3059,16862,3111.50,10,TakeOff,1,0,0,0,0,0,0,1654472022092,4243,4244,4242,4232,0,0,27,,,,,,,0,0,0,-22.00,-18.00,-62.00,1.00,0.00,-63.00,11,8.00,5.00,1.93,0.00,0.00,-5.00,0,,,100,100,0,2,0,0,0,1,0,,,,,0.0,0.0,0.0,0.0,0.0,0.0,0
34.182624,-118.129104,0.80,0.90,0.40,0.20,0.80,0.80,0.50,0.22,999,2022-06-05 23:33:42.193,2022-06-05 16:33:42.193,16,0,0,16.862,34.182622,-118.129104,0.00,0.00,-0.40,2.20,-1.80,-6.20,0,1,0,90,100,-4267,3059,16862,3111.50,10,TakeOff,1,0,0,0,0,0,0,1654472022192,4243,4244,4242,4232,0,0,27,,,,,,,0,0,0,-22.00,-18.00,-62.00,1.00,0.00,-63.00,11,8.00,4.00,1.96,0.00,0.00,-4.00,0,,,100,100,0,2,0,0,0,1,0,,,,,0.0,0.0,0.0,0.0,0.0,0.0,0
34.182624,-118.129103,0.90,0.90,0.40,0.20,0.90,0.90,0.50,0.22,1100,2022-06-05 23:33:42.294,2022-06-05 16:33:42.294,16,0,0,16.630,34.182622,-118.129104,0.00,0.00,-0.40,2.20,-1.70,-6.30,0,1,0,90,100,-7656,3056,16630,3111.50,10,TakeOff,1,0,0,0,0,0,0,1654472022293,4243,4244,4242,4232,0,0,27,,,,,,,0,0,0,-22.00,-17.00,-63.00,1.00,0.00,-63.00,11,9.00,4.00,2.03,0.00,0.00,-4.00,0,,,100,100,0,2,0,0,0,1,0,,,,,0.0,0.0,0.0,0.0,0.0,0.0,0
34.182624,-118.129103,0.90,1.00,0.40,0.21,0.90,0.90,0.50,0.22,1200,2022-06-05 23:33:42.393,2022-06-05 16:33:42.393,16,0,0,16.630,34.182622,-118.129104,0.00,0.00,-0.40,2.10,-1.70,-6.20,0,1,0,90,100,-7656,3056,16630,3111.50,10,TakeOff,1,0,0,0,0,0,0,1654472022393,4243,4244,4242,4232,0,0,27,,,,,,,0,0,0,-21.00,-17.00,-62.00,1.00,0.00,-63.00,11,9.00,4.00,2.06,0.00,0.00,-4.00,0,,,100,100,0,2,0,0,0,1,0,,,,,0.0,0.0,0.0,0.0,0.0,0.0,0
34.182624,-118.129104,1.00,1.00,0.40,0.19,1.00,1.00,0.50,0.22,1299,2022-06-05 23:33:42.493,2022-06-05 16:33:42.493,16,0,0,16.630,34.182622,-118.129104,0.00,0.00,-0.40,2.10,-1.90,-6.30,0,1,0,90,100,-7656,3056,16630,3111.50,10,TakeOff,1,0,0,0,0,0,0,1654472022492,4243,4244,4242,4232,0,0,27,,,,,,,0,0,0,-21.00,-19.00,-63.00,1.00,0.00,-63.00,11,10.00,4.00,1.94,0.00,0.00,-4.00,0,,,100,100,0,2,0,0,0,1,0,,,,,0.0,0.0,0.0,0.0,0.0,0.0,0
34.182624,-118.129104,1.00,1.10,0.40,0.19,1.00,1.00,0.50,0.22,1399,2022-06-05 23:33:42.593,2022-06-05 16:33:42.593,16,0,0,16.630,34.182622,-118.129104,0.00,0.00,-0.40,2.20,-1.80,-6.30,0,1,0,90,100,-7656,3056,16630,3111.50,10,GPS,1,0,0,0,0,0,0,1654472022592,4243,4244,4242,4232,0,0,27,,,,,,,0,0,0,-22.00,-18.00,-63.00,1.00,0.00,-63.00,6,10.00,4.00,1.94,0.00,0.00,-4.00,0,,,100,100,0,2,0,0,0,1,0,,,,,0.0,0.0,0.0,0.0,0.0,0.0,0
34.182624,-118.129104,1.10,1.10,0.40,0.21,1.10,1.10,0.50,0.22,1500,2022-06-05 23:33:42.693,2022-06-05 16:33:42.693,16,0,0,16.630,34.182622,-118.129104,0.00,0.00,-0.40,0.90,-0.60,-6.20,0,1,0,90,100,-7656,3056,16630,3111.50,10,WP,1,0,0,0,0,0,0,1654472022693,4243,4244,4242,4232,0,0,27,,,,,,,0,0,0,-9.00,-6.00,-62.00,1.00,0.00,-63.00,14,11.00,4.00,2.06,0.00,0.00,-4.00,0,,,100,100,0,2,0,0,0,1,0,,,,,0.0,0.0,0.0,0.0,0.0,0.0,0
34.182624,-118.129104,1.10,1.20,0.40,0.21,1.10,1.10,0.50,0.22,1600,2022-06-05 23:33:42.793,2022-06-05 16:33:42.793,16,0,0,16.630,34.182622,-118.129104,0.00,0.00,-0.40,1.00,-0.80,-6.30,0,1,0,90,100,-7656,3056,16630,3111.50,10,WP,1,0,0,0,0,0,0,1654472022793,4243,4244,4242,4232,0,0,27,,,,,,,0,0,0,-10.00,-8.00,-63.00,1.00,0.00,-63.00,14,11.00,4.00,2.09,0.00,0.00,-4.00,0,,,100,100,0,2,0,0,0,1,0,,,,,0.0,0.0,0.0,0.0,0.0,0.0,0
34.182624,-118.129104,1.20,1.20,0.40,0.21,1.20,1.20,0.50,0.22,1699,2022-06-05 23:33:42.893,2022-06-05 16:33:42.893,16,0,0,16.630,34.182622,-118.129104,0.00,0.00,-0.40,1.40,-1.30,-6.30,0,1,0,90,100,-7656,3056,16630,3111.50,10,WP,1,0,0,0,0,0,0,1654472022892,4243,4244,4242,4232,0,0,27,,,,,,,0,0,0,-14.00,-13.00,-63.00,1.00,0.00,-63.00,14,12.00,4.00,2.07,0.00,0.00,-4.00,0,,,100,100,0,2,0,0,0,1,0,,,,,0.0,0.0,0.0,0.0,0.0,0.0,0
34.182624,-118.129104,1.20,1.30,0.40,0.21,1.20,1.20,0.50,0.22,1800,2022-06-05 23:33:42.994,2022-06-05 16:33:42.994,16,0,0,16.630,34.182622,-118.129104,0.00,0.00,-0.40,1.70,-1.80,-6.40,0,1,0,90,100,-7656,3056,16630,3111.50,10,WP,1,0,0,0,0,0,0,1654472022993,4243,4244,4242,4232,0,0,27,,,,,,,0,0,0,-17.00,-18.00,-64.00,1.00,0.00,-63.00,14,12.00,4.00,2.13,0.00,0.00,-4.00,0,,,100,100,0,2,0,0,0,1,0,,,,,0.0,0.0,0.0,0.0,0.0,0.0,0
34.182624,-118.129103,1.30,1.30,0.40,0.23,1.30,1.30,0.50,0.23,1900,2022-06-05 23:33:43.093,2022-06-05 16:33:43.093,16,0,0,16.630,34.182622,-118.129104,0.00,0.00,-0.40,2.10,-2.20,-6.50,0,1,0,90,100,-7656,3056,16630,3111.50,10,WP,1,0,0,0,0,0,0,1654472023093,4243,4244,4242,4232,0,0,27,,,,,,,0,0,0,-21.00,-22.00,-65.00,1.00,0.00,-63.00,14,13.00,4.00,2.34,0.00,0.00,-4.00,0,,,100,100,0,2,0,0,0,1,0,,,,,0.0,0.0,0.0,0.0,0.0,0.0,0
34.182624,-118.129103,1.30,1.40,0.40,0.24,1.30,1.30,0.50,0.24,2000,2022-06-05 23:33:43.194,2022-06-05 16:33:43.194,16,0,0,16.630,34.182622,-118.129104,0.00,0.00,-0.40,2.10,-2.00,-6.50,0,1,0,90,100,-7656,3056,16630,3111.50,10,WP,1,0,0,0,0,0,0,1654472023193,4243,4244,4242,4232,0,0,27,,,,,,,0,0,0,-21.00,-20.00,-65.00,1.00,0.00,-63.00,14,13.00,4.00,2.40,0.00,0.00,-4.00,0,,,100,100,0,2,0,0,0,1,0,,,,,0.0,0.0,0.0,0.0,0.0,0.0,0
34.182624,-118.129103,1.40,1.40,0.40,0.22,1.40,1.40,0.50,0.24,2100,2022-06-05 23:33:43.293,2022-06-05 16:33:43.293,16,0,0,16.630,34.182622,-118.129104,0.00,0.00,-0.40,1.40,-1.80,-6.40,0,1,0,90,100,-7656,3056,16630,3111.50,10,WP,1,0,0,0,0,0,0,1654472023293,4243,4244,4242,4232,0,0,27,,,,,,,0,0,0,-14.00,-18.00,-64.00,1.00,0.00,-64.00,14,14.00,4.00,2.18,0.00,0.00,-4.00,0,,,100,100,0,2,0,0,0,1,0,,,,,0.0,0.0,0.0,0.0,0.0,0.0,0
34.182624,-118.129103,1.40,1.50,0.50,0.22,1.40,1.40,0.50,0.24,2201,2022-06-05 23:33:43.394,2022-06-05 16:33:43.394,16,0,0,16.630,34.182622,-118.129104,0.00,0.00,-0.50,1.20,-2.30,-6.40,0,1,0,90,100,-7656,3056,16630,3111.50,10,WP,1,0,0,0,0,0,0,1654472023394,4243,4244,4242,4232,0,0,27,,,,,,,0,0,0,-12.00,-23.00,-64.00,1.00,0.00,-64.00,14,14.00,5.00,2.21,0.00,0.00,-5.00,0,,,100,100,0,2,0,0,0,1,0,,,,,0.0,0.0,0.0,0.0,0.0,0.0,0
34.182624,-118.129103,1.50,1.50,0.60,0.23,1.50,1.50,0.60,0.24,2301,2022-06-05 23:33:43.494,2022-06-05 16:33:43.494,16,0,0,16.630,34.182622,-118.129104,0.00,0.00,-0.60,1.50,-2.10,-6.50,0,1,0,90,100,-7656,3056,16630,3111.50,10,WP,1,0,0,0,0,0,0,1654472023494,4243,4244,4242,4232,0,0,27,,,,,,,0,0,0,-15.00,-21.00,-65.00,1.00,0.00,-64.00,14,15.00,6.00,2.26,0.00,0.00,-6.00,0,,,100,100,0,2,0,0,0,1,0,,,,,0.0,0.0,0.0,0.0,0.0,0.0,0
34.182624,-118.129103,1.50,1.60,0.70,0.23,1.50,1.50,0.70,0.24,2401,2022-06-05 23:33:43.594,2022-06-05 16:33:43.594,16,0,0,16.630,34.182622,-118.129104,0.00,0.00,-0.70,1.60,-1.70,-6.50,0,1,0,90,100,-7656,3056,16630,3111.50,10,WP,1,0,0,0,0,0,0,1654472023594,4243,4244,4242,4232,0,0,27,,,,,,,0,0,0,-16.00,-17.00,-65.00,1.00,0.00,-64.00,14,15.00,7.00,2.30,0.00,0.00,-7.00,0,,,100,100,0,2,0,0,0,1,0,,,,,0.0,0.0,0.0,0.0,0.0,0.0,0
34.182625,-118.129103,1.60,1.70,0.90,0.27,1.60,1.60,0.90,0.27,2501,2022-06-05 23:33:43.694,2022-06-05 16:33:43.694,16,0,0,16.630,34.182622,-118.129104,0.00,0.00,-0.90,2.20,-2.20,-6.50,0,1,0,90,100,-7656,3056,16630,3111.50,10,WP,1,0,0,0,0,0,0,1654472023694,4243,4244,4242,4232,0,0,27,,,,,,,0,0,0,-22.00,-22.00,-65.00,1.00,0.00,-64.00,14,16.00,9.00,2.70,0.00,0.00,-9.00,0,,,100,100,0,2,0,0,0,1,0,,,,,0.0,0.0,0.0,0.0,0.0,0.0,0
34.182625,-118.129103,1.70,1.80,1.10,0.28,1.70,1.70,1.10,0.28,2601,2022-06-05 23:33:43.795,2022-06-05 16:33:43.795,16,0,0,16.630,34.182622,-118.129104,0.00,0.00,-1.10,2.40,-2.30,-6.50,0,1,0,90,100,-7656,3056,16630,3111.50,10,WP,1,0,0,0,0,0,0,1654472023794,4243,4244,4242,4232,0,0,27,,,,,,,0,0,0,-24.00,-23.00,-65.00,1.00,0.00,-64.00,14,17.00,11.00,2.76,0.00,0.00,-11.00,0,,,100,100,0,2,0,0,0,1,0,,,,,0.0,0.0,0.0,0.0,0.0,0.0,0
34.182624,-118.129103,1.80,1.90,1.20,0.25,1.80,1.80,1.20,0.28,2701,2022-06-05 23:33:43.895,2022-06-05 16:33:43.895,16,0,0,16.630,34.182622,-118.129104,0.00,0.00,-1.20,1.90,-2.00,-6.50,0,1,0,90,100,-7656,3056,16630,3111.50,10,WP,1,0,0,0,0,0,0,1654472023894,4243,4244,4242,4232,0,0,27,,,,,,,0,0,0,-19.00,-20.00,-65.00,1.00,0.00,-64.00,14,18.00,12.00,2.50,0.00,0.00,-12.00,0,,,100,100,0,2,0,0,0,1,0,,,,,0.0,0.0,0.0,0.0,0.0,0.0,0
34.182624,-118.129103,2.00,2.00,1.30,0.25,2.00,2.00,1.30,0.28,2802,2022-06-05 23:33:43.996,2022-06-05 16:33:43.996,16,0,0,16.630,34.182622,-118.129104,0.00,0.00,-1.30,2.10,-2.10,-6.40,0,1,0,90,100,-7656,3056,16630,3111.50,10,WP,1,0,0,0,0,0,0,1654472023995,4243,4244,4242,4232,0,0,27,,,,,,,0,0,0,-21.00,-21.00,-64.00,1.00,0.00,-64.00,14,20.00,13.00,2.53,0.00,0.00,-13.00,0,,,100,100,0,2,0,0,0,1,0,,,,,0.0,0.0,0.0,0.0,0.0,0.0,0
34.182625,-118.129103,2.10,2.20,1.40,0.28,2.10,2.10,1.40,0.28,2897,2022-06-05 23:33:44.091,2022-06-05 16:33:44.091,16,0,0,16.630,34.182622,-118.129104,0.00,0.00,-1.40,2.90,-2.30,-6.50,0,1,0,90,100,-7656,3056,16630,3111.50,10,WP,1,0,0,0,0,0,0,1654472024090,4243,4244,4242,4232,0,0,27,,,,,,,0,0,0,-29.00,-23.00,-65.00,1.00,0.00,-64.00,14,21.00,14.00,2.79,0.00,0.00,-14.00,0,,,100,100,0,2,0,0,0,1,0,,,,,0.0,0.0,0.0,0.0,0.0,0.0,0
34.182625,-118.129103,2.20,2.30,1.40,0.28,2.20,2.20,1.40,0.28,3001,2022-06-05 23:33:44.194,2022-06-05 16:33:44.194,16,0,0,16.630,34.182622,-118.129104,0.00,0.00,-1.40,3.10,-2.40,-6.50,0,1,0,90,100,-7656,3056,16630,3111.50,10,WP,1,0,0,0,0,0,0,1654472024194,4243,4244,4242,4232,0,0,27,,,,,,,0,0,0,-31.00,-24.00,-65.00,1.00,0.00,-64.00,14,22.00,14.00,2.84,0.00,0.00,-14.00,0,,,100,100,0,2,0,0,0,1,0,,,,,0.0,0.0,0.0,0.0,0.0,0.0,0
34.182624,-118.129103,2.40,2.40,1.40,0.26,2.40,2.40,1.40,0.28,3101,2022-06-05 23:33:44.295,2022-06-05 16:33:44.295,16,0,0,16.527,34.182622,-118.129104,0.00,0.00,-1.40,2.60,-1.90,-6.50,0,1,0,90,100,-8676,3052,16527,3111.50,10,WP,1,0,0,0,0,0,0,1654472024294,4243,4244,4242,4232,0,0,27,,,,,,,0,0,0,-26.00,-19.00,-65.00,1.00,0.00,-64.00,14,24.00,14.00,2.57,0.00,0.00,-14.00,0,,,100,100,0,2,0,0,0,1,0,,,,,0.0,0.0,0.0,0.0,0.0,0.0,0
34.182624,-118.129103,2.50,2.60,1.30,0.26,2.50,2.50,1.40,0.28,3201,2022-06-05 23:33:44.394,2022-06-05 16:33:44.394,16,0,0,16.527,34.182622,-118.129104,0.00,0.00,-1.30,2.70,-1.80,-6.50,0,1,0,90,100,-8676,3052,16527,3111.50,10,WP,1,0,0,0,0,0,0,1654472024394,4137,4134,4130,4127,0,0,27,,,,,,,0,0,0,-27.00,-18.00,-65.00,1.00,0.00,-64.00,14,25.00,13.00,2.59,0.00,0.00,-13.00,0,,,100,100,0,2,0,0,0,1,0,,,,,0.0,0.0,0.0,0.0,0.0,0.0,0
34.182625,-118.129103,2.70,2.70,1.30,0.28,2.70,2.70,1.40,0.28,3301,2022-06-05 23:33:44.495,2022-06-05 16:33:44.495,16,0,0,16.527,34.182622,-118.129104,0.00,0.00,-1.30,3.80,-1.30,-6.40,0,1,0,90,100,-8676,3052,16527,3111.50,10,WP,1,0,0,0,0,0,0,1654472024494,4137,4134,4130,4127,0,0,27,,,,,,,0,0,0,-38.00,-13.00,-64.00,1.00,0.00,-64.00,14,27.00,13.00,2.84,0.00,0.00,-13.00,0,,,100,100,0,2,0,0,0,1,0,,,,,0.0,0.0,0.0,0.0,0.0,0.0,0
34.182625,-118.129103,2.80,2.80,1.20,0.29,2.80,2.80,1.40,0.29,3402,2022-06-05 23:33:44.595,2022-06-05 16:33:44.595,16,0,0,16.527,34.182622,-118.129104,0.00,0.00,-1.20,4.20,-1.40,-6.50,0,1,0,90,100,-8676,3052,16527,3111.50,10,WP,1,0,0,0,0,0,0,1654472024595,4137,4134,4130,4127,0,0,27,,,,,,,0,0,0,-42.00,-14.00,-65.00,1.00,0.00,-64.00,14,28.00,12.00,2.91,0.00,0.00,-12.00,0,,,100,100,0,2,0,0,0,1,0,,,,,0.0,0.0,0.0,0.0,0.0,0.0,0
34.182625,-118.129103,2.90,2.90,1.20,0.30,2.90,2.90,1.40,0.30,3501,2022-06-05 23:33:44.694,2022-06-05 16:33:44.694,16,0,0,16.527,34.182622,-118.129104,0.00,0.00,-1.20,4.60,-1.70,-6.60,0,1,0,90,100,-8676,3052,16527,3111.50,10,WP,1,0,0,0,0,0,0,1654472024694,4137,4134,4130,4127,0,0,27,,,,,,,0,0,0,-46.00,-17.00,-66.00,1.00,0.00,-64.00,14,29.00,12.00,3.01,0.00,0.00,-12.00,0,,,100,100,0,2,0,0,0,1,0,,,,,0.0,0.0,0.0,0.0,0.0,0.0,0
34.182625,-118.129103,3.00,3.00,1.10,0.31,3.00,3.00,1.40,0.31,3601,2022-06-05 23:33:44.794,2022-06-05 16:33:44.794,16,0,0,16.527,34.182622,-118.129104,0.00,0.00,-1.10,4.70,-1.70,-6.60,0,1,0,90,100,-8676,3052,16527,3111.50,10,WP,1,0,0,0,0,0,0,1654472024794,4137,4134,4130,4127,0,0,27,,,,,,,0,0,0,-47.00,-17.00,-66.00,1.00,0.00,-64.00,14,30.00,11.00,3.06,0.00,0.00,-11.00,0,,,100,100,0,2,0,0,0,1,0,,,,,0.0,0.0,0.0,0.0,0.0,0.0,0
34.182625,-118.129103,3.10,3.10,1.00,0.32,3.10,3.10,1.40,0.32,3701,2022-06-05 23:33:44.894,2022-06-05 16:33:44.894,16,0,0,16.527,34.182622,-118.129104,0.00,0.00,-1.00,4.80,-1.80,-6.60,0,1,0,90,100,-8676,3052,16527,3111.50,10,WP,1,0,0,0,0,0,0,1654472024894,4137,4134,4130,4127,0,0,27,,,,,,,0,0,0,-48.00,-18.00,-66.00,1.00,0.00,-64.00,14,31.00,10.00,3.25,0.00,0.00,-10.00,0,,,100,100,0,2,0,0,0,1,0,,,,,0.0,0.0,0.0,0.0,0.0,0.0,0
34.182625,-118.129103,3.20,3.20,0.90,0.33,3.20,3.20,1.40,0.33,3801,2022-06-05 23:33:44.995,2022-06-05 16:33:44.995,16,0,0,16.527,34.182622,-118.129104,0.00,0.00,-0.90,4.60,-1.70,-6.60,0,1,0,90,100,-8676,3052,16527,3111.50,10,WP,1,0,0,0,0,0,0,1654472024994,4137,4134,4130,4127,0,0,27,,,,,,,0,0,0,-46.00,-17.00,-66.00,1.00,0.00,-64.00,14,32.00,9.00,3.29,0.00,0.00,-9.00,0,,,100,100,0,2,0,0,0,1,0,,,,,0.0,0.0,0.0,0.0,0.0,0.0,0
34.182625,-118.129104,3.30,3.30,0.90,0.30,3.30,3.30,1.40,0.33,3902,2022-06-05 23:33:45.095,2022-06-05 16:33:45.095,16,0,0,16.527,34.182622,-118.129104,0.00,0.00,-0.90,4.40,-1.20,-6.60,0,1,0,90,100,-8676,3052,16527,3111.50,10,WP,1,0,0,0,0,0,0,1654472025095,4137,4134,4130,4127,0,0,27,,,,,,,0,0,0,-44.00,-12.00,-66.00,1.00,0.00,-64.00,14,33.00,9.00,3.04,0.00,0.00,-9.00,0,,,100,100,0,2,0,0,0,1,0,,,,,0.0,0.0,0.0,0.0,0.0,0.0,0
34.182625,-118.129104,3.40,3.40,0.80,0.31,3.40,3.40,1.40,0.33,4002,2022-06-05 23:33:45.195,2022-06-05 16:33:45.195,16,0,0,16.527,34.182622,-118.129104,0.00,0.00,-0.80,4.10,-1.20,-6.50,0,1,0,90,100,-8676,3052,16527,3111.50,10,WP,1,0,0,0,0,0,0,1654472025195,4137,4134,4130,4127,0,0,27,,,,,,,0,0,0,-41.00,-12.00,-65.00,1.00,0.00,-64.00,14,34.00,8.00,3.05,0.00,0.00,-8.00,0,,,100,100,0,2,0,0,0,1,0,,,,,0.0,0.0,0.0,0.0,0.0,0.0,0
34.182625,-118.129103,3.50,3.40,0.80,0.33,3.50,3.50,1.40,0.33,4101,2022-06-05 23:33:45.295,2022-06-05 16:33:45.295,16,0,0,16.527,34.182622,-118.129104,0.00,0.00,-0.80,4.70,-2.00,-6.50,0,1,0,90,100,-8676,3052,16527,3111.50,10,WP,1,0,0,0,0,0,0,1654472025294,4137,4134,4130,4127,0,0,27,,,,,,,0,0,0,-47.00,-20.00,-65.00,1.00,0.00,-64.00,14,35.00,8.00,3.31,0.00,0.00,-8.00,0,,,100,100,0,2,0,0,0,1,0,,,,,0.0,0.0,0.0,0.0,0.0,0.0,0
34.182625,-118.129103,3.60,3.50,0.70,0.33,3.60,3.60,1.40,0.33,4202,2022-06-05 23:33:45.396,2022-06-05 16:33:45.396,16,0,0,16.527,34.182622,-118.129104,0.00,0.00,-0.70,4.90,-2.20,-6.50,0,1,0,90,100,-8676,3052,16527,3111.50,10,WP,1,0,0,0,0,0,0,1654472025395,4137,4134,4130,4127,0,0,27,,,,,,,0,0,0,-49.00,-22.00,-65.00,1.00,0.00,-64.00,14,36.00,7.00,3.35,0.00,0.00,-7.00,0,,,100,100,0,2,0,0,0,1,0,,,,,0.0,0.0,0.0,0.0,0.0,0.0,0
34.182625,-118.129103,3.70,3.50,0.60,0.36,3.70,3.70,1.40,0.36,4301,2022-06-05 23:33:45.495,2022-06-05 16:33:45.495,16,0,0,16.527,34.182622,-118.129104,0.00,0.00,-0.60,5.40,-2.40,-6.60,0,1,0,90,100,-8676,3052,16527,3111.50,10,WP,1,0,0,0,0,0,0,1654472025494,4137,4134,4130,4127,0,0,27,,,,,,,0,0,0,-54.00,-24.00,-66.00,1.00,0.00,-64.00,14,37.00,6.00,3.60,0.00,0.00,-6.00,0,,,100,100,0,2,0,0,0,1,0,,,,,0.0,0.0,0.0,0.0,0.0,0.0,0
34.182626,-118.129103,3.70,3.60,0.50,0.36,3.70,3.70,1.40,0.36,4402,2022-06-05 23:33:45.596,2022-06-05 16:33:45.596,16,0,0,16.527,34.182622,-118.129104,0.00,0.00,-0.50,5.30,-2.40,-6.50,0,1,0,90,100,-8676,3052,16527,3111.50,10,WP,1,0,0,0,0,0,0,1654472025595,4137,4134,4130,4127,0,0,27,,,,,,,0,0,0,-53.00,-24.00,-65.00,1.00,0.00,-64.00,14,37.00,5.00,3.63,0.00,0.00,-5.00,0,,,100,100,0,2,0,0,0,1,0,,,,,0.0,0.0,0.0,0.0,0.0,0.0,0
34.182625,-118.129103,3.80,3.60,0.40,0.31,3.80,3.80,1.40,0.36,4502,2022-06-05 23:33:45.696,2022-06-05 16:33:45.696,16,0,0,16.527,34.182622,-118.129104,0.00,0.00,-0.40,0.30,-0.50,-6.30,0,1,0,90,100,-8676,3052,16527,3111.50,10,WP,1,0,0,0,0,0,0,1654472025695,4137,4134,4130,4127,0,0,27,,,,,,,0,0,0,-3.00,-5.00,-63.00,1.00,0.00,-64.00,14,38.00,4.00,3.15,0.00,0.00,-4.00,0,,,100,100,0,2,0,0,0,1,0,,,,,0.0,0.0,0.0,0.0,0.0,0.0,0
34.182625,-118.129103,3.80,3.60,0.30,0.32,3.80,3.80,1.40,0.36,4603,2022-06-05 23:33:45.796,2022-06-05 16:33:45.796,16,0,0,16.527,34.182622,-118.129104,0.00,0.00,-0.30,1.00,-0.80,-5.50,0,1,0,90,100,-8676,3052,16527,3111.50,10,WP,1,0,0,0,0,0,0,1654472025796,4137,4134,4130,4127,0,0,27,,,,,,,0,0,0,-10.00,-8.00,-55.00,1.00,0.00,-64.00,14,38.00,3.00,3.16,0.00,0.00,-3.00,0,,,100,100,0,2,0,0,0,1,0,,,,,0.0,0.0,0.0,0.0,0.0,0.0,0
34.182625,-118.129103,3.80,3.60,0.10,0.36,3.80,3.80,1.40,0.36,4702,2022-06-05 23:33:45.895,2022-06-05 16:33:45.895,16,0,0,16.527,34.182622,-118.129104,0.00,0.00,-0.10,2.90,-1.30,-4.00,0,1,0,90,100,-8676,3052,16527,3111.50,10,WP,1,0,0,0,0,0,0,1654472025895,4137,4134,4130,4127,0,0,27,,,,,,,0,0,0,-29.00,-13.00,-40.00,1.00,0.00,-64.00,14,38.00,1.00,3.56,0.00,0.00,-1.00,0,,,100,100,0,2,0,0,0,1,0,,,,,0.0,0.0,0.0,0.0,0.0,0.0,0
34.182626,-118.129103,3.80,3.70,0.10,0.37,3.80,3.80,1.40,0.37,4813,2022-06-05 23:33:46.006,2022-06-05 16:33:46.006,16,0,0,16.527,34.182622,-118.129104,0.10,0.00,0.00,3.50,-1.60,-1.90,0,1,0,90,100,-8676,3052,16527,3111.50,10,WP,1,0,0,0,0,0,0,1654472026006,4137,4134,4130,4127,0,0,27,,,,,,,0,0,0,-35.00,-16.00,-19.00,1.00,0.00,-62.00,14,38.00,1.00,3.66,1.00,0.00,0.00,0,,,100,100,0,2,0,0,0,1,0,,,,,0.0,0.0,0.0,0.0,0.0,0.0,0
34.182626,-118.129103,3.80,3.70,0.00,0.38,3.80,3.80,1.40,0.38,4913,2022-06-05 23:33:46.106,2022-06-05 16:33:46.106,16,0,0,16.527,34.182622,-118.129104,0.00,0.00,0.00,3.70,-1.30,0.60,0,1,0,90,100,-8676,3052,16527,3111.50,10,WP,1,0,0,0,0,0,0,1654472026106,4137,4134,4130,4127,0,0,27,,,,,,,0,0,0,-37.00,-13.00,6.00,1.00,0.00,-53.00,14,38.00,0.00,3.76,0.00,0.00,0.00,0,,,100,100,0,2,0,0,0,1,0,,,,,0.0,0.0,0.0,0.0,0.0,0.0,0
34.182626,-118.129103,3.80,3.60,0.00,0.39,3.80,3.80,1.40,0.39,5012,2022-06-05 23:33:46.206,2022-06-05 16:33:46.206,16,0,0,16.527,34.182622,-118.129104,0.00,0.00,0.00,3.60,-0.90,3.80,0,1,0,90,100,-8676,3052,16527,3111.50,10,WP,1,0,0,0,0,0,0,1654472026205,4137,4134,4130,4127,0,0,27,,,,,,,0,0,0,-36.00,-9.00,38.00,1.00,0.00,-33.00,14,38.00,0.00,3.87,0.00,0.00,0.00,0,,,100,100,0,2,0,0,0,1,0,,,,,0.0,0.0,0.0,0.0,0.0,0.0,0
34.182626,-118.129103,3.80,3.60,0.00,0.38,3.80,3.80,1.40,0.39,5113,2022-06-05 23:33:46.306,2022-06-05 16:33:46.306,16,0,0,16.653,34.182622,-118.129104,0.00,0.00,0.00,3.70,-0.80,7.50,0,1,0,90,100,-7052,3047,16653,3111.50,10,WP,1,0,0,0,0,0,0,1654472026306,4137,4134,4130,4127,0,0,27,,,,,,,0,0,0,-37.00,-8.00,75.00,1.00,0.00,-4.00,14,38.00,0.00,3.79,0.00,0.00,0.00,0,,,100,100,0,2,0,0,0,1,0,,,,,0.0,0.0,0.0,0.0,0.0,0.0,0
34.182626,-118.129103,3.80,3.60,0.00,0.39,3.80,3.80,1.40,0.39,5213,2022-06-05 23:33:46.406,2022-06-05 16:33:46.406,16,0,0,16.653,34.182622,-118.129104,0.00,0.00,0.00,4.00,-0.50,11.80,0,1,0,90,100,-7052,3047,16653,3111.50,10,WP,1,0,0,0,0,0,0,1654472026406,4137,4134,4130,4127,0,0,27,,,,,,,0,0,0,-40.00,-5.00,118.00,1.00,0.00,32.00,14,38.00,0.00,3.89,0.00,0.00,0.00,0,,,100,100,0,2,0,0,0,1,0,,,,,0.0,0.0,0.0,0.0,0.0,0.0,0
34.182626,-118.129103,3.80,3.60,0.00,0.41,3.80,3.80,1.40,0.41,5302,2022-06-05 23:33:46.496,2022-06-05 16:33:46.496,16,0,0,16.653,34.182622,-118.129104,0.00,0.00,0.00,4.20,-0.40,16.50,0,1,0,90,100,-7052,3047,16653,3111.50,10,WP,1,0,0,0,0,0,0,1654472026495,4137,4134,4130,4127,0,0,27,,,,,,,0,0,0,-42.00,-4.00,165.00,1.00,0.00,76.00,14,38.00,0.00,4.06,0.00,0.00,0.00,0,,,100,100,0,2,0,0,0,1,0,,,,,0.0,0.0,0.0,0.0,0.0,0.0,0
34.182626,-118.129103,3.80,3.60,0.00,0.42,3.80,3.80,1.40,0.42,5403,2022-06-05 23:33:46.596,2022-06-05 16:33:46.596,16,0,0,16.653,34.182622,-118.129104,0.00,0.00,0.00,4.20,-0.20,21.90,0,1,0,90,100,-7052,3047,16653,3111.50,10,WP,1,0,0,0,0,0,0,1654472026596,4137,4134,4130,4127,0,0,27,,,,,,,0,0,0,-42.00,-2.00,219.00,1.00,0.00,126.00,14,38.00,0.00,4.16,0.00,0.00,0.00,0,,,100,100,0,2,0,0,0,1,0,,,,,0.0,0.0,0.0,0.0,0.0,0.0,0
34.182626,-118.129103,3.80,3.60,0.00,0.43,3.80,3.80,1.40,0.43,5503,2022-06-05 23:33:46.696,2022-06-05 16:33:46.696,16,0,0,16.653,34.182622,-118.129104,0.00,0.00,0.00,4.20,0.30,27.60,0,1,0,90,100,-7052,3047,16653,3111.50,10,WP,1,0,0,0,0,0,0,1654472026696,4137,4134,4130,4127,0,0,27,,,,,,,0,0,0,-42.00,3.00,276.00,1.00,0.00,179.00,14,38.00,0.00,4.27,0.00,0.00,0.00,0,,,100,100,0,2,0,0,0,1,0,,,,,0.0,0.0,0.0,0.0,0.0,0.0,0
34.182626,-118.129103,3.80,3.60,0.00,0.44,3.80,3.80,1.40,0.44,5602,2022-06-05 23:33:46.796,2022-06-05 16:33:46.796,16,0,0,16.653,34.182622,-118.129104,0.00,0.00,0.00,4.10,0.90,34.00,0,1,0,90,100,-7052,3047,16653,3111.50,10,WP,1,0,0,0,0,0,0,1654472026795,4137,4134,4130,4127,0,0,27,,,,,,,0,0,0,-41.00,9.00,340.00,1.00,0.00,238.00,14,38.00,0.00,4.35,0.00,0.00,0.00,0,,,100,100,0,2,0,0,0,1,0,,,,,0.0,0.0,0.0,0.0,0.0,0.0,0
34.182626,-118.129103,3.80,3.60,0.00,0.45,3.80,3.80,1.40,0.45,5702,2022-06-05 23:33:46.896,2022-06-05 16:33:46.896,16,0,0,16.653,34.182622,-118.129104,0.00,0.00,0.00,3.70,1.80,41.00,0,1,0,90,100,-7052,3047,16653,3111.50,10,WP,1,0,0,0,0,0,0,1654472026895,4137,4134,4130,4127,0,0,27,,,,,,,0,0,0,-37.00,18.00,410.00,1.00,0.00,303.00,14,38.00,0.00,4.49,0.00,0.00,0.00,0,,,100,100,0,2,0,0,0,1,0,,,,,0.0,0.0,0.0,0.0,0.0,0.0,0
34.182626,-118.129103,3.80,3.70,0.00,0.46,3.80,3.80,1.40,0.46,5802,2022-06-05 23:33:46.995,2022-06-05 16:33:46.995,16,0,0,16.653,34.182622,-118.129104,0.00,0.00,0.00,3.60,2.40,48.50,0,1,0,90,100,-7052,3047,16653,3111.50,10,WP,1,0,0,0,0,0,0,1654472026995,4137,4134,4130,4127,0,0,27,,,,,,,0,0,0,-36.00,24.00,485.00,1.00,0.00,373.00,14,38.00,0.00,4.57,0.00,0.00,0.00,0,,,100,100,0,2,0,0,0,1,0,,,,,0.0,0.0,0.0,0.0,0.0,0.0,0
34.182626,-118.129103,3.80,3.60,0.00,0.44,3.80,3.80,1.40,0.46,5902,2022-06-05 23:33:47.096,2022-06-05 16:33:47.096,16,0,0,16.653,34.182622,-118.129104,0.00,0.00,0.00,3.10,2.70,55.90,0,1,0,90,100,-7052,3047,16653,3111.50,10,WP,1,0,0,0,0,0,0,1654472027095,4137,4134,4130,4127,0,0,27,,,,,,,0,0,0,-31.00,27.00,559.00,1.00,0.00,449.00,14,38.00,0.00,4.42,0.00,0.00,0.00,0,,,100,100,0,2,0,0,0,1,0,,,,,0.0,0.0,0.0,0.0,0.0,0.0,0
34.182626,-118.129103,3.80,3.60,0.00,0.45,3.80,3.80,1.40,0.46,6003,2022-06-05 23:33:47.196,2022-06-05 16:33:47.196,16,0,0,16.653,34.182622,-118.129104,0.00,0.00,0.00,2.70,2.60,63.30,0,1,0,90,100,-7052,3047,16653,3111.50,10,WP,1,0,0,0,0,0,0,1654472027196,4137,4134,4130,4127,0,0,27,,,,,,,0,0,0,-27.00,26.00,633.00,1.00,0.00,526.00,14,38.00,0.00,4.45,0.00,0.00,0.00,0,,,100,100,0,2,0,0,0,1,0,,,,,0.0,0.0,0.0,0.0,0.0,0.0,0
34.182626,-118.129103,3.80,3.60,0.00,0.44,3.80,3.80,1.40,0.46,6103,2022-06-05 23:33:47.296,2022-06-05 16:33:47.296,16,0,0,16.653,34.182622,-118.129104,0.00,0.00,0.00,2.40,3.00,70.80,0,1,0,90,100,-7052,3047,16653,3111.50,10,WP,1,0,0,0,0,0,0,1654472027296,4137,4134,4130,4127,0,0,27,,,,,,,0,0,0,-24.00,30.00,708.00,1.00,0.00,602.00,14,38.00,0.00,4.36,0.00,0.00,0.00,0,,,100,100,0,2,0,0,0,1,0,,,,,0.0,0.0,0.0,0.0,0.0,0.0,0
34.182626,-118.129103,3.80,3.60,0.00,0.44,3.80,3.80,1.40,0.46,6203,2022-06-05 23:33:47.397,2022-06-05 16:33:47.397,16,0,0,16.653,34.182622,-118.129104,0.00,0.00,0.00,1.90,3.40,78.20,0,1,0,90,100,-7052,3047,16653,3111.50,10,WP,1,0,0,0,0,0,0,1654472027396,4137,4134,4130,4127,0,0,27,,,,,,,0,0,0,-19.00,34.00,782.00,1.00,0.00,677.00,14,38.00,0.00,4.41,0.00,0.00,0.00,0,,,100,100,0,2,0,0,0,1,0,,,,,0.0,0.0,0.0,0.0,0.0,0.0,0
34.182626,-118.129103,3.80,3.60,0.00,0.44,3.80,3.80,1.40,0.46,6304,2022-06-05 23:33:47.497,2022-06-05 16:33:47.497,16,0,0,16.653,34.182622,-118.129104,0.00,0.00,0.00,1.50,3.70,85.60,0,1,0,90,100,-7052,3047,16653,3111.50,10,WP,1,0,0,0,0,0,0,1654472027497,4137,4134,4130,4127,0,0,27,,,,,,,0,0,0,-15.00,37.00,856.00,1.00,0.00,752.00,14,38.00,0.00,4.44,0.00,0.00,0.00,0,,,100,100,0,2,0,0,0,1,0,,,,,0.0,0.0,0.0,0.0,0.0,0.0,0
34.182626,-118.129103,3.80,3.60,0.00,0.45,3.80,3.80,1.40,0.46,6403,2022-06-05 23:33:47.597,2022-06-05 16:33:47.597,16,0,0,16.653,34.182622,-118.129104,0.00,0.00,0.00,0.90,4.00,93.00,0,1,0,90,100,-7052,3047,16653,3111.50,10,WP,1,0,0,0,0,0,0,1654472027596,4137,4134,4130,4127,0,0,27,,,,,,,0,0,0,-9.00,40.00,930.00,1.00,0.00,827.00,14,38.00,0.00,4.46,0.00,0.00,0.00,0,,,100,100,0,2,0,0,0,1,0,,,,,0.0,0.0,0.0,0.0,0.0,0.0,0
34.182626,-118.129102,3.80,3.60,0.00,0.44,3.80,3.80,1.40,0.46,6503,2022-06-05 23:33:47.696,2022-06-05 16:33:47.696,16,0,0,16.653,34.182622,-118.129104,0.00,0.00,0.00,0.60,4.40,100.50,0,1,0,90,100,-7052,3047,16653,3111.50,10,WP,1,0,0,0,0,0,0,1654472027696,4137,4134,4130,4127,0,0,27,,,,,,,0,0,0,-6.00,44.00,1005.00,1.00,0.00,902.00,14,38.00,0.00,4.40,0.00,0.00,0.00,0,,,100,100,0,2,0,0,0,1,0,,,,,0.0,0.0,0.0,0.0,0.0,0.0,0
34.182626,-118.129102,3.80,3.60,0.00,0.44,3.80,3.80,1.40,0.46,6604,2022-06-05 23:33:47.797,2022-06-05 16:33:47.797,16,0,0,16.653,34.182622,-118.129104,0.00,0.00,0.00,0.30,4.60,107.90,0,1,0,90,100,-7052,3047,16653,3111.50,10,WP,1,0,0,0,0,0,0,1654472027797,4137,4134,4130,4127,0,0,27,,,,,,,0,0,0,-3.00,46.00,1079.00,1.00,0.00,978.00,14,38.00,0.00,4.41,0.00,0.00,0.00,0,,,100,100,0,2,0,0,0,1,0,,,,,0.0,0.0,0.0,0.0,0.0,0.0,0
34.182626,-118.129102,3.80,3.60,0.00,0.45,3.80,3.80,1.40,0.46,6703,2022-06-05 23:33:47.896,2022-06-05 16:33:47.896,16,0,0,16.653,34.182622,-118.129104,0.00,0.00,0.00,0.00,4.50,115.40,0,1,0,90,100,-7052,3047,16653,3111.50,10,WP,1,0,0,0,0,0,0,1654472027896,4137,4134,4130,4127,0,0,27,,,,,,,0,0,0,-0.00,45.00,1154.00,1.00,0.00,1052.00,14,38.00,0.00,4.46,0.00,0.00,0.00,0,,,100,100,0,2,0,0,0,1,0,,,,,0.0,0.0,0.0,0.0,0.0,0.0,0
34.182626,-118.129102,3.80,3.60,0.00,0.45,3.80,3.80,1.40,0.46,6804,2022-06-05 23:33:47.998,2022-06-05 16:33:47.998,16,0,0,16.653,34.182622,-118.129104,0.00,0.00,0.00,-0.40,4.30,122.90,0,1,0,90,100,-7052,3047,16653,3111.50,10,WP,1,0,0,0,0,0,0,1654472027997,4137,4134,4130,4127,0,0,27,,,,,,,0,0,0,4.00,43.00,1229.00,1.00,0.00,1127.00,14,38.00,0.00,4.47,0.00,0.00,0.00,0,,,100,100,0,2,0,0,0,1,0,,,,,0.0,0.0,0.0,0.0,0.0,0.0,0
34.182626,-118.129102,3.80,3.60,0.00,0.43,3.80,3.80,1.40,0.46,6905,2022-06-05 23:33:48.099,2022-06-05 16:33:48.099,16,0,0,16.653,34.182622,-118.129104,0.00,0.00,0.00,-1.30,3.90,130.30,0,1,0,90,100,-7052,3047,16653,3111.50,10,WP,1,0,0,0,0,0,0,1654472028098,4137,4134,4130,4127,0,0,27,,,,,,,0,0,0,13.00,39.00,1303.00,1.00,0.00,1202.00,14,38.00,0.00,4.30,0.00,0.00,0.00,0,,,100,100,0,2,0,0,0,1,0,,,,,0.0,0.0,0.0,0.0,0.0,0.0,0
34.182626,-118.129102,3.80,3.60,0.00,0.43,3.80,3.80,1.40,0.46,7004,2022-06-05 23:33:48.198,2022-06-05 16:33:48.198,16,0,0,16.653,34.182622,-118.129104,0.00,0.00,0.00,-2.00,3.40,137.70,0,1,0,90,100,-7052,3047,16653,3111.50,10,WP,1,0,0,0,0,0,0,1654472028197,4137,4134,4130,4127,0,0,27,,,,,,,0,0,0,20.00,34.00,1377.00,1.00,0.00,1277.00,14,38.00,0.00,4.28,0.00,0.00,0.00,0,,,100,100,0,2,0,0,0,1,0,,,,,0.0,0.0,0.0,0.0,0.0,0.0,0
34.182626,-118.129102,3.80,3.60,0.00,0.41,3.80,3.80,1.40,0.46,7104,2022-06-05 23:33:48.298,2022-06-05 16:33:48.298,16,0,0,16.565,34.182622,-118.129104,0.00,0.00,0.00,-2.50,3.00,145.20,0,1,0,90,100,-7459,3045,16565,3111.50,10,WP,1,0,0,0,0,0,0,1654472028297,4137,4134,4130,4127,0,0,27,,,,,,,0,0,0,25.00,30.00,1452.00,1.00,0.00,1352.00,14,38.00,0.00,4.14,0.00,0.00,0.00,0,,,100,100,0,2,0,0,0,1,0,,,,,0.0,0.0,0.0,0.0,0.0,0.0,0
34.182626,-118.129102,3.80,3.60,0.00,0.41,3.80,3.80,1.40,0.46,7204,2022-06-05 23:33:48.397,2022-06-05 16:33:48.397,16,0,0,16.565,34.182622,-118.129104,0.00,0.00,0.00,-2.70,2.50,152.70,0,1,0,90,100,-7459,3045,16565,3111.50,10,WP,1,0,0,0,0,0,0,1654472028397,4137,4134,4130,4127,0,0,27,,,,,,,0,0,0,27.00,25.00,1527.00,1.00,0.00,1426.00,14,38.00,0.00,4.10,0.00,0.00,0.00,0,,,100,100,0,2,0,0,0,1,0,,,,,0.0,0.0,0.0,0.0,0.0,0.0,0
34.182625,-118.129102,3.80,3.60,0.00,0.40,3.80,3.80,1.40,0.46,7303,2022-06-05 23:33:48.496,2022-06-05 16:33:48.496,16,0,0,16.565,34.182622,-118.129104,0.00,0.00,0.00,-3.10,2.20,159.10,0,1,0,90,100,-7459,3045,16565,3111.50,10,WP,1,0,0,0,0,0,0,1654472028496,4137,4134,4130,4127,0,0,27,,,,,,,0,0,0,31.00,22.00,1591.00,1.00,0.00,1501.00,14,38.00,0.00,4.02,0.00,0.00,0.00,0,,,100,100,0,2,0,0,0,1,0,,,,,0.0,0.0,0.0,0.0,0.0,0.0,0
34.182625,-118.129102,3.80,3.60,0.00,0.40,3.80,3.80,1.40,0.46,7404,2022-06-05 23:33:48.597,2022-06-05 16:33:48.597,16,0,0,16.565,34.182622,-118.129104,0.00,0.00,0.00,-3.00,2.10,163.50,0,1,0,90,100,-7459,3045,16565,3111.50,10,WP,1,0,0,0,0,0,0,1654472028597,4137,4134,4130,4127,0,0,27,,,,,,,0,0,0,30.00,21.00,1635.00,1.00,0.00,1567.00,14,38.00,0.00,3.96,0.00,0.00,0.00,0,,,100,100,0,2,0,0,0,1,0,,,,,0.0,0.0,0.0,0.0,0.0,0.0,0
34.182625,-118.129102,3.80,3.60,0.00,0.38,3.80,3.80,1.40,0.46,7504,2022-06-05 23:33:48.697,2022-06-05 16:33:48.697,16,0,0,16.565,34.182622,-118.129104,0.00,0.00,0.00,-3.00,1.40,166.30,0,1,0,90,100,-7459,3045,16565,3111.50,10,WP,1,0,0,0,0,0,0,1654472028697,4137,4134,4130,4127,0,0,27,,,,,,,0,0,0,30.00,14.00,1663.00,1.00,0.00,1615.00,14,38.00,0.00,3.78,0.00,0.00,0.00,0,,,100,100,0,2,0,0,0,1,0,,,,,0.0,0.0,0.0,0.0,0.0,0.0,0
34.182625,-118.129102,3.80,3.60,0.00,0.37,3.80,3.80,1.40,0.46,7604,2022-06-05 23:33:48.798,2022-06-05 16:33:48.798,16,0,0,16.565,34.182622,-118.129104,0.00,0.00,0.00,-2.90,1.10,168.10,0,1,0,90,100,-7459,3045,16565,3111.50,10,WP,1,0,0,0,0,0,0,1654472028797,4137,4134,4130,4127,0,0,27,,,,,,,0,0,0,29.00,11.00,1681.00,1.00,0.00,1646.00,14,38.00,0.00,3.70,0.00,0.00,0.00,0,,,100,100,0,2,0,0,0,1,0,,,,,0.0,0.0,0.0,0.0,0.0,0.0,0
34.182625,-118.129102,3.80,3.70,0.00,0.36,3.80,3.80,1.40,0.46,7703,2022-06-05 23:33:48.897,2022-06-05 16:33:48.897,16,0,0,16.565,34.182622,-118.129104,0.00,0.00,0.00,-2.60,1.50,169.00,0,1,0,90,100,-7459,3045,16565,3111.50,10,WP,1,0,0,0,0,0,0,1654472028896,4137,4134,4130,4127,0,0,27,,,,,,,0,0,0,26.00,15.00,1690.00,1.00,0.00,1666.00,14,38.00,0.00,3.58,0.00,0.00,0.00,0,,,100,100,0,2,0,0,0,1,0,,,,,0.0,0.0,0.0,0.0,0.0,0.0,0
34.182625,-118.129102,3.80,3.70,0.00,0.35,3.80,3.80,1.40,0.46,7804,2022-06-05 23:33:48.997,2022-06-05 16:33:48.997,16,0,0,16.565,34.182622,-118.129104,0.00,0.00,0.00,-2.30,1.80,169.50,0,1,0,90,100,-7459,3045,16565,3111.50,10,WP,1,0,0,0,0,0,0,1654472028997,4137,4134,4130,4127,0,0,27,,,,,,,0,0,0,23.00,18.00,1695.00,1.00,0.00,1678.00,14,38.00,0.00,3.51,0.00,0.00,0.00,0,,,100,100,0,2,0,0,0,1,0,,,,,0.0,0.0,0.0,0.0,0.0,0.0,0
34.182625,-118.129102,3.80,3.70,0.00,0.32,3.80,3.80,1.40,0.46,7904,2022-06-05 23:33:49.097,2022-06-05 16:33:49.097,16,0,0,16.565,34.182622,-118.129104,0.00,0.00,0.00,-2.10,2.00,169.80,0,1,0,90,100,-7459,3045,16565,3111.50,10,WP,1,0,0,0,0,0,0,1654472029097,4137,4134,4130,4127,0,0,27,,,,,,,0,0,0,21.00,20.00,1698.00,1.00,0.00,1685.00,14,38.00,0.00,3.24,0.00,0.00,0.00,0,,,100,100,0,2,0,0,0,1,0,,,,,0.0,0.0,0.0,0.0,0.0,0.0,0
34.182625,-118.129102,3.80,3.60,0.00,0.32,3.80,3.80,1.40,0.46,8004,2022-06-05 23:33:49.198,2022-06-05 16:33:49.198,16,0,0,16.565,34.182622,-118.129104,0.00,0.00,0.00,-2.20,1.60,170.30,0,1,0,90,100,-7459,3045,16565,3111.50,10,WP,1,0,0,0,0,0,0,1654472029197,4137,4134,4130,4127,0,0,27,,,,,,,0,0,0,22.00,16.00,1703.00,1.00,0.00,1690.00,14,38.00,0.00,3.16,0.00,0.00,0.00,0,,,100,100,0,2,0,0,0,1,0,,,,,0.0,0.0,0.0,0.0,0.0,0.0,0
34.182624,-118.129102,3.80,3.60,0.00,0.31,3.80,3.80,1.40,0.46,8104,2022-06-05 23:33:49.297,2022-06-05 16:33:49.297,16,0,0,16.565,34.182622,-118.129104,0.00,0.00,0.00,-2.10,1.60,170.70,0,1,0,90,100,-7459,3045,16565,3111.50,10,WP,1,0,0,0,0,0,0,1654472029297,4137,4134,4130,4127,0,0,27,,,,,,,0,0,0,21.00,16.00,1707.00,1.00,0.00,1694.00,14,38.00,0.00,3.09,0.00,0.00,0.00,0,,,100,100,0,2,0,0,0,1,0,,,,,0.0,0.0,0.0,0.0,0.0,0.0,0
34.182624,-118.129102,3.80,3.60,0.00,0.31,3.80,3.80,1.40,0.46,8204,2022-06-05 23:33:49.397,2022-06-05 16:33:49.397,16,0,0,16.565,34.182622,-118.129104,0.00,0.00,0.00,-4.50,1.50,170.80,0,1,0,90,100,-7459,3045,16565,3111.50,10,WP,1,0,0,0,0,0,0,1654472029397,4137,4134,4130,4127,0,0,27,,,,,,,0,0,0,45.00,15.00,1708.00,1.00,0.00,1698.00,14,38.00,0.00,3.06,0.00,0.00,0.00,0,,,100,100,0,2,0,0,0,1,0,,,,,0.0,0.0,0.0,0.0,0.0,0.0,0
34.182624,-118.129102,3.80,3.60,0.10,0.28,3.80,3.80,1.40,0.46,8305,2022-06-05 23:33:49.498,2022-06-05 16:33:49.498,16,0,0,16.565,34.182622,-118.129104,-0.10,0.00,0.00,-9.80,1.90,170.70,0,1,0,90,100,-7459,3045,16565,3111.50,10,WP,1,0,0,0,0,0,0,1654472029498,4137,4134,4130,4127,0,0,27,,,,,,,0,0,0,98.00,19.00,1707.00,1.00,0.00,1700.00,14,38.00,1.00,2.75,-1.00,0.00,0.00,0,,,100,100,0,2,0,0,0,1,0,,,,,0.0,0.0,0.0,0.0,0.0,0.0,0
34.182624,-118.129102,3.80,3.60,0.20,0.27,3.80,3.80,1.40,0.46,8404,2022-06-05 23:33:49.597,2022-06-05 16:33:49.598,16,0,0,16.565,34.182622,-118.129104,-0.20,0.00,0.00,-14.10,2.20,170.60,0,1,0,90,100,-7459,3045,16565,3111.50,10,WP,1,0,0,0,0,0,0,1654472029597,4137,4134,4130,4127,0,0,27,,,,,,,0,0,0,141.00,22.00,1706.00,1.00,0.00,1701.00,14,38.00,2.00,2.67,-2.00,0.00,0.00,0,,,100,100,0,2,0,0,0,1,0,,,,,0.0,0.0,0.0,0.0,0.0,0.0,0
34.182623,-118.129101,3.80,3.60,0.51,0.26,3.80,3.80,1.40,0.46,8504,2022-06-05 23:33:49.698,2022-06-05 16:33:49.698,16,0,0,16.565,34.182622,-118.129104,-0.50,0.10,0.00,-17.20,2.60,170.50,0,1,0,90,100,-7459,3045,16565,3111.50,10,WP,1,0,0,0,0,0,0,1654472029697,4137,4134,4130,4127,0,0,27,,,,,,,0,0,0,172.00,26.00,1705.00,1.00,0.00,1702.00,14,38.00,5.10,2.57,-5.00,1.00,0.00,0,,,100,100,0,2,0,0,0,1,0,,,,,0.0,0.0,0.0,0.0,0.0,0.0,0
34.182623,-118.129101,3.80,3.60,0.71,0.25,3.80,3.80,1.40,0.46,8604,2022-06-05 23:33:49.798,2022-06-05 16:33:49.798,16,0,0,16.565,34.182622,-118.129104,-0.70,0.10,0.00,-19.30,2.60,170.40,0,1,0,90,100,-7459,3045,16565,3111.50,10,WP,1,0,0,0,0,0,0,1654472029797,4137,4134,4130,4127,0,0,27,,,,,,,0,0,0,193.00,26.00,1704.00,1.00,0.00,1702.00,14,38.00,7.07,2.54,-7.00,1.00,0.00,0,,,100,100,0,2,0,0,0,1,0,,,,,0.0,0.0,0.0,0.0,0.0,0.0,0
34.182622,-118.129101,3.80,3.60,1.00,0.28,3.80,3.80,1.40,0.46,8705,2022-06-05 23:33:49.898,2022-06-05 16:33:49.898,16,0,0,16.565,34.182622,-118.129104,-1.00,0.10,0.00,-20.60,2.40,170.30,0,1,0,90,100,-7459,3045,16565,3111.50,10,WP,1,0,0,0,0,0,0,1654472029898,4137,4134,4130,4127,0,0,27,,,,,,,0,0,0,206.00,24.00,1703.00,1.00,0.00,1703.00,14,38.00,10.05,2.77,-10.00,1.00,0.00,0,,,100,100,0,2,0,0,0,1,0,,,,,0.0,0.0,0.0,0.0,0.0,0.0,0
34.182620,-118.129101,3.80,3.60,1.30,0.35,3.80,3.80,1.40,0.46,8804,2022-06-05 23:33:49.998,2022-06-05 16:33:49.998,16,0,0,16.565,34.182622,-118.129104,-1.30,0.10,0.00,-21.90,2.00,170.30,0,1,0,90,100,-7459,3045,16565,3111.50,10,WP,1,0,0,0,0,0,0,1654472029997,4137,4134,4130,4127,0,0,27,,,,,,,0,0,0,219.00,20.00,1703.00,1.00,0.00,1703.00,14,38.00,13.04,3.53,-13.00,1.00,0.00,0,,,100,100,0,2,0,0,0,1,0,,,,,0.0,0.0,0.0,0.0,0.0,0.0,0
34.182619,-118.129101,3.80,3.60,1.61,0.48,3.80,3.80,1.61,0.48,8905,2022-06-05 23:33:50.098,2022-06-05 16:33:50.098,16,0,0,16.565,34.182622,-118.129104,-1.60,0.20,0.00,-22.90,1.70,170.30,0,1,0,90,100,-7459,3045,16565,3111.50,10,WP,1,0,0,0,0,0,0,1654472030098,4137,4134,4130,4127,0,0,27,,,,,,,0,0,0,229.00,17.00,1703.00,1.00,0.00,1703.00,14,38.00,16.12,4.78,-16.00,2.00,0.00,0,,,100,100,0,2,0,0,0,1,0,,,,,0.0,0.0,0.0,0.0,0.0,0.0,0
34.182617,-118.129100,3.80,3.60,1.91,0.65,3.80,3.80,1.91,0.65,9004,2022-06-05 23:33:50.198,2022-06-05 16:33:50.198,16,0,0,16.565,34.182622,-118.129104,-1.90,0.20,0.00,-23.70,1.80,170.30,0,1,0,90,100,-7459,3045,16565,3111.50,10,WP,1,0,0,0,0,0,0,1654472030197,4137,4134,4130,4127,0,0,27,,,,,,,0,0,0,237.00,18.00,1703.00,1.00,0.00,1703.00,14,38.00,19.10,6.50,-19.00,2.00,0.00,0,,,100,100,0,2,0,0,0,1,0,,,,,0.0,0.0,0.0,0.0,0.0,0.0,0
34.182615,-118.129100,3.80,3.60,2.32,0.85,3.80,3.80,2.32,0.85,9104,2022-06-05 23:33:50.297,2022-06-05 16:33:50.297,16,0,0,16.560,34.182622,-118.129104,-2.30,0.30,0.00,-24.10,1.70,170.30,0,1,0,90,100,-7159,3041,16560,3111.50,10,WP,1,0,0,0,0,0,0,1654472030297,4137,4134,4130,4127,0,0,27,,,,,,,0,0,0,241.00,17.00,1703.00,1.00,0.00,1703.00,14,38.00,23.19,8.51,-23.00,3.00,0.00,0,,,100,100,0,2,0,0,0,1,0,,,,,0.0,0.0,0.0,0.0,0.0,0.0,0
34.182613,-118.129100,3.80,3.60,2.62,1.10,3.80,3.80,2.62,1.10,9205,2022-06-05 23:33:50.398,2022-06-05 16:33:50.398,16,0,0,16.560,34.182622,-118.129104,-2.60,0.30,0.00,-24.20,1.90,170.40,0,1,0,90,100,-7159,3041,16560,3111.50,10,WP,1,0,0,0,0,0,0,1654472030398,4137,4134,4130,4127,0,0,27,,,,,,,0,0,0,242.00,19.00,1704.00,1.00,0.00,1703.00,14,38.00,26.17,11.01,-26.00,3.00,0.00,0,,,100,100,0,2,0,0,0,1,0,,,,,0.0,0.0,0.0,0.0,0.0,0.0,0
34.182610,-118.129100,3.80,3.60,3.03,1.37,3.80,3.80,3.03,1.37,9305,2022-06-05 23:33:50.498,2022-06-05 16:33:50.498,16,0,0,16.560,34.182622,-118.129104,-3.00,0.40,0.00,-24.10,1.30,170.50,0,1,0,90,100,-7159,3041,16560,3111.50,10,WP,1,0,0,0,0,0,0,1654472030498,4137,4134,4130,4127,0,0,27,,,,,,,0,0,0,241.00,13.00,1705.00,1.00,0.00,1703.00,14,38.00,30.27,13.73,-30.00,4.00,0.00,0,,,100,100,0,2,0,0,0,1,0,,,,,0.0,0.0,0.0,0.0,0.0,0.0,0
34.182608,-118.129099,3.80,3.60,3.32,1.69,3.80,3.80,3.32,1.69,9404,2022-06-05 23:33:50.597,2022-06-05 16:33:50.597,16,0,0,16.560,34.182622,-118.129104,-3.30,0.40,0.00,-18.60,0.90,170.70,0,1,0,90,100,-7159,3041,16560,3111.50,10,WP,1,0,0,0,0,0,0,1654472030597,4137,4134,4130,4127,0,0,27,,,,,,,0,0,0,186.00,9.00,1707.00,1.00,0.00,1703.00,14,38.00,33.24,16.94,-33.00,4.00,0.00,0,,,100,100,0,2,0,0,0,1,0,,,,,0.0,0.0,0.0,0.0,0.0,0.0,0
34.182604,-118.129099,3.80,3.60,3.52,2.06,3.80,3.80,3.52,2.06,9504,2022-06-05 23:33:50.698,2022-06-05 16:33:50.698,16,0,0,16.560,34.182622,-118.129104,-3.50,0.40,-0.10,-10.10,0.60,170.80,0,1,0,90,100,-7159,3041,16560,3111.50,10,WP,1,0,0,0,0,0,0,1654472030697,4137,4134,4130,4127,0,0,27,,,,,,,0,0,0,101.00,6.00,1708.00,1.00,0.00,1703.00,14,38.00,35.24,20.61,-35.00,4.00,-1.00,0,,,100,100,0,2,0,0,0,1,0,,,,,0.0,0.0,0.0,0.0,0.0,0.0,0
34.182601,-118.129098,3.80,3.70,3.52,2.42,3.80,3.80,3.52,2.42,9604,2022-06-05 23:33:50.798,2022-06-05 16:33:50.798,16,0,0,16.560,34.182622,-118.129104,-3.50,0.40,-0.10,-3.20,0.50,170.90,0,1,0,90,100,-7159,3041,16560,3111.50,10,WP,1,0,0,0,0,0,0,1654472030797,4137,4134,4130,4127,0,0,27,,,,,,,0,0,0,32.00,5.00,1709.00,1.00,0.00,1703.00,14,38.00,35.24,24.20,-35.00,4.00,-1.00,0,,,100,100,0,2,0,0,0,1,0,,,,,0.0,0.0,0.0,0.0,0.0,0.0,0
34.182598,-118.129098,3.80,3.70,3.52,2.75,3.80,3.80,3.52,2.75,9704,2022-06-05 23:33:50.898,2022-06-05 16:33:50.898,16,0,0,16.560,34.182622,-118.129104,-3.50,0.40,-0.10,0.60,0.00,170.90,0,1,0,90,100,-7159,3041,16560,3111.50,10,WP,1,0,0,0,0,0,0,1654472030897,4137,4134,4130,4127,0,0,27,,,,,,,0,0,0,-6.00,0.00,1709.00,1.00,0.00,1704.00,14,38.00,35.24,27.55,-35.00,4.00,-1.00,0,,,100,100,0,2,0,0,0,1,0,,,,,0.0,0.0,0.0,0.0,0.0,0.0,0
34.182595,-118.129098,3.80,3.70,3.33,3.10,3.80,3.80,3.52,3.10,9805,2022-06-05 23:33:50.999,2022-06-05 16:33:50.999,16,0,0,16.560,34.182622,-118.129104,-3.30,0.40,-0.10,3.30,-0.10,171.10,0,1,0,90,100,-7159,3041,16560,3111.50,10,WP,1,0,0,0,0,0,0,1654472030998,4137,4134,4130,4127,0,0,27,,,,,,,0,0,0,-33.00,-1.00,1711.00,1.00,0.00,1704.00,14,38.00,33.26,30.99,-33.00,4.00,-1.00,0,,,100,100,0,2,0,0,0,1,0,,,,,0.0,0.0,0.0,0.0,0.0,0.0,0
34.182592,-118.129097,3.80,3.80,3.23,3.47,3.80,3.80,3.52,3.47,9906,2022-06-05 23:33:51.099,2022-06-05 16:33:51.099,16,0,0,16.560,34.182622,-118.129104,-3.20,0.40,-0.10,5.90,-0.60,170.90,0,1,0,90,100,-7159,3041,16560,3111.50,10,WP,1,0,0,0,0,0,0,1654472031099,4137,4134,4130,4127,0,0,27,,,,,,,0,0,0,-59.00,-6.00,1709.00,1.00,0.00,1704.00,14,38.00,32.26,34.65,-32.00,4.00,-1.00,0,,,100,100,0,2,0,0,0,1,0,,,,,0.0,0.0,0.0,0.0,0.0,0.0,0
34.182589,-118.129097,3.80,3.80,3.13,3.78,3.80,3.80,3.52,3.78,10005,2022-06-05 23:33:51.199,2022-06-05 16:33:51.199,16,0,0,16.560,34.182622,-118.129104,-3.10,0.40,0.00,7.60,-0.60,171.10,0,1,0,90,100,-7159,3041,16560,3111.50,10,WP,1,0,0,0,0,0,0,1654472031198,4137,4134,4130,4127,0,0,27,,,,,,,0,0,0,-76.00,-6.00,1711.00,1.00,0.00,1704.00,14,38.00,31.26,37.83,-31.00,4.00,0.00,0,,,100,100,0,2,0,0,0,1,0,,,,,0.0,0.0,0.0,0.0,0.0,0.0,0
34.182586,-118.129097,3.80,3.80,2.93,4.10,3.80,3.80,3.52,4.10,10105,2022-06-05 23:33:51.298,2022-06-05 16:33:51.298,16,0,0,16.560,34.182622,-118.129104,-2.90,0.40,0.00,7.80,-1.90,170.90,0,1,0,90,100,-7159,3041,16560,3111.50,10,WP,1,0,0,0,0,0,0,1654472031298,4137,4134,4130,4127,0,0,27,,,,,,,0,0,0,-78.00,-19.00,1709.00,1.00,0.00,1704.00,14,38.00,29.27,41.04,-29.00,4.00,0.00,0,,,100,100,0,2,0,0,0,1,0,,,,,0.0,0.0,0.0,0.0,0.0,0.0,0
34.182583,-118.129097,3.80,3.70,2.63,4.38,3.80,3.80,3.52,4.38,10206,2022-06-05 23:33:51.399,2022-06-05 16:33:51.399,16,0,0,16.560,34.182622,-118.129104,-2.60,0.40,0.00,8.70,-1.00,171.10,0,1,0,90,100,-7159,3041,16560,3111.50,10,WP,1,0,0,0,0,0,0,1654472031399,4137,4134,4130,4127,0,0,27,,,,,,,0,0,0,-87.00,-10.00,1711.00,1.00,0.00,1704.00,14,38.00,26.31,43.83,-26.00,4.00,0.00,0,,,100,100,0,2,0,0,0,1,0,,,,,0.0,0.0,0.0,0.0,0.0,0.0,0
34.182581,-118.129096,3.80,3.70,2.43,4.68,3.80,3.80,3.52,4.68,10306,2022-06-05 23:33:51.499,2022-06-05 16:33:51.499,16,0,0,16.560,34.182622,-118.129104,-2.40,0.40,0.00,10.10,-1.20,171.00,0,1,0,90,100,-7159,3041,16560,3111.50,10,WP,1,0,0,0,0,0,0,1654472031499,4137,4134,4130,4127,0,0,27,,,,,,,0,0,0,-101.00,-12.00,1710.00,1.00,0.00,1704.00,14,38.00,24.33,46.83,-24.00,4.00,0.00,0,,,100,100,0,2,0,0,0,1,0,,,,,0.0,0.0,0.0,0.0,0.0,0.0,0
34.182579,-118.129096,3.80,3.70,2.16,4.92,3.80,3.80,3.52,4.92,10406,2022-06-05 23:33:51.599,2022-06-05 16:33:51.599,16,0,0,16.560,34.182622,-118.129104,-2.10,0.50,0.00,10.10,-0.40,171.10,0,1,0,90,100,-7159,3041,16560,3111.50,10,WP,1,0,0,0,0,0,0,1654472031599,4137,4134,4130,4127,0,0,27,,,,,,,0,0,0,-101.00,-4.00,1711.00,1.00,0.00,1704.00,14,38.00,21.59,49.19,-21.00,5.00,0.00,0,,,100,100,0,2,0,0,0,1,0,,,,,0.0,0.0,0.0,0.0,0.0,0.0,0
34.182576,-118.129095,3.80,3.70,1.96,5.19,3.80,3.80,3.52,5.19,10506,2022-06-05 23:33:51.699,2022-06-05 16:33:51.699,16,0,0,16.560,34.182622,-118.129104,-1.90,0.50,0.00,10.40,0.00,171.10,0,1,0,90,100,-7159,3041,16560,3111.50,10,WP,1,0,0,0,0,0,0,1654472031699,4137,4134,4130,4127,0,0,27,,,,,,,0,0,0,-104.00,0.00,1711.00,1.00,0.00,1704.00,14,38.00,19.65,51.91,-19.00,5.00,0.00,0,,,100,100,0,2,0,0,0,1,0,,,,,0.0,0.0,0.0,0.0,0.0,0.0,0
34.182574,-118.129095,3.80,3.70,1.65,5.38,3.80,3.80,3.52,5.38,10605,2022-06-05 23:33:51.799,2022-06-05 16:33:51.799,16,0,0,16.560,34.182622,-118.129104,-1.60,0.40,0.00,8.90,1.00,171.20,0,1,0,90,100,-7159,3041,16560,3111.50,10,WP,1,0,0,0,0,0,0,1654472031798,4137,4134,4130,4127,0,0,27,,,,,,,0,0,0,-89.00,10.00,1712.00,1.00,0.00,1704.00,14,38.00,16.49,53.82,-16.00,4.00,0.00,0,,,100,100,0,2,0,0,0,1,0,,,,,0.0,0.0,0.0,0.0,0.0,0.0,0
34.182573,-118.129094,3.80,3.70,1.46,5.54,3.80,3.80,3.52,5.54,10705,2022-06-05 23:33:51.898,2022-06-05 16:33:51.899,16,0,0,16.560,34.182622,-118.129104,-1.40,0.40,0.00,6.80,1.60,171.10,0,1,0,90,100,-7159,3041,16560,3111.50,10,WP,1,0,0,0,0,0,0,1654472031898,4137,4134,4130,4127,0,0,27,,,,,,,0,0,0,-68.00,16.00,1711.00,1.00,0.00,1704.00,14,38.00,14.56,55.36,-14.00,4.00,0.00,0,,,100,100,0,2,0,0,0,1,0,,,,,0.0,0.0,0.0,0.0,0.0,0.0,0
34.182572,-118.129094,3.80,3.70,1.26,5.69,3.80,3.80,3.52,5.69,10805,2022-06-05 23:33:51.998,2022-06-05 16:33:51.998,16,0,0,16.560,34.182622,-118.129104,-1.20,0.40,0.00,5.00,2.20,171.00,0,1,0,90,100,-7159,3041,16560,3111.50,10,WP,1,0,0,0,0,0,0,1654472031998,4137,4134,4130,4127,0,0,27,,,,,,,0,0,0,-50.00,22.00,1710.00,1.00,0.00,1704.00,14,38.00,12.65,56.85,-12.00,4.00,0.00,0,,,100,100,0,2,0,0,0,1,0,,,,,0.0,0.0,0.0,0.0,0.0,0.0,0
34.182570,-118.129093,3.80,3.80,1.17,5.84,3.80,3.80,3.52,5.84,10905,2022-06-05 23:33:52.099,2022-06-05 16:33:52.099,16,0,0,16.560,34.182622,-118.129104,-1.10,0.40,0.00,4.00,2.80,170.90,0,1,0,90,100,-7159,3041,16560,3111.50,10,WP,1,0,0,0,0,0,0,1654472032098,4137,4134,4130,4127,0,0,27,,,,,,,0,0,0,-40.00,28.00,1709.00,1.00,0.00,1704.00,14,38.00,11.70,58.40,-11.00,4.00,0.00,0,,,100,100,0,2,0,0,0,1,0,,,,,0.0,0.0,0.0,0.0,0.0,0.0,0
34.182569,-118.129093,3.80,3.80,0.99,5.96,3.80,3.80,3.52,5.96,11005,2022-06-05 23:33:52.199,2022-06-05 16:33:52.199,16,0,0,16.560,34.182622,-118.129104,-0.90,0.40,-0.10,2.70,3.10,170.80,0,1,0,90,100,-7159,3041,16560,3111.50,10,WP,1,0,0,0,0,0,0,1654472032198,4137,4134,4130,4127,0,0,27,,,,,,,0,0,0,-27.00,31.00,1708.00,1.00,0.00,1704.00,14,38.00,9.90,59.62,-9.00,4.00,-1.00,0,,,100,100,0,2,0,0,0,1,0,,,,,0.0,0.0,0.0,0.0,0.0,0.0,0
34.182568,-118.129092,3.80,3.80,0.86,6.07,3.80,3.80,3.52,6.07,11105,2022-06-05 23:33:52.299,2022-06-05 16:33:52.299,16,0,0,16.565,34.182622,-118.129104,-0.80,0.30,-0.10,1.60,3.80,170.80,0,1,0,90,100,-7534,3037,16565,3111.50,10,WP,1,0,0,0,0,0,0,1654472032298,4137,4134,4130,4127,0,0,27,,,,,,,0,0,0,-16.00,38.00,1708.00,1.00,0.00,1704.00,14,38.00,8.60,60.66,-8.00,3.00,-1.00,0,,,100,100,0,2,0,0,0,1,0,,,,,0.0,0.0,0.0,0.0,0.0,0.0,0
34.182568,-118.129092,3.90,3.80,0.86,6.17,3.90,3.90,3.52,6.17,11205,2022-06-05 23:33:52.399,2022-06-05 16:33:52.399,16,0,0,16.565,34.182622,-118.129104,-0.80,0.30,-0.10,1.00,3.90,170.80,0,1,0,90,100,-7534,3037,16565,3111.50,10,WP,1,0,0,0,0,0,0,1654472032398,4137,4134,4130,4127,0,0,27,,,,,,,0,0,0,-10.00,39.00,1708.00,1.00,0.00,1704.00,14,39.00,8.60,61.69,-8.00,3.00,-1.00,0,,,100,100,0,2,0,0,0,1,0,,,,,0.0,0.0,0.0,0.0,0.0,0.0,0
34.182567,-118.129091,3.90,3.90,0.76,6.25,3.90,3.90,3.52,6.25,11306,2022-06-05 23:33:52.499,2022-06-05 16:33:52.499,16,0,0,16.565,34.182622,-118.129104,-0.70,0.30,0.00,0.50,4.60,170.80,0,1,0,90,100,-7534,3037,16565,3111.50,10,WP,1,0,0,0,0,0,0,1654472032499,4137,4134,4130,4127,0,0,27,,,,,,,0,0,0,-5.00,46.00,1708.00,1.00,0.00,1704.00,14,39.00,7.62,62.46,-7.00,3.00,0.00,0,,,100,100,0,2,0,0,0,1,0,,,,,0.0,0.0,0.0,0.0,0.0,0.0,0
34.182566,-118.129091,3.90,3.90,0.63,6.33,3.90,3.90,3.52,6.33,11405,2022-06-05 23:33:52.599,2022-06-05 16:33:52.599,16,0,0,16.565,34.182622,-118.129104,-0.60,0.20,0.00,0.90,4.50,170.80,0,1,0,90,100,-7534,3037,16565,3111.50,10,WP,1,0,0,0,0,0,0,1654472032598,4137,4134,4130,4127,0,0,27,,,,,,,0,0,0,-9.00,45.00,1708.00,1.00,0.00,1704.00,14,39.00,6.32,63.35,-6.00,2.00,0.00,0,,,100,100,0,2,0,0,0,1,0,,,,,0.0,0.0,0.0,0.0,0.0,0.0,0
34.182566,-118.129091,3.90,3.90,0.63,6.42,3.90,3.90,3.52,6.42,11506,2022-06-05 23:33:52.700,2022-06-05 16:33:52.700,16,0,0,16.565,34.182622,-118.129104,-0.60,0.20,0.00,1.80,4.50,170.70,0,1,0,90,100,-7534,3037,16565,3111.50,10,WP,1,0,0,0,0,0,0,1654472032699,4137,4134,4130,4127,0,0,27,,,,,,,0,0,0,-18.00,45.00,1707.00,1.00,0.00,1704.00,14,39.00,6.32,64.15,-6.00,2.00,0.00,0,,,100,100,0,2,0,0,0,1,0,,,,,0.0,0.0,0.0,0.0,0.0,0.0,0
34.182565,-118.129091,3.90,3.90,0.51,6.49,3.90,3.90,3.52,6.49,11606,2022-06-05 23:33:52.800,2022-06-05 16:33:52.800,16,0,0,16.565,34.182622,-118.129104,-0.50,0.10,0.00,2.30,3.70,170.70,0,1,0,90,100,-7534,3037,16565,3111.50,10,WP,1,0,0,0,0,0,0,1654472032799,4137,4134,4130,4127,0,0,27,,,,,,,0,0,0,-23.00,37.00,1707.00,1.00,0.00,1704.00,14,39.00,5.10,64.89,-5.00,1.00,0.00,0,,,100,100,0,2,0,0,0,1,0,,,,,0.0,0.0,0.0,0.0,0.0,0.0,0
34.182565,-118.129090,3.90,3.90,0.41,6.52,3.90,3.90,3.52,6.52,11707,2022-06-05 23:33:52.900,2022-06-05 16:33:52.900,16,0,0,16.565,34.182622,-118.129104,-0.40,0.10,0.00,1.80,3.60,170.70,0,1,0,90,100,-7534,3037,16565,3111.50,10,WP,1,0,0,0,0,0,0,1654472032900,4137,4134,4130,4127,0,0,27,,,,,,,0,0,0,-18.00,36.00,1707.00,1.00,0.00,1704.00,14,39.00,4.12,65.21,-4.00,1.00,0.00,0,,,100,100,0,2,0,0,0,1,0,,,,,0.0,0.0,0.0,0.0,0.0,0.0,0
34.182564,-118.129090,3.90,3.90,0.40,6.58,3.90,3.90,3.52,6.58,11806,2022-06-05 23:33:53.000,2022-06-05 16:33:53.000,16,0,0,16.565,34.182622,-118.129104,-0.40,0.00,0.00,1.70,3.30,170.80,0,1,0,90,100,-7534,3037,16565,3111.50,10,WP,1,0,0,0,0,0,0,1654472032999,4137,4134,4130,4127,0,0,27,,,,,,,0,0,0,-17.00,33.00,1708.00,1.00,0.00,1704.00,14,39.00,4.00,65.77,-4.00,0.00,0.00,0,,,100,100,0,2,0,0,0,1,0,,,,,0.0,0.0,0.0,0.0,0.0,0.0,0
34.182564,-118.129090,3.90,3.90,0.30,6.61,3.90,3.90,3.52,6.61,11907,2022-06-05 23:33:53.100,2022-06-05 16:33:53.100,16,0,0,16.565,34.182622,-118.129104,-0.30,0.00,0.00,1.30,3.50,170.90,0,1,0,90,100,-7534,3037,16565,3111.50,10,WP,1,0,0,0,0,0,0,1654472033100,4137,4134,4130,4127,0,0,27,,,,,,,0,0,0,-13.00,35.00,1709.00,1.00,0.00,1704.00,14,39.00,3.00,66.15,-3.00,0.00,0.00,0,,,100,100,0,2,0,0,0,1,0,,,,,0.0,0.0,0.0,0.0,0.0,0.0,0
34.182563,-118.129090,3.90,3.90,0.30,6.66,3.90,3.90,3.52,6.66,12006,2022-06-05 23:33:53.200,2022-06-05 16:33:53.200,16,0,0,16.565,34.182622,-118.129104,-0.30,0.00,0.00,3.30,1.20,171.20,0,1,0,90,100,-7534,3037,16565,3111.50,10,WP,1,0,0,0,0,0,0,1654472033199,4137,4134,4130,4127,0,0,27,,,,,,,0,0,0,-33.00,12.00,1712.00,1.00,0.00,1704.00,14,39.00,3.00,66.57,-3.00,0.00,0.00,0,,,100,100,0,2,0,0,0,1,0,,,,,0.0,0.0,0.0,0.0,0.0,0.0,0
34.182563,-118.129090,3.90,3.90,0.20,6.66,3.90,3.90,3.52,6.66,12106,2022-06-05 23:33:53.300,2022-06-05 16:33:53.300,16,0,0,16.565,34.182622,-118.129104,-0.20,0.00,0.00,2.40,1.20,171.30,0,1,0,90,100,-7534,3037,16565,3111.50,10,WP,1,0,0,0,0,0,0,1654472033299,4137,4134,4130,4127,0,0,27,,,,,,,0,0,0,-24.00,12.00,1713.00,1.00,0.00,1704.00,14,39.00,2.00,66.57,-2.00,0.00,0.00,0,,,100,100,0,2,0,0,0,1,0,,,,,0.0,0.0,0.0,0.0,0.0,0.0,0
34.182563,-118.129090,3.90,3.90,0.10,6.68,3.90,3.90,3.52,6.68,12206,2022-06-05 23:33:53.400,2022-06-05 16:33:53.400,16,0,0,16.565,34.182622,-118.129104,-0.10,0.00,0.00,1.00,1.20,171.30,0,1,0,90,100,-7534,3037,16565,3111.50,10,WP,1,0,0,0,0,0,0,1654472033399,4137,4134,4130,4127,0,0,27,,,,,,,0,0,0,-10.00,12.00,1713.00,1.00,0.00,1705.00,14,39.00,1.00,66.80,-1.00,0.00,0.00,0,,,100,100,0,2,0,0,0,1,0,,,,,0.0,0.0,0.0,0.0,0.0,0.0,0
34.182563,-118.129090,3.90,3.90,0.10,6.67,3.90,3.90,3.52,6.68,12307,2022-06-05 23:33:53.500,2022-06-05 16:33:53.500,16,0,0,16.565,34.182622,-118.129104,-0.10,0.00,0.00,0.10,1.50,165.20,0,1,0,90,100,-7534,3037,16565,3111.50,10,WP,1,0,0,0,0,0,0,1654472033500,4137,4134,4130,4127,0,0,27,,,,,,,0,0,0,-1.00,15.00,1652.00,1.00,0.00,1705.00,14,39.00,1.00,66.75,-1.00,0.00,0.00,0,,,100,100,0,2,0,0,0,1,0,,,,,0.0,0.0,0.0,0.0,0.0,0.0,0
34.182563,-118.129090,3.90,3.90,0.00,6.69,3.90,3.90,3.52,6.69,12406,2022-06-05 23:33:53.600,2022-06-05 16:33:53.600,16,0,0,16.565,34.182622,-118.129104,0.00,0.00,0.00,-0.40,1.10,157.60,0,1,0,90,100,-7534,3037,16565,3111.50,10,WP,1,0,0,0,0,0,0,1654472033599,4137,4134,4130,4127,0,0,27,,,,,,,0,0,0,4.00,11.00,1576.00,1.00,0.00,1697.00,14,39.00,0.00,66.87,0.00,0.00,0.00,0,,,100,100,0,2,0,0,0,1,0,,,,,0.0,0.0,0.0,0.0,0.0,0.0,0
34.182563,-118.129090,3.80,3.90,0.00,6.70,3.90,3.90,3.52,6.70,12507,2022-06-05 23:33:53.700,2022-06-05 16:33:53.700,16,0,0,16.565,34.182622,-118.129104,0.00,0.00,0.00,-0.80,0.60,149.90,0,1,0,90,100,-7534,3037,16565,3111.50,10,WP,1,0,0,0,0,0,0,1654472033700,4137,4134,4130,4127,0,0,27,,,,,,,0,0,0,8.00,6.00,1499.00,1.00,0.00,1637.00,14,38.00,0.00,67.01,0.00,0.00,0.00,0,,,100,100,0,2,0,0,0,1,0,,,,,0.0,0.0,0.0,0.0,0.0,0.0,0
34.182563,-118.129090,3.80,3.90,0.00,6.71,3.90,3.90,3.52,6.71,12606,2022-06-05 23:33:53.800,2022-06-05 16:33:53.800,16,0,0,16.565,34.182622,-118.129104,0.00,0.00,0.00,-1.00,0.80,142.20,0,1,0,90,100,-7534,3037,16565,3111.50,10,WP,1,0,0,0,0,0,0,1654472033799,4137,4134,4130,4127,0,0,27,,,,,,,0,0,0,10.00,8.00,1422.00,1.00,0.00,1551.00,14,38.00,0.00,67.08,0.00,0.00,0.00,0,,,100,100,0,2,0,0,0,1,0,,,,,0.0,0.0,0.0,0.0,0.0,0.0,0
34.182563,-118.129090,3.80,3.80,0.00,6.71,3.90,3.90,3.52,6.71,12707,2022-06-05 23:33:53.900,2022-06-05 16:33:53.900,16,0,0,16.565,34.182622,-118.129104,0.00,0.00,0.00,-0.90,1.00,134.70,0,1,0,90,100,-7534,3037,16565,3111.50,10,WP,1,0,0,0,0,0,0,1654472033900,4137,4134,4130,4127,0,0,27,,,,,,,0,0,0,9.00,10.00,1347.00,1.00,0.00,1466.00,14,38.00,0.00,67.07,0.00,0.00,0.00,0,,,100,100,0,2,0,0,0,1,0,,,,,0.0,0.0,0.0,0.0,0.0,0.0,0
34.182563,-118.129090,3.80,3.80,0.00,6.71,3.90,3.90,3.52,6.71,12807,2022-06-05 23:33:54.001,2022-06-05 16:33:54.001,16,0,0,16.565,34.182622,-118.129104,0.00,0.00,0.00,-1.10,1.10,127.20,0,1,0,90,100,-7534,3037,16565,3111.50,10,WP,1,0,0,0,0,0,0,1654472034000,4137,4134,4130,4127,0,0,27,,,,,,,0,0,0,11.00,11.00,1272.00,1.00,0.00,1384.00,14,38.00,0.00,67.11,0.00,0.00,0.00,0,,,100,100,0,2,0,0,0,1,0,,,,,0.0,0.0,0.0,0.0,0.0,0.0,0
34.182563,-118.129090,3.80,3.80,0.00,6.70,3.90,3.90,3.52,6.71,12908,2022-06-05 23:33:54.102,2022-06-05 16:33:54.102,16,0,0,16.565,34.182622,-118.129104,0.00,0.00,0.00,-0.90,1.30,119.80,0,1,0,90,100,-7534,3037,16565,3111.50,10,WP,1,0,0,0,0,0,0,1654472034101,4137,4134,4130,4127,0,0,27,,,,,,,0,0,0,9.00,13.00,1198.00,1.00,0.00,1306.00,14,38.00,0.00,67.05,0.00,0.00,0.00,0,,,100,100,0,2,0,0,0,1,0,,,,,0.0,0.0,0.0,0.0,0.0,0.0,0
34.182563,-118.129090,3.80,3.80,0.00,6.71,3.90,3.90,3.52,6.71,13008,2022-06-05 23:33:54.202,2022-06-05 16:33:54.202,16,0,0,16.565,34.182622,-118.129104,0.00,0.00,0.00,-0.70,1.50,112.10,0,1,0,90,100,-7534,3037,16565,3111.50,10,WP,1,0,0,0,0,0,0,1654472034201,4137,4134,4130,4127,0,0,27,,,,,,,0,0,0,7.00,15.00,1121.00,1.00,0.00,1228.00,14,38.00,0.00,67.08,0.00,0.00,0.00,0,,,100,100,0,2,0,0,0,1,0,,,,,0.0,0.0,0.0,0.0,0.0,0.0,0
34.182563,-118.129089,3.80,3.80,0.00,6.71,3.90,3.90,3.52,6.71,13107,2022-06-05 23:33:54.301,2022-06-05 16:33:54.301,16,0,0,16.519,34.182622,-118.129104,0.00,0.00,0.00,0.00,1.90,104.50,0,1,0,90,100,-7539,3033,16519,3111.50,10,WP,1,0,0,0,0,0,0,1654472034300,4137,4134,4130,4127,0,0,27,,,,,,,0,0,0,-0.00,19.00,1045.00,1.00,0.00,1150.00,14,38.00,0.00,67.09,0.00,0.00,0.00,0,,,100,100,0,2,0,0,0,1,0,,,,,0.0,0.0,0.0,0.0,0.0,0.0,0
34.182563,-118.129089,3.80,3.80,0.10,6.71,3.90,3.90,3.52,6.71,13207,2022-06-05 23:33:54.400,2022-06-05 16:33:54.400,16,0,0,16.519,34.182622,-118.129104,0.00,0.10,0.00,1.50,1.70,96.90,0,1,0,90,100,-7539,3033,16519,3111.50,10,WP,1,0,0,0,0,0,0,1654472034400,4137,4134,4130,4127,0,0,27,,,,,,,0,0,0,-15.00,17.00,969.00,1.00,0.00,1073.00,14,38.00,1.00,67.14,0.00,1.00,0.00,0,,,100,100,0,2,0,0,0,1,0,,,,,0.0,0.0,0.0,0.0,0.0,0.0,0
34.182563,-118.129089,3.80,3.80,0.10,6.71,3.90,3.90,3.52,6.71,13308,2022-06-05 23:33:54.502,2022-06-05 16:33:54.502,16,0,0,16.519,34.182622,-118.129104,0.00,0.10,0.00,2.50,1.30,89.20,0,1,0,90,100,-7539,3033,16519,3111.50,10,WP,1,0,0,0,0,0,0,1654472034501,4137,4134,4130,4127,0,0,27,,,,,,,0,0,0,-25.00,13.00,892.00,1.00,0.00,996.00,14,38.00,1.00,67.10,0.00,1.00,0.00,0,,,100,100,0,2,0,0,0,1,0,,,,,0.0,0.0,0.0,0.0,0.0,0.0,0
34.182563,-118.129089,3.80,3.80,0.10,6.71,3.90,3.90,3.52,6.71,13406,2022-06-05 23:33:54.600,2022-06-05 16:33:54.600,16,0,0,16.519,34.182622,-118.129104,0.00,0.10,0.00,2.90,0.70,81.60,0,1,0,90,100,-7539,3033,16519,3111.50,10,WP,1,0,0,0,0,0,0,1654472034599,4137,4134,4130,4127,0,0,27,,,,,,,0,0,0,-29.00,7.00,816.00,1.00,0.00,918.00,14,38.00,1.00,67.14,0.00,1.00,0.00,0,,,100,100,0,2,0,0,0,1,0,,,,,0.0,0.0,0.0,0.0,0.0,0.0,0
34.182563,-118.129089,3.80,3.80,0.00,6.71,3.90,3.90,3.52,6.71,13508,2022-06-05 23:33:54.701,2022-06-05 16:33:54.701,16,0,0,16.519,34.182622,-118.129104,0.00,0.00,0.00,2.70,0.60,73.90,0,1,0,90,100,-7539,3033,16519,3111.50,10,WP,1,0,0,0,0,0,0,1654472034701,4137,4134,4130,4127,0,0,27,,,,,,,0,0,0,-27.00,6.00,739.00,1.00,0.00,839.00,14,38.00,0.00,67.12,0.00,0.00,0.00,0,,,100,100,0,2,0,0,0,1,0,,,,,0.0,0.0,0.0,0.0,0.0,0.0,0
34.182563,-118.129089,3.80,3.80,0.00,6.71,3.90,3.90,3.52,6.71,13608,2022-06-05 23:33:54.801,2022-06-05 16:33:54.801,16,0,0,16.519,34.182622,-118.129104,0.00,0.00,0.00,2.60,0.60,66.50,0,1,0,90,100,-7539,3033,16519,3111.50,10,WP,1,0,0,0,0,0,0,1654472034801,4137,4134,4130,4127,0,0,27,,,,,,,0,0,0,-26.00,6.00,665.00,1.00,0.00,763.00,14,38.00,0.00,67.14,0.00,0.00,0.00,0,,,100,100,0,2,0,0,0,1,0,,,,,0.0,0.0,0.0,0.0,0.0,0.0,0
