latitude,longitude,altitude(m),ultrasonicHeight(m),speed(mps),distance(m),max_altitude(m),max_ascent(m),max_speed(mps),max_distance(m),time(millisecond),datetime(utc),datetime(local),satellites,pressure(Pa),temperature(F),voltage(v),home_latitude,home_longitude,velocityX(mps),velocityY(mps),velocityZ(mps),pitch(deg),roll(deg),yaw(deg),powerlevel,isflying,istakingphoto,remainPowerPercent,remainLifePercent,currentCurrent,currentElectricity,currentVoltage,batteryTemperature,dischargeCount,flightmode,isMotorsOn,isTakingVideo,Rc_elevator,Rc_aileron,Rc_throttle,Rc_rudder,Rc_gyro,timestamp,Battery_Cell1,Battery_Cell2,Battery_Cell3,Battery_Cell4,Battery_Cell5,Battery_Cell6,Dronetype,AppVersion,Planename,FlyControllerSerialNumber,RemoteSerialNumber,BatterySerialNumber,CENTER_BATTERY.productDate,CENTER_BATTERY.serialNo,CENTER_BATTERY.fullCapacity,CENTER_BATTERY.productDateRaw,pitchRaw,rollRaw,yawRaw,gimbalPitchRaw,gimbalRollRaw,gimbalYawRaw,flyState,altitudeRaw,speedRaw,distanceRaw,velocityXRaw,velocityYRaw,velocityZRaw,data_reuse,App_Tip,App_Warning,downlinkSignalQuality,uplinkSignalQuality,transmissionChannel,rcModeSwitch,rcHome,rcPause,rcTransform,rcJoystickMode,appMode,FlyControllerSerialNumber_legacy,RemoteSerialNumber_legacy,BatterySerialNumber_legacy,Battery2SerialNumber,frontAvoidDist,backAvoidDist,rightAvoidDist,leftAvoidDist,upAvoidDist,downAvoidDist,isBrakingToAvoid
34.182620,-118.129105,0.40,0.40,0.54,0.17,0.40,0.40,0.54,0.17,1,2022-06-05 23:31:55.977,2022-06-05 16:31:55.977,16,0,0,16.948,34.182619,-118.129104,0.20,0.00,-0.50,3.50,-0.50,-3.70,0,1,0,95,100,-4170,3220,16948,3091.50,10,TakeOff,1,0,0,0,0,0,0,1654471915977,4288,4289,4288,4279,0,0,27,Litchi_iOS_2.14.0,Brian-MAVIC 2,163DFCK001S13F,1DUCFB800104PR,0P2AFBV5340045,,0,3403,0,-35.00,-5.00,-37.00,0.00,0.00,-44.00,11,4.00,5.39,1.73,2.00,0.00,-5.00,0,,,100,100,0,2,0,0,0,1,0,(null),(null),,,0.0,0.0,0.0,0.0,0.0,0.0,0
34.182620,-118.129105,0.50,0.50,0.54,0.19,0.50,0.50,0.54,0.19,100,2022-06-05 23:31:56.077,2022-06-05 16:31:56.077,16,0,0,16.948,34.182619,-118.129104,0.20,0.00,-0.50,3.90,0.30,-3.80,0,1,0,95,100,-4170,3220,16948,3091.50,10,TakeOff,1,0,0,0,0,0,0,1654471916076,4288,4289,4288,4279,0,0,27,,,,,,,0,0,0,-39.00,3.00,-38.00,0.00,0.00,-44.00,11,5.00,5.39,1.91,2.00,0.00,-5.00,0,,,100,100,0,2,0,0,0,1,0,,,,,0.0,0.0,0.0,0.0,0.0,0.0,0
34.182620,-118.129105,0.50,0.50,0.54,0.21,0.50,0.50,0.54,0.21,200,2022-06-05 23:31:56.177,2022-06-05 16:31:56.177,15,0,0,16.948,34.182619,-118.129104,0.20,0.00,-0.50,4.00,0.10,-3.90,0,1,0,95,100,-4170,3220,16948,3091.50,10,TakeOff,1,0,0,0,0,0,0,1654471916176,4288,4289,4288,4279,0,0,27,,,,,,,0,0,0,-40.00,1.00,-39.00,0.00,0.00,-44.00,11,5.00,5.39,2.09,2.00,0.00,-5.00,0,,,100,100,0,2,0,0,0,1,0,,,,,0.0,0.0,0.0,0.0,0.0,0.0,0
34.182620,-118.129105,0.60,0.60,0.54,0.22,0.60,0.60,0.54,0.22,301,2022-06-05 23:31:56.277,2022-06-05 16:31:56.277,15,0,0,16.790,34.182619,-118.129104,0.20,0.00,-0.50,4.20,-0.60,-3.80,0,1,0,95,100,-7240,3217,16790,3091.50,10,TakeOff,1,0,0,0,0,0,0,1654471916277,4288,4289,4288,4279,0,0,27,,,,,,,0,0,0,-42.00,-6.00,-38.00,0.00,0.00,-44.00,11,6.00,5.39,2.23,2.00,0.00,-5.00,0,,,100,100,0,2,0,0,0,1,0,,,,,0.0,0.0,0.0,0.0,0.0,0.0,0
34.182621,-118.129105,0.60,0.60,0.51,0.24,0.60,0.60,0.54,0.24,401,2022-06-05 23:31:56.377,2022-06-05 16:31:56.377,16,0,0,16.790,34.182619,-118.129104,0.10,0.00,-0.50,3.70,-0.80,-3.80,0,1,0,95,100,-7240,3217,16790,3091.50,10,TakeOff,1,0,0,0,0,0,0,1654471916377,4288,4289,4288,4279,0,0,27,,,,,,,0,0,0,-37.00,-8.00,-38.00,0.00,0.00,-44.00,11,6.00,5.10,2.39,1.00,0.00,-5.00,0,,,100,100,0,2,0,0,0,1,0,,,,,0.0,0.0,0.0,0.0,0.0,0.0,0
34.182621,-118.129105,0.70,0.70,0.51,0.27,0.70,0.70,0.54,0.27,500,2022-06-05 23:31:56.476,2022-06-05 16:31:56.476,16,0,0,16.790,34.182619,-118.129104,0.10,0.00,-0.50,3.80,-0.60,-3.80,0,1,0,95,100,-7240,3217,16790,3091.50,10,TakeOff,1,0,0,0,0,0,0,1654471916476,4288,4289,4288,4279,0,0,27,,,,,,,0,0,0,-38.00,-6.00,-38.00,0.00,0.00,-44.00,11,7.00,5.10,2.75,1.00,0.00,-5.00,0,,,100,100,0,2,0,0,0,1,0,,,,,0.0,0.0,0.0,0.0,0.0,0.0,0
34.182621,-118.129105,0.70,0.70,0.51,0.29,0.70,0.70,0.54,0.29,601,2022-06-05 23:31:56.577,2022-06-05 16:31:56.577,16,0,0,16.790,34.182619,-118.129104,0.10,0.00,-0.50,3.90,-0.40,-3.80,0,1,0,95,100,-7240,3217,16790,3091.50,10,TakeOff,1,0,0,0,0,0,0,1654471916577,4288,4289,4288,4279,0,0,27,,,,,,,0,0,0,-39.00,-4.00,-38.00,0.00,0.00,-44.00,11,7.00,5.10,2.90,1.00,0.00,-5.00,0,,,100,100,0,2,0,0,0,1,0,,,,,0.0,0.0,0.0,0.0,0.0,0.0,0
34.182621,-118.129105,0.80,0.80,0.51,0.28,0.80,0.80,0.54,0.29,701,2022-06-05 23:31:56.677,2022-06-05 16:31:56.677,16,0,0,16.790,34.182619,-118.129104,0.10,0.00,-0.50,4.00,-0.60,-3.80,0,1,0,95,100,-7240,3217,16790,3091.50,10,TakeOff,1,0,0,0,0,0,0,1654471916677,4288,4289,4288,4279,0,0,27,,,,,,,0,0,0,-40.00,-6.00,-38.00,0.00,0.00,-44.00,11,8.00,5.10,2.79,1.00,0.00,-5.00,0,,,100,100,0,2,0,0,0,1,0,,,,,0.0,0.0,0.0,0.0,0.0,0.0,0
34.182621,-118.129105,0.80,0.80,0.41,0.29,0.80,0.80,0.54,0.29,802,2022-06-05 23:31:56.779,2022-06-05 16:31:56.779,15,0,0,16.790,34.182619,-118.129104,0.10,0.00,-0.40,3.80,-0.10,-4.00,0,1,0,95,100,-7240,3217,16790,3091.50,10,TakeOff,1,0,0,0,0,0,0,1654471916778,4288,4289,4288,4279,0,0,27,,,,,,,0,0,0,-38.00,-1.00,-40.00,0.00,0.00,-44.00,11,8.00,4.12,2.90,1.00,0.00,-4.00,0,,,100,100,0,2,0,0,0,1,0,,,,,0.0,0.0,0.0,0.0,0.0,0.0,0
34.182621,-118.129105,0.90,0.90,0.41,0.30,0.90,0.90,0.54,0.30,900,2022-06-05 23:31:56.877,2022-06-05 16:31:56.877,15,0,0,16.790,34.182619,-118.129104,0.10,0.00,-0.40,3.80,0.00,-4.10,0,1,0,95,100,-7240,3217,16790,3091.50,10,TakeOff,1,0,0,0,0,0,0,1654471916876,4288,4289,4288,4279,0,0,27,,,,,,,0,0,0,-38.00,0.00,-41.00,0.00,0.00,-44.00,11,9.00,4.12,3.03,1.00,0.00,-4.00,0,,,100,100,0,2,0,0,0,1,0,,,,,0.0,0.0,0.0,0.0,0.0,0.0,0
34.182621,-118.129105,0.90,0.90,0.41,0.31,0.90,0.90,0.54,0.31,1001,2022-06-05 23:31:56.977,2022-06-05 16:31:56.977,16,0,0,16.790,34.182619,-118.129104,0.10,0.00,-0.40,3.90,-0.80,-4.10,0,1,0,95,100,-7240,3217,16790,3091.50,10,TakeOff,1,0,0,0,0,0,0,1654471916977,4288,4289,4288,4279,0,0,27,,,,,,,0,0,0,-39.00,-8.00,-41.00,0.00,0.00,-44.00,11,9.00,4.12,3.13,1.00,0.00,-4.00,0,,,100,100,0,2,0,0,0,1,0,,,,,0.0,0.0,0.0,0.0,0.0,0.0,0
34.182622,-118.129105,0.90,1.00,0.41,0.33,0.90,0.90,0.54,0.33,1101,2022-06-05 23:31:57.078,2022-06-05 16:31:57.078,16,0,0,16.790,34.182619,-118.129104,0.10,0.00,-0.40,4.50,-1.10,-4.30,0,1,0,95,100,-7240,3217,16790,3091.50,10,TakeOff,1,0,0,0,0,0,0,1654471917077,4288,4289,4288,4279,0,0,27,,,,,,,0,0,0,-45.00,-11.00,-43.00,0.00,0.00,-45.00,11,9.00,4.12,3.35,1.00,0.00,-4.00,0,,,100,100,0,2,0,0,0,1,0,,,,,0.0,0.0,0.0,0.0,0.0,0.0,0
34.182622,-118.129105,1.00,1.00,0.40,0.34,1.00,1.00,0.54,0.34,1201,2022-06-05 23:31:57.177,2022-06-05 16:31:57.177,16,0,0,16.790,34.182619,-118.129104,0.00,0.00,-0.40,4.50,-0.70,-4.30,0,1,0,95,100,-7240,3217,16790,3091.50,10,TakeOff,1,0,0,0,0,0,0,1654471917177,4288,4289,4288,4279,0,0,27,,,,,,,0,0,0,-45.00,-7.00,-43.00,0.00,0.00,-45.00,11,10.00,4.00,3.42,0.00,0.00,-4.00,0,,,100,100,0,2,0,0,0,1,0,,,,,0.0,0.0,0.0,0.0,0.0,0.0,0
34.182622,-118.129105,1.00,1.10,0.40,0.34,1.00,1.00,0.54,0.34,1302,2022-06-05 23:31:57.278,2022-06-05 16:31:57.278,16,0,0,16.790,34.182619,-118.129104,0.00,0.00,-0.40,3.40,-1.10,-4.00,0,1,0,95,100,-7240,3217,16790,3091.50,10,TakeOff,1,0,0,0,0,0,0,1654471917278,4288,4289,4288,4279,0,0,27,,,,,,,0,0,0,-34.00,-11.00,-40.00,0.00,0.00,-45.00,11,10.00,4.00,3.43,0.00,0.00,-4.00,0,,,100,100,0,2,0,0,0,1,0,,,,,0.0,0.0,0.0,0.0,0.0,0.0,0
34.182622,-118.129105,1.10,1.10,0.40,0.34,1.10,1.10,0.54,0.34,1401,2022-06-05 23:31:57.378,2022-06-05 16:31:57.378,16,0,0,16.790,34.182619,-118.129104,0.00,0.00,-0.40,2.30,-1.50,-4.00,0,1,0,95,100,-7240,3217,16790,3091.50,10,WP,1,0,0,0,0,0,0,1654471917377,4288,4289,4288,4279,0,0,27,,,,,,,0,0,0,-23.00,-15.00,-40.00,0.00,0.00,-45.00,14,11.00,4.00,3.45,0.00,0.00,-4.00,0,,,100,100,0,2,0,0,0,1,0,,,,,0.0,0.0,0.0,0.0,0.0,0.0,0
34.182621,-118.129105,1.10,1.20,0.40,0.33,1.10,1.10,0.54,0.34,1501,2022-06-05 23:31:57.478,2022-06-05 16:31:57.478,16,0,0,16.790,34.182619,-118.129104,0.00,0.00,-0.40,2.10,-1.40,-4.10,0,1,0,95,100,-7240,3217,16790,3091.50,10,WP,1,0,0,0,0,0,0,1654471917477,4288,4289,4288,4279,0,0,27,,,,,,,0,0,0,-21.00,-14.00,-41.00,0.00,0.00,-45.00,14,11.00,4.00,3.32,0.00,0.00,-4.00,0,,,100,100,0,2,0,0,0,1,0,,,,,0.0,0.0,0.0,0.0,0.0,0.0,0
34.182622,-118.129105,1.20,1.20,0.50,0.34,1.20,1.20,0.54,0.34,1602,2022-06-05 23:31:57.578,2022-06-05 16:31:57.578,16,0,0,16.790,34.182619,-118.129104,0.00,0.00,-0.50,2.40,-1.50,-4.00,0,1,0,95,100,-7240,3217,16790,3091.50,10,WP,1,0,0,0,0,0,0,1654471917578,4288,4289,4288,4279,0,0,27,,,,,,,0,0,0,-24.00,-15.00,-40.00,0.00,0.00,-45.00,14,12.00,5.00,3.35,0.00,0.00,-5.00,0,,,100,100,0,2,0,0,0,1,0,,,,,0.0,0.0,0.0,0.0,0.0,0.0,0
34.182622,-118.129104,1.20,1.30,0.50,0.34,1.20,1.20,0.54,0.34,1701,2022-06-05 23:31:57.678,2022-06-05 16:31:57.678,16,0,0,16.790,34.182619,-118.129104,0.00,0.00,-0.50,2.70,-2.00,-3.90,0,1,0,95,100,-7240,3217,16790,3091.50,10,WP,1,0,0,0,0,0,0,1654471917677,4288,4289,4288,4279,0,0,27,,,,,,,0,0,0,-27.00,-20.00,-39.00,0.00,0.00,-45.00,14,12.00,5.00,3.42,0.00,0.00,-5.00,0,,,100,100,0,2,0,0,0,1,0,,,,,0.0,0.0,0.0,0.0,0.0,0.0,0
34.182622,-118.129104,1.30,1.30,0.41,0.35,1.30,1.30,0.54,0.35,1801,2022-06-05 23:31:57.778,2022-06-05 16:31:57.778,16,0,0,16.790,34.182619,-118.129104,0.10,0.00,-0.40,3.00,-2.10,-3.90,0,1,0,95,100,-7240,3217,16790,3091.50,10,WP,1,0,0,0,0,0,0,1654471917777,4288,4289,4288,4279,0,0,27,,,,,,,0,0,0,-30.00,-21.00,-39.00,0.00,0.00,-45.00,14,13.00,4.12,3.48,1.00,0.00,-4.00,0,,,100,100,0,2,0,0,0,1,0,,,,,0.0,0.0,0.0,0.0,0.0,0.0,0
34.182622,-118.129104,1.30,1.40,0.40,0.36,1.30,1.30,0.54,0.36,1900,2022-06-05 23:31:57.877,2022-06-05 16:31:57.877,16,0,0,16.790,34.182619,-118.129104,0.00,0.00,-0.40,3.40,-1.90,-4.00,0,1,0,95,100,-7240,3217,16790,3091.50,10,WP,1,0,0,0,0,0,0,1654471917876,4288,4289,4288,4279,0,0,27,,,,,,,0,0,0,-34.00,-19.00,-40.00,0.00,0.00,-45.00,14,13.00,4.00,3.64,0.00,0.00,-4.00,0,,,100,100,0,2,0,0,0,1,0,,,,,0.0,0.0,0.0,0.0,0.0,0.0,0
34.182622,-118.129104,1.40,1.40,0.40,0.37,1.40,1.40,0.54,0.37,2051,2022-06-05 23:31:58.027,2022-06-05 16:31:58.027,16,0,0,16.790,34.182619,-118.129104,0.00,0.00,-0.40,3.30,-2.20,-4.00,0,1,0,95,100,-7240,3217,16790,3091.50,10,WP,1,0,0,0,0,0,0,1654471918027,4288,4289,4288,4279,0,0,27,,,,,,,0,0,0,-33.00,-22.00,-40.00,0.00,0.00,-45.00,14,14.00,4.00,3.70,0.00,0.00,-4.00,0,,,100,100,0,2,0,0,0,1,0,,,,,0.0,0.0,0.0,0.0,0.0,0.0,0
34.182622,-118.129104,1.40,1.40,0.40,0.40,1.40,1.40,0.54,0.40,2102,2022-06-05 23:31:58.078,2022-06-05 16:31:58.078,16,0,0,16.790,34.182619,-118.129104,0.00,0.00,-0.40,3.40,-2.50,-4.00,0,1,0,95,100,-7240,3217,16790,3091.50,10,WP,1,0,0,0,0,0,0,1654471918078,4288,4289,4288,4279,0,0,27,,,,,,,0,0,0,-34.00,-25.00,-40.00,0.00,0.00,-45.00,14,14.00,4.00,3.97,0.00,0.00,-4.00,0,,,100,100,0,2,0,0,0,1,0,,,,,0.0,0.0,0.0,0.0,0.0,0.0,0
34.182622,-118.129104,1.40,1.50,0.50,0.40,1.40,1.40,0.54,0.40,2201,2022-06-05 23:31:58.178,2022-06-05 16:31:58.178,16,0,0,16.790,34.182619,-118.129104,0.00,0.00,-0.50,3.60,-2.00,-4.00,0,1,0,95,100,-7240,3217,16790,3091.50,10,WP,1,0,0,0,0,0,0,1654471918177,4288,4289,4288,4279,0,0,27,,,,,,,0,0,0,-36.00,-20.00,-40.00,0.00,0.00,-45.00,14,14.00,5.00,4.04,0.00,0.00,-5.00,0,,,100,100,0,2,0,0,0,1,0,,,,,0.0,0.0,0.0,0.0,0.0,0.0,0
34.182622,-118.129104,1.50,1.50,0.60,0.39,1.50,1.50,0.60,0.40,2301,2022-06-05 23:31:58.278,2022-06-05 16:31:58.278,16,0,0,16.790,34.182619,-118.129104,0.00,0.00,-0.60,3.30,-1.30,-4.00,0,1,0,95,100,-7240,3217,16790,3091.50,10,WP,1,0,0,0,0,0,0,1654471918277,4288,4289,4288,4279,0,0,27,,,,,,,0,0,0,-33.00,-13.00,-40.00,0.00,0.00,-45.00,14,15.00,6.00,3.86,0.00,0.00,-6.00,0,,,100,100,0,2,0,0,0,1,0,,,,,0.0,0.0,0.0,0.0,0.0,0.0,0
34.182622,-118.129104,1.60,1.60,0.80,0.39,1.60,1.60,0.80,0.40,2451,2022-06-05 23:31:58.427,2022-06-05 16:31:58.427,16,0,0,16.751,34.182619,-118.129104,0.00,0.00,-0.80,3.40,-0.60,-4.00,0,1,0,95,100,-7571,3213,16751,3091.50,10,WP,1,0,0,0,0,0,0,1654471918427,4288,4289,4288,4279,0,0,27,,,,,,,0,0,0,-34.00,-6.00,-40.00,0.00,0.00,-45.00,14,16.00,8.00,3.91,0.00,0.00,-8.00,0,,,100,100,0,2,0,0,0,1,0,,,,,0.0,0.0,0.0,0.0,0.0,0.0,0
34.182622,-118.129105,1.70,1.70,1.00,0.40,1.70,1.70,1.00,0.40,2502,2022-06-05 23:31:58.478,2022-06-05 16:31:58.478,16,0,0,16.751,34.182619,-118.129104,0.00,0.00,-1.00,3.60,0.50,-3.80,0,1,0,95,100,-7571,3213,16751,3091.50,10,WP,1,0,0,0,0,0,0,1654471918478,4288,4289,4288,4279,0,0,27,,,,,,,0,0,0,-36.00,5.00,-38.00,0.00,0.00,-45.00,14,17.00,10.00,3.95,0.00,0.00,-10.00,0,,,100,100,0,2,0,0,0,1,0,,,,,0.0,0.0,0.0,0.0,0.0,0.0,0
34.182622,-118.129105,1.80,1.80,1.20,0.40,1.80,1.80,1.20,0.40,2602,2022-06-05 23:31:58.578,2022-06-05 16:31:58.578,15,0,0,16.751,34.182619,-118.129104,0.00,0.00,-1.20,4.10,0.50,-3.80,0,1,0,95,100,-7571,3213,16751,3091.50,10,WP,1,0,0,0,0,0,0,1654471918578,4288,4289,4288,4279,0,0,27,,,,,,,0,0,0,-41.00,5.00,-38.00,0.00,0.00,-45.00,14,18.00,12.00,4.00,0.00,0.00,-12.00,0,,,100,100,0,2,0,0,0,1,0,,,,,0.0,0.0,0.0,0.0,0.0,0.0,0
34.182622,-118.129105,1.90,2.00,1.30,0.39,1.90,1.90,1.30,0.40,2701,2022-06-05 23:31:58.678,2022-06-05 16:31:58.678,15,0,0,16.751,34.182619,-118.129104,0.00,0.00,-1.30,4.30,0.20,-4.00,0,1,0,95,100,-7571,3213,16751,3091.50,10,WP,1,0,0,0,0,0,0,1654471918677,4288,4289,4288,4279,0,0,27,,,,,,,0,0,0,-43.00,2.00,-40.00,0.00,0.00,-45.00,14,19.00,13.00,3.89,0.00,0.00,-13.00,0,,,100,100,0,2,0,0,0,1,0,,,,,0.0,0.0,0.0,0.0,0.0,0.0,0
34.182622,-118.129105,2.00,2.10,1.40,0.39,2.00,2.00,1.40,0.40,2801,2022-06-05 23:31:58.777,2022-06-05 16:31:58.777,16,0,0,16.751,34.182619,-118.129104,0.00,0.00,-1.40,4.30,-0.50,-4.00,0,1,0,95,100,-7571,3213,16751,3091.50,10,WP,1,0,0,0,0,0,0,1654471918777,4288,4289,4288,4279,0,0,27,,,,,,,0,0,0,-43.00,-5.00,-40.00,0.00,0.00,-45.00,14,20.00,14.00,3.90,0.00,0.00,-14.00,0,,,100,100,0,2,0,0,0,1,0,,,,,0.0,0.0,0.0,0.0,0.0,0.0,0
34.182622,-118.129105,2.20,2.20,1.40,0.40,2.20,2.20,1.40,0.40,2902,2022-06-05 23:31:58.879,2022-06-05 16:31:58.879,16,0,0,16.751,34.182619,-118.129104,0.00,0.00,-1.40,3.90,-0.70,-4.10,0,1,0,95,100,-7571,3213,16751,3091.50,10,WP,1,0,0,0,0,0,0,1654471918878,4288,4289,4288,4279,0,0,27,,,,,,,0,0,0,-39.00,-7.00,-41.00,0.00,0.00,-45.00,14,22.00,14.00,3.96,0.00,0.00,-14.00,0,,,100,100,0,2,0,0,0,1,0,,,,,0.0,0.0,0.0,0.0,0.0,0.0,0
34.182622,-118.129105,2.30,2.40,1.40,0.40,2.30,2.30,1.40,0.40,3002,2022-06-05 23:31:58.979,2022-06-05 16:31:58.979,16,0,0,16.751,34.182619,-118.129104,0.00,0.00,-1.40,3.70,-0.40,-4.00,0,1,0,95,100,-7571,3213,16751,3091.50,10,WP,1,0,0,0,0,0,0,1654471918978,4288,4289,4288,4279,0,0,27,,,,,,,0,0,0,-37.00,-4.00,-40.00,0.00,0.00,-45.00,14,23.00,14.00,3.95,0.00,0.00,-14.00,0,,,100,100,0,2,0,0,0,1,0,,,,,0.0,0.0,0.0,0.0,0.0,0.0,0
34.182622,-118.129105,2.50,2.50,1.40,0.38,2.50,2.50,1.40,0.40,3103,2022-06-05 23:31:59.079,2022-06-05 16:31:59.079,16,0,0,16.751,34.182619,-118.129104,0.00,0.00,-1.40,3.60,-1.60,-4.00,0,1,0,95,100,-7571,3213,16751,3091.50,10,WP,1,0,0,0,0,0,0,1654471919079,4288,4289,4288,4279,0,0,27,,,,,,,0,0,0,-36.00,-16.00,-40.00,0.00,0.00,-45.00,14,25.00,14.00,3.81,0.00,0.00,-14.00,0,,,100,100,0,2,0,0,0,1,0,,,,,0.0,0.0,0.0,0.0,0.0,0.0,0
34.182622,-118.129104,2.60,2.60,1.30,0.38,2.60,2.60,1.40,0.40,3202,2022-06-05 23:31:59.179,2022-06-05 16:31:59.179,16,0,0,16.751,34.182619,-118.129104,0.00,0.00,-1.30,3.00,-2.50,-3.80,0,1,0,95,100,-7571,3213,16751,3091.50,10,WP,1,0,0,0,0,0,0,1654471919178,4288,4289,4288,4279,0,0,27,,,,,,,0,0,0,-30.00,-25.00,-38.00,0.00,0.00,-46.00,14,26.00,13.00,3.77,0.00,0.00,-13.00,0,,,100,100,0,2,0,0,0,1,0,,,,,0.0,0.0,0.0,0.0,0.0,0.0,0
34.182622,-118.129104,2.80,2.70,1.30,0.39,2.80,2.80,1.40,0.40,3303,2022-06-05 23:31:59.279,2022-06-05 16:31:59.279,16,0,0,16.751,34.182619,-118.129104,0.00,0.00,-1.30,3.40,-2.00,-3.80,0,1,0,95,100,-7571,3213,16751,3091.50,10,WP,1,0,0,0,0,0,0,1654471919279,4288,4289,4288,4279,0,0,27,,,,,,,0,0,0,-34.00,-20.00,-38.00,0.00,0.00,-46.00,14,28.00,13.00,3.93,0.00,0.00,-13.00,0,,,100,100,0,2,0,0,0,1,0,,,,,0.0,0.0,0.0,0.0,0.0,0.0,0
34.182622,-118.129105,2.90,2.80,1.20,0.39,2.90,2.90,1.40,0.40,3403,2022-06-05 23:31:59.379,2022-06-05 16:31:59.379,16,0,0,16.751,34.182619,-118.129104,0.00,0.00,-1.20,3.90,-1.00,-4.00,0,1,0,95,100,-7571,3213,16751,3091.50,10,WP,1,0,0,0,0,0,0,1654471919379,4288,4289,4288,4279,0,0,27,,,,,,,0,0,0,-39.00,-10.00,-40.00,0.00,0.00,-46.00,14,29.00,12.00,3.92,0.00,0.00,-12.00,0,,,100,100,0,2,0,0,0,1,0,,,,,0.0,0.0,0.0,0.0,0.0,0.0,0
34.182622,-118.129105,3.00,2.90,1.10,0.38,3.00,3.00,1.40,0.40,3502,2022-06-05 23:31:59.478,2022-06-05 16:31:59.478,16,0,0,16.751,34.182619,-118.129104,0.00,0.00,-1.10,3.00,-0.80,-4.00,0,1,0,95,100,-7571,3213,16751,3091.50,10,WP,1,0,0,0,0,0,0,1654471919478,4288,4289,4288,4279,0,0,27,,,,,,,0,0,0,-30.00,-8.00,-40.00,0.00,0.00,-46.00,14,30.00,11.00,3.78,0.00,0.00,-11.00,0,,,100,100,0,2,0,0,0,1,0,,,,,0.0,0.0,0.0,0.0,0.0,0.0,0
34.182622,-118.129105,3.10,3.00,1.10,0.38,3.10,3.10,1.40,0.40,3602,2022-06-05 23:31:59.579,2022-06-05 16:31:59.579,16,0,0,16.751,34.182619,-118.129104,0.00,0.00,-1.10,3.00,-0.50,-4.00,0,1,0,95,100,-7571,3213,16751,3091.50,10,WP,1,0,0,0,0,0,0,1654471919578,4288,4289,4288,4279,0,0,27,,,,,,,0,0,0,-30.00,-5.00,-40.00,0.00,0.00,-46.00,14,31.00,11.00,3.77,0.00,0.00,-11.00,0,,,100,100,0,2,0,0,0,1,0,,,,,0.0,0.0,0.0,0.0,0.0,0.0,0
34.182622,-118.129105,3.20,3.10,1.00,0.39,3.20,3.20,1.40,0.40,3703,2022-06-05 23:31:59.679,2022-06-05 16:31:59.679,16,0,0,16.751,34.182619,-118.129104,0.00,0.00,-1.00,3.70,0.30,-3.90,0,1,0,95,100,-7571,3213,16751,3091.50,10,WP,1,0,0,0,0,0,0,1654471919679,4288,4289,4288,4279,0,0,27,,,,,,,0,0,0,-37.00,3.00,-39.00,0.00,0.00,-46.00,14,32.00,10.00,3.87,0.00,0.00,-10.00,0,,,100,100,0,2,0,0,0,1,0,,,,,0.0,0.0,0.0,0.0,0.0,0.0,0
34.182622,-118.129105,3.30,3.20,0.90,0.39,3.30,3.30,1.40,0.40,3804,2022-06-05 23:31:59.780,2022-06-05 16:31:59.780,16,0,0,16.751,34.182619,-118.129104,0.00,0.00,-0.90,4.00,0.00,-4.10,0,1,0,95,100,-7571,3213,16751,3091.50,10,WP,1,0,0,0,0,0,0,1654471919780,4288,4289,4288,4279,0,0,27,,,,,,,0,0,0,-40.00,0.00,-41.00,0.00,0.00,-46.00,14,33.00,9.00,3.91,0.00,0.00,-9.00,0,,,100,100,0,2,0,0,0,1,0,,,,,0.0,0.0,0.0,0.0,0.0,0.0,0
34.182622,-118.129105,3.40,3.30,0.80,0.38,3.40,3.40,1.40,0.40,3902,2022-06-05 23:31:59.878,2022-06-05 16:31:59.878,16,0,0,16.751,34.182619,-118.129104,0.00,0.00,-0.80,3.50,0.00,-4.10,0,1,0,95,100,-7571,3213,16751,3091.50,10,WP,1,0,0,0,0,0,0,1654471919878,4288,4289,4288,4279,0,0,27,,,,,,,0,0,0,-35.00,0.00,-41.00,0.00,0.00,-46.00,14,34.00,8.00,3.81,0.00,0.00,-8.00,0,,,100,100,0,2,0,0,0,1,0,,,,,0.0,0.0,0.0,0.0,0.0,0.0,0
34.182622,-118.129105,3.50,3.40,0.81,0.39,3.50,3.50,1.40,0.40,4006,2022-06-05 23:31:59.982,2022-06-05 16:31:59.982,16,0,0,16.751,34.182619,-118.129104,0.10,0.00,-0.80,3.90,0.20,-4.00,0,1,0,95,100,-7571,3213,16751,3091.50,10,WP,1,0,0,0,0,0,0,1654471919982,4288,4289,4288,4279,0,0,27,,,,,,,0,0,0,-39.00,2.00,-40.00,0.00,0.00,-46.00,14,35.00,8.06,3.86,1.00,0.00,-8.00,0,,,100,100,0,2,0,0,0,1,0,,,,,0.0,0.0,0.0,0.0,0.0,0.0,0
34.182622,-118.129105,3.60,3.40,0.71,0.43,3.60,3.60,1.40,0.43,4103,2022-06-05 23:32:00.079,2022-06-05 16:32:00.079,16,0,0,16.751,34.182619,-118.129104,0.10,0.00,-0.70,4.40,-0.80,-3.80,0,1,0,95,100,-7571,3213,16751,3091.50,10,WP,1,0,0,0,0,0,0,1654471920079,4288,4289,4288,4279,0,0,27,,,,,,,0,0,0,-44.00,-8.00,-38.00,0.00,0.00,-46.00,14,36.00,7.07,4.27,1.00,0.00,-7.00,0,,,100,100,0,2,0,0,0,1,0,,,,,0.0,0.0,0.0,0.0,0.0,0.0,0
34.182622,-118.129105,3.60,3.50,0.51,0.44,3.60,3.60,1.40,0.44,4204,2022-06-05 23:32:00.181,2022-06-05 16:32:00.181,16,0,0,16.751,34.182619,-118.129104,0.10,0.00,-0.50,4.30,-0.10,-3.30,0,1,0,95,100,-7571,3213,16751,3091.50,10,WP,1,0,0,0,0,0,0,1654471920180,4288,4289,4288,4279,0,0,27,,,,,,,0,0,0,-43.00,-1.00,-33.00,0.00,0.00,-46.00,14,36.00,5.10,4.37,1.00,0.00,-5.00,0,,,100,100,0,2,0,0,0,1,0,,,,,0.0,0.0,0.0,0.0,0.0,0.0,0
34.182622,-118.129105,3.70,3.50,0.22,0.42,3.70,3.70,1.40,0.44,4303,2022-06-05 23:32:00.280,2022-06-05 16:32:00.280,16,0,0,16.723,34.182619,-118.129104,0.10,0.00,-0.20,4.70,-0.30,-2.30,0,1,0,95,100,-7006,3206,16723,3091.50,10,WP,1,0,0,0,0,0,0,1654471920279,4288,4289,4288,4279,0,0,27,,,,,,,0,0,0,-47.00,-3.00,-23.00,0.00,0.00,-46.00,14,37.00,2.24,4.16,1.00,0.00,-2.00,0,,,100,100,0,2,0,0,0,1,0,,,,,0.0,0.0,0.0,0.0,0.0,0.0,0
34.182622,-118.129105,3.70,3.50,0.14,0.42,3.70,3.70,1.40,0.44,4402,2022-06-05 23:32:00.379,2022-06-05 16:32:00.379,16,0,0,16.723,34.182619,-118.129104,0.10,0.00,-0.10,4.70,-0.80,-0.50,0,1,0,95,100,-7006,3206,16723,3091.50,10,WP,1,0,0,0,0,0,0,1654471920378,4288,4289,4288,4279,0,0,27,,,,,,,0,0,0,-47.00,-8.00,-5.00,0.00,0.00,-45.00,14,37.00,1.41,4.24,1.00,0.00,-1.00,0,,,100,100,0,2,0,0,0,1,0,,,,,0.0,0.0,0.0,0.0,0.0,0.0,0
34.182623,-118.129105,3.70,3.50,0.10,0.45,3.70,3.70,1.40,0.45,4554,2022-06-05 23:32:00.530,2022-06-05 16:32:00.530,16,0,0,16.723,34.182619,-118.129104,0.10,0.00,0.00,4.70,-0.70,1.60,0,1,0,95,100,-7006,3206,16723,3091.50,10,WP,1,0,0,0,0,0,0,1654471920530,4288,4289,4288,4279,0,0,27,,,,,,,0,0,0,-47.00,-7.00,16.00,0.00,0.00,-41.00,14,37.00,1.00,4.50,1.00,0.00,0.00,0,,,100,100,0,2,0,0,0,1,0,,,,,0.0,0.0,0.0,0.0,0.0,0.0,0
34.182623,-118.129105,3.70,3.50,0.10,0.46,3.70,3.70,1.40,0.46,4603,2022-06-05 23:32:00.580,2022-06-05 16:32:00.580,16,0,0,16.723,34.182619,-118.129104,0.10,0.00,0.00,4.50,-0.60,4.40,0,1,0,95,100,-7006,3206,16723,3091.50,10,WP,1,0,0,0,0,0,0,1654471920579,4288,4289,4288,4279,0,0,27,,,,,,,0,0,0,-45.00,-6.00,44.00,0.00,0.00,-29.00,14,37.00,1.00,4.60,1.00,0.00,0.00,0,,,100,100,0,2,0,0,0,1,0,,,,,0.0,0.0,0.0,0.0,0.0,0.0,0
34.182623,-118.129105,3.70,3.50,0.10,0.47,3.70,3.70,1.40,0.47,4753,2022-06-05 23:32:00.730,2022-06-05 16:32:00.730,16,0,0,16.723,34.182619,-118.129104,0.10,0.00,0.00,4.40,-0.10,7.60,0,1,0,95,100,-7006,3206,16723,3091.50,10,WP,1,0,0,0,0,0,0,1654471920729,4288,4289,4288,4279,0,0,27,,,,,,,0,0,0,-44.00,-1.00,76.00,0.00,0.00,-6.00,14,37.00,1.00,4.72,1.00,0.00,0.00,0,,,100,100,0,2,0,0,0,1,0,,,,,0.0,0.0,0.0,0.0,0.0,0.0,0
34.182623,-118.129105,3.70,3.50,0.00,0.48,3.70,3.70,1.40,0.48,4803,2022-06-05 23:32:00.779,2022-06-05 16:32:00.779,16,0,0,16.723,34.182619,-118.129104,0.00,0.00,0.00,4.20,0.80,11.40,0,1,0,95,100,-7006,3206,16723,3091.50,10,WP,1,0,0,0,0,0,0,1654471920779,4288,4289,4288,4279,0,0,27,,,,,,,0,0,0,-42.00,8.00,114.00,0.00,0.00,24.00,14,37.00,0.00,4.81,0.00,0.00,0.00,0,,,100,100,0,2,0,0,0,1,0,,,,,0.0,0.0,0.0,0.0,0.0,0.0,0
34.182623,-118.129105,3.70,3.50,0.00,0.49,3.70,3.70,1.40,0.49,4952,2022-06-05 23:32:00.929,2022-06-05 16:32:00.929,16,0,0,16.723,34.182619,-118.129104,0.00,0.00,0.00,4.20,0.30,16.10,0,1,0,95,100,-7006,3206,16723,3091.50,10,WP,1,0,0,0,0,0,0,1654471920928,4288,4289,4288,4279,0,0,27,,,,,,,0,0,0,-42.00,3.00,161.00,0.00,0.00,63.00,14,37.00,0.00,4.90,0.00,0.00,0.00,0,,,100,100,0,2,0,0,0,1,0,,,,,0.0,0.0,0.0,0.0,0.0,0.0,0
34.182623,-118.129105,3.70,3.50,0.00,0.50,3.70,3.70,1.40,0.50,5003,2022-06-05 23:32:00.980,2022-06-05 16:32:00.980,16,0,0,16.723,34.182619,-118.129104,0.00,0.00,0.00,4.10,0.40,21.10,0,1,0,95,100,-7006,3206,16723,3091.50,10,WP,1,0,0,0,0,0,0,1654471920979,4288,4289,4288,4279,0,0,27,,,,,,,0,0,0,-41.00,4.00,211.00,0.00,0.00,111.00,14,37.00,0.00,4.96,0.00,0.00,0.00,0,,,100,100,0,2,0,0,0,1,0,,,,,0.0,0.0,0.0,0.0,0.0,0.0,0
34.182623,-118.129105,3.70,3.50,0.00,0.49,3.70,3.70,1.40,0.50,5103,2022-06-05 23:32:01.079,2022-06-05 16:32:01.079,16,0,0,16.723,34.182619,-118.129104,0.00,0.00,0.00,3.90,0.80,26.70,0,1,0,95,100,-7006,3206,16723,3091.50,10,WP,1,0,0,0,0,0,0,1654471921079,4288,4289,4288,4279,0,0,27,,,,,,,0,0,0,-39.00,8.00,267.00,0.00,0.00,162.00,14,37.00,0.00,4.88,0.00,0.00,0.00,0,,,100,100,0,2,0,0,0,1,0,,,,,0.0,0.0,0.0,0.0,0.0,0.0,0
34.182623,-118.129105,3.70,3.50,0.00,0.49,3.70,3.70,1.40,0.50,5205,2022-06-05 23:32:01.182,2022-06-05 16:32:01.182,16,0,0,16.723,34.182619,-118.129104,0.00,0.00,0.00,3.70,1.60,32.70,0,1,0,95,100,-7006,3206,16723,3091.50,10,WP,1,0,0,0,0,0,0,1654471921181,4288,4289,4288,4279,0,0,27,,,,,,,0,0,0,-37.00,16.00,327.00,0.00,0.00,219.00,14,37.00,0.00,4.93,0.00,0.00,0.00,0,,,100,100,0,2,0,0,0,1,0,,,,,0.0,0.0,0.0,0.0,0.0,0.0,0
34.182623,-118.129105,3.60,3.50,0.00,0.51,3.70,3.70,1.40,0.51,5305,2022-06-05 23:32:01.282,2022-06-05 16:32:01.282,16,0,0,16.723,34.182619,-118.129104,0.00,0.00,0.00,3.50,2.20,39.50,0,1,0,95,100,-7006,3206,16723,3091.50,10,WP,1,0,0,0,0,0,0,1654471921281,4288,4289,4288,4279,0,0,27,,,,,,,0,0,0,-35.00,22.00,395.00,0.00,0.00,281.00,14,36.00,0.00,5.14,0.00,0.00,0.00,0,,,100,100,0,2,0,0,0,1,0,,,,,0.0,0.0,0.0,0.0,0.0,0.0,0
34.182623,-118.129105,3.60,3.50,0.00,0.52,3.70,3.70,1.40,0.52,5407,2022-06-05 23:32:01.383,2022-06-05 16:32:01.383,16,0,0,16.723,34.182619,-118.129104,0.00,0.00,0.00,3.40,2.90,46.80,0,1,0,95,100,-7006,3206,16723,3091.50,10,WP,1,0,0,0,0,0,0,1654471921383,4192,4187,4180,4179,0,0,27,,,,,,,0,0,0,-34.00,29.00,468.00,0.00,0.00,349.00,14,36.00,0.00,5.22,0.00,0.00,0.00,0,,,100,100,0,2,0,0,0,1,0,,,,,0.0,0.0,0.0,0.0,0.0,0.0,0
34.182623,-118.129105,3.60,3.50,0.00,0.51,3.70,3.70,1.40,0.52,5506,2022-06-05 23:32:01.482,2022-06-05 16:32:01.482,16,0,0,16.723,34.182619,-118.129104,0.00,0.00,0.00,3.20,3.50,54.30,0,1,0,95,100,-7006,3206,16723,3091.50,10,WP,1,0,0,0,0,0,0,1654471921482,4192,4187,4180,4179,0,0,27,,,,,,,0,0,0,-32.00,35.00,543.00,0.00,0.00,423.00,14,36.00,0.00,5.15,0.00,0.00,0.00,0,,,100,100,0,2,0,0,0,1,0,,,,,0.0,0.0,0.0,0.0,0.0,0.0,0
34.182623,-118.129105,3.60,3.50,0.00,0.52,3.70,3.70,1.40,0.52,5605,2022-06-05 23:32:01.582,2022-06-05 16:32:01.582,16,0,0,16.723,34.182619,-118.129104,0.00,0.00,0.00,2.90,3.70,61.80,0,1,0,95,100,-7006,3206,16723,3091.50,10,WP,1,0,0,0,0,0,0,1654471921581,4192,4187,4180,4179,0,0,27,,,,,,,0,0,0,-29.00,37.00,618.00,0.00,0.00,500.00,14,36.00,0.00,5.20,0.00,0.00,0.00,0,,,100,100,0,2,0,0,0,1,0,,,,,0.0,0.0,0.0,0.0,0.0,0.0,0
34.182623,-118.129105,3.60,3.50,0.00,0.53,3.70,3.70,1.40,0.53,5707,2022-06-05 23:32:01.684,2022-06-05 16:32:01.684,16,0,0,16.723,34.182619,-118.129104,0.00,0.00,0.00,2.50,3.60,69.20,0,1,0,95,100,-7006,3206,16723,3091.50,10,WP,1,0,0,0,0,0,0,1654471921683,4192,4187,4180,4179,0,0,27,,,,,,,0,0,0,-25.00,36.00,692.00,0.00,0.00,576.00,14,36.00,0.00,5.31,0.00,0.00,0.00,0,,,100,100,0,2,0,0,0,1,0,,,,,0.0,0.0,0.0,0.0,0.0,0.0,0
34.182623,-118.129105,3.60,3.50,0.00,0.54,3.70,3.70,1.40,0.54,5805,2022-06-05 23:32:01.781,2022-06-05 16:32:01.781,16,0,0,16.723,34.182619,-118.129104,0.00,0.00,0.00,1.70,4.00,76.50,0,1,0,95,100,-7006,3206,16723,3091.50,10,WP,1,0,0,0,0,0,0,1654471921781,4192,4187,4180,4179,0,0,27,,,,,,,0,0,0,-17.00,40.00,765.00,0.00,0.00,652.00,14,36.00,0.00,5.35,0.00,0.00,0.00,0,,,100,100,0,2,0,0,0,1,0,,,,,0.0,0.0,0.0,0.0,0.0,0.0,0
34.182623,-118.129105,3.60,3.50,0.00,0.53,3.70,3.70,1.40,0.54,5905,2022-06-05 23:32:01.882,2022-06-05 16:32:01.882,16,0,0,16.723,34.182619,-118.129104,0.00,0.00,0.00,1.40,3.90,84.00,0,1,0,95,100,-7006,3206,16723,3091.50,10,WP,1,0,0,0,0,0,0,1654471921881,4192,4187,4180,4179,0,0,27,,,,,,,0,0,0,-14.00,39.00,840.00,0.00,0.00,726.00,14,36.00,0.00,5.29,0.00,0.00,0.00,0,,,100,100,0,2,0,0,0,1,0,,,,,0.0,0.0,0.0,0.0,0.0,0.0,0
34.182623,-118.129105,3.60,3.50,0.00,0.53,3.70,3.70,1.40,0.54,6005,2022-06-05 23:32:01.982,2022-06-05 16:32:01.982,16,0,0,16.723,34.182619,-118.129104,0.00,0.00,0.00,0.70,4.10,91.40,0,1,0,95,100,-7006,3206,16723,3091.50,10,WP,1,0,0,0,0,0,0,1654471921981,4192,4187,4180,4179,0,0,27,,,,,,,0,0,0,-7.00,41.00,914.00,0.00,0.00,802.00,14,36.00,0.00,5.32,0.00,0.00,0.00,0,,,100,100,0,2,0,0,0,1,0,,,,,0.0,0.0,0.0,0.0,0.0,0.0,0
34.182623,-118.129104,3.60,3.50,0.00,0.54,3.70,3.70,1.40,0.54,6105,2022-06-05 23:32:02.081,2022-06-05 16:32:02.081,16,0,0,16.723,34.182619,-118.129104,0.00,0.00,0.00,0.00,4.50,98.60,0,1,0,95,100,-7006,3206,16723,3091.50,10,WP,1,0,0,0,0,0,0,1654471922081,4192,4187,4180,4179,0,0,27,,,,,,,0,0,0,-0.00,45.00,986.00,0.00,0.00,877.00,14,36.00,0.00,5.37,0.00,0.00,0.00,0,,,100,100,0,2,0,0,0,1,0,,,,,0.0,0.0,0.0,0.0,0.0,0.0,0
34.182623,-118.129104,3.60,3.50,0.00,0.54,3.70,3.70,1.40,0.54,6206,2022-06-05 23:32:02.182,2022-06-05 16:32:02.182,16,0,0,16.723,34.182619,-118.129104,0.00,0.00,0.00,-0.50,4.70,106.10,0,1,0,95,100,-7006,3206,16723,3091.50,10,WP,1,0,0,0,0,0,0,1654471922182,4192,4187,4180,4179,0,0,27,,,,,,,0,0,0,5.00,47.00,1061.00,0.00,0.00,952.00,14,36.00,0.00,5.41,0.00,0.00,0.00,0,,,100,100,0,2,0,0,0,1,0,,,,,0.0,0.0,0.0,0.0,0.0,0.0,0
34.182623,-118.129105,3.60,3.50,0.00,0.53,3.70,3.70,1.40,0.54,6306,2022-06-05 23:32:02.282,2022-06-05 16:32:02.283,16,0,0,16.723,34.182619,-118.129104,0.00,0.00,0.00,-0.70,4.40,113.60,0,1,0,95,100,-7006,3206,16723,3091.50,10,WP,1,0,0,0,0,0,0,1654471922282,4192,4187,4180,4179,0,0,27,,,,,,,0,0,0,7.00,44.00,1136.00,0.00,0.00,1025.00,14,36.00,0.00,5.34,0.00,0.00,0.00,0,,,100,100,0,2,0,0,0,1,0,,,,,0.0,0.0,0.0,0.0,0.0,0.0,0
34.182623,-118.129105,3.60,3.50,0.00,0.54,3.70,3.70,1.40,0.54,6406,2022-06-05 23:32:02.383,2022-06-05 16:32:02.383,16,0,0,16.702,34.182619,-118.129104,0.00,0.00,0.00,-1.00,3.80,121.10,0,1,0,95,100,-7438,3202,16702,3091.50,10,WP,1,0,0,0,0,0,0,1654471922382,4192,4187,4180,4179,0,0,27,,,,,,,0,0,0,10.00,38.00,1211.00,0.00,0.00,1101.00,14,36.00,0.00,5.37,0.00,0.00,0.00,0,,,100,100,0,2,0,0,0,1,0,,,,,0.0,0.0,0.0,0.0,0.0,0.0,0
34.182623,-118.129105,3.60,3.50,0.00,0.53,3.70,3.70,1.40,0.54,6555,2022-06-05 23:32:02.532,2022-06-05 16:32:02.532,16,0,0,16.702,34.182619,-118.129104,0.00,0.00,0.00,-1.80,3.20,128.70,0,1,0,95,100,-7438,3202,16702,3091.50,10,WP,1,0,0,0,0,0,0,1654471922531,4192,4187,4180,4179,0,0,27,,,,,,,0,0,0,18.00,32.00,1287.00,0.00,0.00,1176.00,14,36.00,0.00,5.30,0.00,0.00,0.00,0,,,100,100,0,2,0,0,0,1,0,,,,,0.0,0.0,0.0,0.0,0.0,0.0,0
34.182623,-118.129105,3.60,3.50,0.00,0.53,3.70,3.70,1.40,0.54,6606,2022-06-05 23:32:02.582,2022-06-05 16:32:02.582,16,0,0,16.702,34.182619,-118.129104,0.00,0.00,0.00,-2.60,2.80,136.20,0,1,0,95,100,-7438,3202,16702,3091.50,10,WP,1,0,0,0,0,0,0,1654471922582,4192,4187,4180,4179,0,0,27,,,,,,,0,0,0,26.00,28.00,1362.00,0.00,0.00,1251.00,14,36.00,0.00,5.33,0.00,0.00,0.00,0,,,100,100,0,2,0,0,0,1,0,,,,,0.0,0.0,0.0,0.0,0.0,0.0,0
34.182623,-118.129105,3.60,3.50,0.00,0.53,3.70,3.70,1.40,0.54,6706,2022-06-05 23:32:02.682,2022-06-05 16:32:02.682,16,0,0,16.702,34.182619,-118.129104,0.00,0.00,0.00,-2.90,2.70,142.80,0,1,0,95,100,-7438,3202,16702,3091.50,10,WP,1,0,0,0,0,0,0,1654471922682,4192,4187,4180,4179,0,0,27,,,,,,,0,0,0,29.00,27.00,1428.00,0.00,0.00,1327.00,14,36.00,0.00,5.28,0.00,0.00,0.00,0,,,100,100,0,2,0,0,0,1,0,,,,,0.0,0.0,0.0,0.0,0.0,0.0,0
34.182623,-118.129105,3.60,3.50,0.00,0.53,3.70,3.70,1.40,0.54,6807,2022-06-05 23:32:02.784,2022-06-05 16:32:02.784,16,0,0,16.702,34.182619,-118.129104,0.00,0.00,0.00,-3.30,2.60,147.40,0,1,0,95,100,-7438,3202,16702,3091.50,10,WP,1,0,0,0,0,0,0,1654471922783,4192,4187,4180,4179,0,0,27,,,,,,,0,0,0,33.00,26.00,1474.00,0.00,0.00,1395.00,14,36.00,0.00,5.30,0.00,0.00,0.00,0,,,100,100,0,2,0,0,0,1,0,,,,,0.0,0.0,0.0,0.0,0.0,0.0,0
34.182623,-118.129104,3.60,3.50,0.00,0.51,3.70,3.70,1.40,0.54,6905,2022-06-05 23:32:02.881,2022-06-05 16:32:02.881,16,0,0,16.702,34.182619,-118.129104,0.00,0.00,0.00,-3.50,2.50,150.30,0,1,0,95,100,-7438,3202,16702,3091.50,10,WP,1,0,0,0,0,0,0,1654471922881,4192,4187,4180,4179,0,0,27,,,,,,,0,0,0,35.00,25.00,1503.00,0.00,0.00,1445.00,14,36.00,0.00,5.06,0.00,0.00,0.00,0,,,100,100,0,2,0,0,0,1,0,,,,,0.0,0.0,0.0,0.0,0.0,0.0,0
34.182623,-118.129104,3.70,3.50,0.00,0.50,3.70,3.70,1.40,0.54,6999,2022-06-05 23:32:02.976,2022-06-05 16:32:02.976,16,0,0,16.702,34.182619,-118.129104,0.00,0.00,0.00,-3.40,1.90,152.00,0,1,0,95,100,-7438,3202,16702,3091.50,10,WP,1,0,0,0,0,0,0,1654471922975,4192,4187,4180,4179,0,0,27,,,,,,,0,0,0,34.00,19.00,1520.00,0.00,0.00,1478.00,14,37.00,0.00,5.04,0.00,0.00,0.00,0,,,100,100,0,2,0,0,0,1,0,,,,,0.0,0.0,0.0,0.0,0.0,0.0,0
34.182623,-118.129104,3.70,3.50,0.00,0.48,3.70,3.70,1.40,0.54,7107,2022-06-05 23:32:03.083,2022-06-05 16:32:03.083,16,0,0,16.702,34.182619,-118.129104,0.00,0.00,0.00,-3.50,1.10,153.10,0,1,0,95,100,-7438,3202,16702,3091.50,10,WP,1,0,0,0,0,0,0,1654471923083,4192,4187,4180,4179,0,0,27,,,,,,,0,0,0,35.00,11.00,1531.00,0.00,0.00,1498.00,14,37.00,0.00,4.77,0.00,0.00,0.00,0,,,100,100,0,2,0,0,0,1,0,,,,,0.0,0.0,0.0,0.0,0.0,0.0,0
34.182623,-118.129104,3.70,3.60,0.00,0.47,3.70,3.70,1.40,0.54,7207,2022-06-05 23:32:03.183,2022-06-05 16:32:03.183,16,0,0,16.702,34.182619,-118.129104,0.00,0.00,0.00,-3.20,1.20,153.70,0,1,0,95,100,-7438,3202,16702,3091.50,10,WP,1,0,0,0,0,0,0,1654471923183,4192,4187,4180,4179,0,0,27,,,,,,,0,0,0,32.00,12.00,1537.00,0.00,0.00,1511.00,14,37.00,0.00,4.70,0.00,0.00,0.00,0,,,100,100,0,2,0,0,0,1,0,,,,,0.0,0.0,0.0,0.0,0.0,0.0,0
34.182622,-118.129104,3.70,3.60,0.00,0.44,3.70,3.70,1.40,0.54,7305,2022-06-05 23:32:03.282,2022-06-05 16:32:03.282,16,0,0,16.702,34.182619,-118.129104,0.00,0.00,0.00,-3.00,1.00,153.90,0,1,0,95,100,-7438,3202,16702,3091.50,10,WP,1,0,0,0,0,0,0,1654471923281,4192,4187,4180,4179,0,0,27,,,,,,,0,0,0,30.00,10.00,1539.00,0.00,0.00,1519.00,14,37.00,0.00,4.41,0.00,0.00,0.00,0,,,100,100,0,2,0,0,0,1,0,,,,,0.0,0.0,0.0,0.0,0.0,0.0,0
34.182622,-118.129104,3.70,3.50,0.00,0.43,3.70,3.70,1.40,0.54,7407,2022-06-05 23:32:03.383,2022-06-05 16:32:03.383,16,0,0,16.702,34.182619,-118.129104,0.00,0.00,0.00,-2.60,1.00,154.40,0,1,0,95,100,-7438,3202,16702,3091.50,10,WP,1,0,0,0,0,0,0,1654471923383,4192,4187,4180,4179,0,0,27,,,,,,,0,0,0,26.00,10.00,1544.00,0.00,0.00,1523.00,14,37.00,0.00,4.30,0.00,0.00,0.00,0,,,100,100,0,2,0,0,0,1,0,,,,,0.0,0.0,0.0,0.0,0.0,0.0,0
34.182622,-118.129104,3.70,3.50,0.00,0.39,3.70,3.70,1.40,0.54,7506,2022-06-05 23:32:03.482,2022-06-05 16:32:03.482,16,0,0,16.702,34.182619,-118.129104,0.00,0.00,0.00,-2.00,1.40,154.80,0,1,0,95,100,-7438,3202,16702,3091.50,10,WP,1,0,0,0,0,0,0,1654471923482,4192,4187,4180,4179,0,0,27,,,,,,,0,0,0,20.00,14.00,1548.00,0.00,0.00,1527.00,14,37.00,0.00,3.89,0.00,0.00,0.00,0,,,100,100,0,2,0,0,0,1,0,,,,,0.0,0.0,0.0,0.0,0.0,0.0,0
34.182622,-118.129104,3.70,3.50,0.10,0.38,3.70,3.70,1.40,0.54,7605,2022-06-05 23:32:03.582,2022-06-05 16:32:03.582,16,0,0,16.702,34.182619,-118.129104,-0.10,0.00,0.00,-3.00,1.40,155.00,0,1,0,95,100,-7438,3202,16702,3091.50,10,WP,1,0,0,0,0,0,0,1654471923581,4192,4187,4180,4179,0,0,27,,,,,,,0,0,0,30.00,14.00,1550.00,0.00,0.00,1531.00,14,37.00,1.00,3.77,-1.00,0.00,0.00,0,,,100,100,0,2,0,0,0,1,0,,,,,0.0,0.0,0.0,0.0,0.0,0.0,0
34.182622,-118.129104,3.70,3.50,0.10,0.35,3.70,3.70,1.40,0.54,7707,2022-06-05 23:32:03.683,2022-06-05 16:32:03.683,16,0,0,16.702,34.182619,-118.129104,-0.10,0.00,0.00,-7.80,1.60,155.00,0,1,0,95,100,-7438,3202,16702,3091.50,10,WP,1,0,0,0,0,0,0,1654471923683,4192,4187,4180,4179,0,0,27,,,,,,,0,0,0,78.00,16.00,1550.00,0.00,0.00,1533.00,14,37.00,1.00,3.50,-1.00,0.00,0.00,0,,,100,100,0,2,0,0,0,1,0,,,,,0.0,0.0,0.0,0.0,0.0,0.0,0
34.182621,-118.129104,3.70,3.50,0.22,0.33,3.70,3.70,1.40,0.54,7805,2022-06-05 23:32:03.781,2022-06-05 16:32:03.781,16,0,0,16.702,34.182619,-118.129104,-0.20,0.10,0.00,-12.50,2.20,154.90,0,1,0,95,100,-7438,3202,16702,3091.50,10,WP,1,0,0,0,0,0,0,1654471923781,4192,4187,4180,4179,0,0,27,,,,,,,0,0,0,125.00,22.00,1549.00,0.00,0.00,1535.00,14,37.00,2.24,3.28,-2.00,1.00,0.00,0,,,100,100,0,2,0,0,0,1,0,,,,,0.0,0.0,0.0,0.0,0.0,0.0,0
34.182621,-118.129104,3.70,3.50,0.41,0.27,3.70,3.70,1.40,0.54,7906,2022-06-05 23:32:03.882,2022-06-05 16:32:03.882,16,0,0,16.702,34.182619,-118.129104,-0.40,0.10,0.00,-15.90,1.60,154.80,0,1,0,95,100,-7438,3202,16702,3091.50,10,WP,1,0,0,0,0,0,0,1654471923882,4192,4187,4180,4179,0,0,27,,,,,,,0,0,0,159.00,16.00,1548.00,0.00,0.00,1535.00,14,37.00,4.12,2.70,-4.00,1.00,0.00,0,,,100,100,0,2,0,0,0,1,0,,,,,0.0,0.0,0.0,0.0,0.0,0.0,0
34.182620,-118.129103,3.70,3.50,0.73,0.22,3.70,3.70,1.40,0.54,8005,2022-06-05 23:32:03.982,2022-06-05 16:32:03.982,16,0,0,16.702,34.182619,-118.129104,-0.70,0.20,0.00,-18.20,1.00,154.80,0,1,0,95,100,-7438,3202,16702,3091.50,10,WP,1,0,0,0,0,0,0,1654471923981,4192,4187,4180,4179,0,0,27,,,,,,,0,0,0,182.00,10.00,1548.00,0.00,0.00,1536.00,14,37.00,7.28,2.20,-7.00,2.00,0.00,0,,,100,100,0,2,0,0,0,1,0,,,,,0.0,0.0,0.0,0.0,0.0,0.0,0
34.182619,-118.129103,3.70,3.50,0.95,0.15,3.70,3.70,1.40,0.54,8157,2022-06-05 23:32:04.133,2022-06-05 16:32:04.133,16,0,0,16.702,34.182619,-118.129104,-0.90,0.30,0.00,-19.60,0.00,154.70,0,1,0,95,100,-7438,3202,16702,3091.50,10,WP,1,0,0,0,0,0,0,1654471924133,4192,4187,4180,4179,0,0,27,,,,,,,0,0,0,196.00,0.00,1547.00,0.00,0.00,1536.00,14,37.00,9.49,1.55,-9.00,3.00,0.00,0,,,100,100,0,2,0,0,0,1,0,,,,,0.0,0.0,0.0,0.0,0.0,0.0,0
34.182618,-118.129103,3.70,3.50,1.30,0.17,3.70,3.70,1.40,0.54,8205,2022-06-05 23:32:04.182,2022-06-05 16:32:04.182,16,0,0,16.702,34.182619,-118.129104,-1.20,0.50,0.00,-20.70,0.00,154.80,0,1,0,95,100,-7438,3202,16702,3091.50,10,WP,1,0,0,0,0,0,0,1654471924181,4192,4187,4180,4179,0,0,27,,,,,,,0,0,0,207.00,0.00,1548.00,0.00,0.00,1536.00,14,37.00,13.00,1.71,-12.00,5.00,0.00,0,,,100,100,0,2,0,0,0,1,0,,,,,0.0,0.0,0.0,0.0,0.0,0.0,0
34.182617,-118.129102,3.70,3.50,1.62,0.30,3.70,3.70,1.62,0.54,8306,2022-06-05 23:32:04.283,2022-06-05 16:32:04.283,16,0,0,16.711,34.182619,-118.129104,-1.50,0.60,0.00,-21.80,0.50,154.80,0,1,0,95,100,-7195,3200,16711,3091.50,10,WP,1,0,0,0,0,0,0,1654471924282,4192,4187,4180,4179,0,0,27,,,,,,,0,0,0,218.00,5.00,1548.00,0.00,0.00,1536.00,14,37.00,16.16,2.98,-15.00,6.00,0.00,0,,,100,100,0,2,0,0,0,1,0,,,,,0.0,0.0,0.0,0.0,0.0,0.0,0
34.182615,-118.129101,3.70,3.50,1.97,0.47,3.70,3.70,1.97,0.54,8456,2022-06-05 23:32:04.432,2022-06-05 16:32:04.432,16,0,0,16.711,34.182619,-118.129104,-1.80,0.80,0.00,-22.50,1.10,154.70,0,1,0,95,100,-7195,3200,16711,3091.50,10,WP,1,0,0,0,0,0,0,1654471924432,4192,4187,4180,4179,0,0,27,,,,,,,0,0,0,225.00,11.00,1547.00,0.00,0.00,1537.00,14,37.00,19.70,4.70,-18.00,8.00,0.00,0,,,100,100,0,2,0,0,0,1,0,,,,,0.0,0.0,0.0,0.0,0.0,0.0,0
34.182613,-118.129100,3.70,3.50,2.29,0.69,3.70,3.70,2.29,0.69,8555,2022-06-05 23:32:04.532,2022-06-05 16:32:04.532,16,0,0,16.711,34.182619,-118.129104,-2.10,0.90,-0.10,-23.00,1.50,154.80,0,1,0,95,100,-7195,3200,16711,3091.50,10,WP,1,0,0,0,0,0,0,1654471924531,4192,4187,4180,4179,0,0,27,,,,,,,0,0,0,230.00,15.00,1548.00,0.00,0.00,1537.00,14,37.00,22.87,6.90,-21.00,9.00,-1.00,0,,,100,100,0,2,0,0,0,1,0,,,,,0.0,0.0,0.0,0.0,0.0,0.0,0
34.182611,-118.129099,3.70,3.60,2.69,0.95,3.70,3.70,2.69,0.95,8606,2022-06-05 23:32:04.582,2022-06-05 16:32:04.582,16,0,0,16.711,34.182619,-118.129104,-2.50,1.00,-0.10,-22.70,0.70,154.80,0,1,0,95,100,-7195,3200,16711,3091.50,10,WP,1,0,0,0,0,0,0,1654471924582,4192,4187,4180,4179,0,0,27,,,,,,,0,0,0,227.00,7.00,1548.00,0.00,0.00,1537.00,14,37.00,26.94,9.46,-25.00,10.00,-1.00,0,,,100,100,0,2,0,0,0,1,0,,,,,0.0,0.0,0.0,0.0,0.0,0.0,0
34.182609,-118.129098,3.70,3.60,3.01,1.22,3.70,3.70,3.01,1.22,8706,2022-06-05 23:32:04.683,2022-06-05 16:32:04.683,16,0,0,16.711,34.182619,-118.129104,-2.80,1.10,-0.10,-22.60,-0.30,154.70,0,1,0,95,100,-7195,3200,16711,3091.50,10,WP,1,0,0,0,0,0,0,1654471924682,4192,4187,4180,4179,0,0,27,,,,,,,0,0,0,226.00,-3.00,1547.00,0.00,0.00,1537.00,14,37.00,30.10,12.20,-28.00,11.00,-1.00,0,,,100,100,0,2,0,0,0,1,0,,,,,0.0,0.0,0.0,0.0,0.0,0.0,0
34.182606,-118.129097,3.70,3.60,3.36,1.55,3.70,3.70,3.36,1.55,8806,2022-06-05 23:32:04.783,2022-06-05 16:32:04.783,16,0,0,16.711,34.182619,-118.129104,-3.10,1.30,-0.10,-22.10,-0.80,154.90,0,1,0,95,100,-7195,3200,16711,3091.50,10,WP,1,0,0,0,0,0,0,1654471924782,4192,4187,4180,4179,0,0,27,,,,,,,0,0,0,221.00,-8.00,1549.00,0.00,0.00,1537.00,14,37.00,33.63,15.46,-31.00,13.00,-1.00,0,,,100,100,0,2,0,0,0,1,0,,,,,0.0,0.0,0.0,0.0,0.0,0.0,0
34.182603,-118.129095,3.70,3.60,3.59,1.90,3.70,3.70,3.59,1.90,8906,2022-06-05 23:32:04.882,2022-06-05 16:32:04.882,16,0,0,16.711,34.182619,-118.129104,-3.30,1.40,-0.20,-15.70,-1.40,154.80,0,1,0,95,100,-7195,3200,16711,3091.50,10,WP,1,0,0,0,0,0,0,1654471924882,4192,4187,4180,4179,0,0,27,,,,,,,0,0,0,157.00,-14.00,1548.00,0.00,0.00,1537.00,14,37.00,35.90,19.02,-33.00,14.00,-2.00,0,,,100,100,0,2,0,0,0,1,0,,,,,0.0,0.0,0.0,0.0,0.0,0.0,0
34.182600,-118.129094,3.70,3.60,3.81,2.28,3.70,3.70,3.81,2.28,9006,2022-06-05 23:32:04.983,2022-06-05 16:32:04.983,16,0,0,16.711,34.182619,-118.129104,-3.50,1.50,-0.20,-6.80,-2.10,154.90,0,1,0,95,100,-7195,3200,16711,3091.50,10,WP,1,0,0,0,0,0,0,1654471924982,4192,4187,4180,4179,0,0,27,,,,,,,0,0,0,68.00,-21.00,1549.00,0.00,0.00,1537.00,14,37.00,38.13,22.81,-35.00,15.00,-2.00,0,,,100,100,0,2,0,0,0,1,0,,,,,0.0,0.0,0.0,0.0,0.0,0.0,0
34.182597,-118.129092,3.80,3.70,3.81,2.66,3.80,3.80,3.81,2.66,9106,2022-06-05 23:32:05.083,2022-06-05 16:32:05.083,16,0,0,16.711,34.182619,-118.129104,-3.50,1.50,-0.20,0.70,-2.30,154.70,0,1,0,95,100,-7195,3200,16711,3091.50,10,WP,1,0,0,0,0,0,0,1654471925082,4192,4187,4180,4179,0,0,27,,,,,,,0,0,0,-7.00,-23.00,1547.00,0.00,0.00,1537.00,14,38.00,38.13,26.64,-35.00,15.00,-2.00,0,,,100,100,0,2,0,0,0,1,0,,,,,0.0,0.0,0.0,0.0,0.0,0.0,0
34.182594,-118.129091,3.80,3.70,3.72,3.05,3.80,3.80,3.81,3.05,9208,2022-06-05 23:32:05.185,2022-06-05 16:32:05.185,16,0,0,16.711,34.182619,-118.129104,-3.40,1.50,-0.10,5.10,-2.00,154.80,0,1,0,95,100,-7195,3200,16711,3091.50,10,WP,1,0,0,0,0,0,0,1654471925184,4192,4187,4180,4179,0,0,27,,,,,,,0,0,0,-51.00,-20.00,1548.00,0.00,0.00,1537.00,14,38.00,37.18,30.45,-34.00,15.00,-1.00,0,,,100,100,0,2,0,0,0,1,0,,,,,0.0,0.0,0.0,0.0,0.0,0.0,0
34.182590,-118.129089,3.80,3.70,3.59,3.42,3.80,3.80,3.81,3.42,9307,2022-06-05 23:32:05.283,2022-06-05 16:32:05.283,16,0,0,16.711,34.182619,-118.129104,-3.30,1.40,-0.10,7.40,-3.00,154.50,0,1,0,95,100,-7195,3200,16711,3091.50,10,WP,1,0,0,0,0,0,0,1654471925283,4192,4187,4180,4179,0,0,27,,,,,,,0,0,0,-74.00,-30.00,1545.00,0.00,0.00,1537.00,14,38.00,35.86,34.24,-33.00,14.00,-1.00,0,,,100,100,0,2,0,0,0,1,0,,,,,0.0,0.0,0.0,0.0,0.0,0.0,0
34.182587,-118.129088,3.80,3.70,3.40,3.78,3.80,3.80,3.81,3.78,9408,2022-06-05 23:32:05.384,2022-06-05 16:32:05.385,16,0,0,16.711,34.182619,-118.129104,-3.10,1.40,-0.10,9.80,-3.60,154.40,0,1,0,95,100,-7195,3200,16711,3091.50,10,WP,1,0,0,0,0,0,0,1654471925384,4192,4187,4180,4179,0,0,27,,,,,,,0,0,0,-98.00,-36.00,1544.00,0.00,0.00,1537.00,14,38.00,34.03,37.79,-31.00,14.00,-1.00,0,,,100,100,0,2,0,0,0,1,0,,,,,0.0,0.0,0.0,0.0,0.0,0.0,0
34.182584,-118.129087,3.80,3.70,3.18,4.13,3.80,3.80,3.81,4.13,9507,2022-06-05 23:32:05.483,2022-06-05 16:32:05.483,16,0,0,16.711,34.182619,-118.129104,-2.90,1.30,0.00,11.50,-3.10,154.30,0,1,0,95,100,-7195,3200,16711,3091.50,10,WP,1,0,0,0,0,0,0,1654471925483,4192,4187,4180,4179,0,0,27,,,,,,,0,0,0,-115.00,-31.00,1543.00,0.00,0.00,1537.00,14,38.00,31.78,41.35,-29.00,13.00,0.00,0,,,100,100,0,2,0,0,0,1,0,,,,,0.0,0.0,0.0,0.0,0.0,0.0,0
34.182582,-118.129085,3.80,3.70,3.00,4.45,3.80,3.80,3.81,4.45,9608,2022-06-05 23:32:05.585,2022-06-05 16:32:05.585,16,0,0,16.711,34.182619,-118.129104,-2.70,1.30,0.00,11.60,-2.30,154.70,0,1,0,95,100,-7195,3200,16711,3091.50,10,WP,1,0,0,0,0,0,0,1654471925584,4192,4187,4180,4179,0,0,27,,,,,,,0,0,0,-116.00,-23.00,1547.00,0.00,0.00,1537.00,14,38.00,29.97,44.46,-27.00,13.00,0.00,0,,,100,100,0,2,0,0,0,1,0,,,,,0.0,0.0,0.0,0.0,0.0,0.0,0
34.182579,-118.129084,3.80,3.70,2.68,4.77,3.80,3.80,3.81,4.77,9708,2022-06-05 23:32:05.685,2022-06-05 16:32:05.685,16,0,0,16.711,34.182619,-118.129104,-2.40,1.20,0.00,13.60,-3.10,154.40,0,1,0,95,100,-7195,3200,16711,3091.50,10,WP,1,0,0,0,0,0,0,1654471925684,4192,4187,4180,4179,0,0,27,,,,,,,0,0,0,-136.00,-31.00,1544.00,0.00,0.00,1537.00,14,38.00,26.83,47.72,-24.00,12.00,0.00,0,,,100,100,0,2,0,0,0,1,0,,,,,0.0,0.0,0.0,0.0,0.0,0.0,0
34.182577,-118.129083,3.80,3.70,2.37,5.03,3.80,3.80,3.81,5.03,9807,2022-06-05 23:32:05.784,2022-06-05 16:32:05.784,16,0,0,16.711,34.182619,-118.129104,-2.10,1.10,0.00,13.70,-3.50,154.20,0,1,0,95,100,-7195,3200,16711,3091.50,10,WP,1,0,0,0,0,0,0,1654471925783,4192,4187,4180,4179,0,0,27,,,,,,,0,0,0,-137.00,-35.00,1542.00,0.00,0.00,1537.00,14,38.00,23.71,50.32,-21.00,11.00,0.00,0,,,100,100,0,2,0,0,0,1,0,,,,,0.0,0.0,0.0,0.0,0.0,0.0,0
34.182575,-118.129081,3.80,3.70,2.06,5.29,3.80,3.80,3.81,5.29,9908,2022-06-05 23:32:05.885,2022-06-05 16:32:05.885,16,0,0,16.711,34.182619,-118.129104,-1.80,1.00,0.00,12.00,-2.20,154.20,0,1,0,95,100,-7195,3200,16711,3091.50,10,WP,1,0,0,0,0,0,0,1654471925884,4192,4187,4180,4179,0,0,27,,,,,,,0,0,0,-120.00,-22.00,1542.00,0.00,0.00,1537.00,14,38.00,20.59,52.90,-18.00,10.00,0.00,0,,,100,100,0,2,0,0,0,1,0,,,,,0.0,0.0,0.0,0.0,0.0,0.0,0
34.182573,-118.129080,3.80,3.70,1.84,5.50,3.80,3.80,3.81,5.50,10008,2022-06-05 23:32:05.985,2022-06-05 16:32:05.985,16,0,0,16.711,34.182619,-118.129104,-1.60,0.90,0.00,9.40,-2.00,154.70,0,1,0,95,100,-7195,3200,16711,3091.50,10,WP,1,0,0,0,0,0,0,1654471925984,4192,4187,4180,4179,0,0,27,,,,,,,0,0,0,-94.00,-20.00,1547.00,0.00,0.00,1537.00,14,38.00,18.36,54.96,-16.00,9.00,0.00,0,,,100,100,0,2,0,0,0,1,0,,,,,0.0,0.0,0.0,0.0,0.0,0.0,0
34.182571,-118.129079,3.80,3.70,1.62,5.74,3.80,3.80,3.81,5.74,10108,2022-06-05 23:32:06.085,2022-06-05 16:32:06.085,16,0,0,16.711,34.182619,-118.129104,-1.40,0.80,-0.10,8.10,-2.20,154.80,0,1,0,95,100,-7195,3200,16711,3091.50,10,WP,1,0,0,0,0,0,0,1654471926084,4192,4187,4180,4179,0,0,27,,,,,,,0,0,0,-81.00,-22.00,1548.00,0.00,0.00,1537.00,14,38.00,16.16,57.40,-14.00,8.00,-1.00,0,,,100,100,0,2,0,0,0,1,0,,,,,0.0,0.0,0.0,0.0,0.0,0.0,0
34.182570,-118.129078,3.80,3.80,1.53,5.91,3.80,3.80,3.81,5.91,10209,2022-06-05 23:32:06.185,2022-06-05 16:32:06.185,16,0,0,16.711,34.182619,-118.129104,-1.30,0.80,-0.10,7.80,-1.30,154.80,0,1,0,95,100,-7195,3200,16711,3091.50,10,WP,1,0,0,0,0,0,0,1654471926185,4192,4187,4180,4179,0,0,27,,,,,,,0,0,0,-78.00,-13.00,1548.00,0.00,0.00,1537.00,14,38.00,15.30,59.13,-13.00,8.00,-1.00,0,,,100,100,0,2,0,0,0,1,0,,,,,0.0,0.0,0.0,0.0,0.0,0.0,0
34.182569,-118.129077,3.80,3.80,1.31,6.06,3.80,3.80,3.81,6.06,10307,2022-06-05 23:32:06.284,2022-06-05 16:32:06.285,16,0,0,16.746,34.182619,-118.129104,-1.10,0.70,-0.10,7.50,-0.40,154.70,0,1,0,94,100,-7205,3196,16746,3091.50,10,WP,1,0,0,0,0,0,0,1654471926283,4192,4187,4180,4179,0,0,27,,,,,,,0,0,0,-75.00,-4.00,1547.00,0.00,0.00,1537.00,14,38.00,13.08,60.64,-11.00,7.00,-1.00,0,,,100,100,0,2,0,0,0,1,0,,,,,0.0,0.0,0.0,0.0,0.0,0.0,0
34.182568,-118.129076,3.80,3.80,1.09,6.20,3.80,3.80,3.81,6.20,10407,2022-06-05 23:32:06.384,2022-06-05 16:32:06.384,16,0,0,16.746,34.182619,-118.129104,-0.90,0.60,-0.10,6.50,-0.20,154.60,0,1,0,94,100,-7205,3196,16746,3091.50,10,WP,1,0,0,0,0,0,0,1654471926383,4192,4187,4180,4179,0,0,27,,,,,,,0,0,0,-65.00,-2.00,1546.00,0.00,0.00,1537.00,14,38.00,10.86,62.04,-9.00,6.00,-1.00,0,,,100,100,0,2,0,0,0,1,0,,,,,0.0,0.0,0.0,0.0,0.0,0.0,0
34.182567,-118.129075,3.80,3.80,1.00,6.33,3.80,3.80,3.81,6.33,10507,2022-06-05 23:32:06.484,2022-06-05 16:32:06.484,16,0,0,16.746,34.182619,-118.129104,-0.80,0.60,-0.10,5.00,0.60,154.60,0,1,0,94,100,-7205,3196,16746,3091.50,10,WP,1,0,0,0,0,0,0,1654471926483,4192,4187,4180,4179,0,0,27,,,,,,,0,0,0,-50.00,6.00,1546.00,0.00,0.00,1537.00,14,38.00,10.05,63.28,-8.00,6.00,-1.00,0,,,100,100,0,2,0,0,0,1,0,,,,,0.0,0.0,0.0,0.0,0.0,0.0,0
34.182566,-118.129075,3.80,3.80,0.87,6.44,3.80,3.80,3.81,6.44,10607,2022-06-05 23:32:06.583,2022-06-05 16:32:06.583,16,0,0,16.746,34.182619,-118.129104,-0.70,0.50,-0.10,3.60,0.20,154.70,0,1,0,94,100,-7205,3196,16746,3091.50,10,WP,1,0,0,0,0,0,0,1654471926583,4192,4187,4180,4179,0,0,27,,,,,,,0,0,0,-36.00,2.00,1547.00,0.00,0.00,1537.00,14,38.00,8.66,64.44,-7.00,5.00,-1.00,0,,,100,100,0,2,0,0,0,1,0,,,,,0.0,0.0,0.0,0.0,0.0,0.0,0
34.182565,-118.129074,3.90,3.90,0.87,6.54,3.90,3.90,3.81,6.54,10708,2022-06-05 23:32:06.685,2022-06-05 16:32:06.685,16,0,0,16.746,34.182619,-118.129104,-0.70,0.50,-0.10,2.50,0.90,154.70,0,1,0,94,100,-7205,3196,16746,3091.50,10,WP,1,0,0,0,0,0,0,1654471926684,4192,4187,4180,4179,0,0,27,,,,,,,0,0,0,-25.00,9.00,1547.00,0.00,0.00,1538.00,14,39.00,8.66,65.35,-7.00,5.00,-1.00,0,,,100,100,0,2,0,0,0,1,0,,,,,0.0,0.0,0.0,0.0,0.0,0.0,0
34.182565,-118.129073,3.90,3.90,0.73,6.63,3.90,3.90,3.81,6.63,10808,2022-06-05 23:32:06.785,2022-06-05 16:32:06.785,16,0,0,16.746,34.182619,-118.129104,-0.60,0.40,-0.10,2.50,0.80,154.60,0,1,0,94,100,-7205,3196,16746,3091.50,10,WP,1,0,0,0,0,0,0,1654471926784,4192,4187,4180,4179,0,0,27,,,,,,,0,0,0,-25.00,8.00,1546.00,0.00,0.00,1538.00,14,39.00,7.28,66.34,-6.00,4.00,-1.00,0,,,100,100,0,2,0,0,0,1,0,,,,,0.0,0.0,0.0,0.0,0.0,0.0,0
34.182564,-118.129073,3.90,3.90,0.73,6.73,3.90,3.90,3.81,6.73,10909,2022-06-05 23:32:06.885,2022-06-05 16:32:06.885,16,0,0,16.746,34.182619,-118.129104,-0.60,0.40,-0.10,3.70,0.70,154.60,0,1,0,94,100,-7205,3196,16746,3091.50,10,WP,1,0,0,0,0,0,0,1654471926885,4192,4187,4180,4179,0,0,27,,,,,,,0,0,0,-37.00,7.00,1546.00,0.00,0.00,1538.00,14,39.00,7.28,67.33,-6.00,4.00,-1.00,0,,,100,100,0,2,0,0,0,1,0,,,,,0.0,0.0,0.0,0.0,0.0,0.0,0
34.182563,-118.129072,3.90,3.90,0.58,6.82,3.90,3.90,3.81,6.82,11009,2022-06-05 23:32:06.985,2022-06-05 16:32:06.985,16,0,0,16.746,34.182619,-118.129104,-0.50,0.30,0.00,4.60,1.30,154.70,0,1,0,94,100,-7205,3196,16746,3091.50,10,WP,1,0,0,0,0,0,0,1654471926985,4192,4187,4180,4179,0,0,27,,,,,,,0,0,0,-46.00,13.00,1547.00,0.00,0.00,1538.00,14,39.00,5.83,68.16,-5.00,3.00,0.00,0,,,100,100,0,2,0,0,0,1,0,,,,,0.0,0.0,0.0,0.0,0.0,0.0,0
34.182563,-118.129071,3.90,3.90,0.50,6.88,3.90,3.90,3.81,6.88,11108,2022-06-05 23:32:07.085,2022-06-05 16:32:07.085,16,0,0,16.746,34.182619,-118.129104,-0.40,0.30,0.00,5.00,1.90,154.60,0,1,0,94,100,-7205,3196,16746,3091.50,10,WP,1,0,0,0,0,0,0,1654471927084,4192,4187,4180,4179,0,0,27,,,,,,,0,0,0,-50.00,19.00,1546.00,0.00,0.00,1538.00,14,39.00,5.00,68.80,-4.00,3.00,0.00,0,,,100,100,0,2,0,0,0,1,0,,,,,0.0,0.0,0.0,0.0,0.0,0.0,0
34.182562,-118.129071,3.90,3.90,0.36,6.94,3.90,3.90,3.81,6.94,11208,2022-06-05 23:32:07.184,2022-06-05 16:32:07.184,16,0,0,16.746,34.182619,-118.129104,-0.30,0.20,0.00,6.20,1.70,154.50,0,1,0,94,100,-7205,3196,16746,3091.50,10,WP,1,0,0,0,0,0,0,1654471927184,4192,4187,4180,4179,0,0,27,,,,,,,0,0,0,-62.00,17.00,1545.00,0.00,0.00,1538.00,14,39.00,3.61,69.42,-3.00,2.00,0.00,0,,,100,100,0,2,0,0,0,1,0,,,,,0.0,0.0,0.0,0.0,0.0,0.0,0
34.182562,-118.129071,3.90,3.90,0.22,6.98,3.90,3.90,3.81,6.98,11308,2022-06-05 23:32:07.285,2022-06-05 16:32:07.285,16,0,0,16.746,34.182619,-118.129104,-0.20,0.10,0.00,4.10,0.80,154.60,0,1,0,94,100,-7205,3196,16746,3091.50,10,WP,1,0,0,0,0,0,0,1654471927284,4192,4187,4180,4179,0,0,27,,,,,,,0,0,0,-41.00,8.00,1546.00,0.00,0.00,1538.00,14,39.00,2.24,69.76,-2.00,1.00,0.00,0,,,100,100,0,2,0,0,0,1,0,,,,,0.0,0.0,0.0,0.0,0.0,0.0,0
34.182562,-118.129071,3.90,3.90,0.20,7.01,3.90,3.90,3.81,7.01,11390,2022-06-05 23:32:07.366,2022-06-05 16:32:07.366,16,0,0,16.746,34.182619,-118.129104,-0.20,0.00,0.00,1.80,0.20,154.60,0,1,0,94,100,-7205,3196,16746,3091.50,10,WP,1,0,0,0,0,0,0,1654471927366,4192,4187,4180,4179,0,0,27,,,,,,,0,0,0,-18.00,2.00,1546.00,0.00,0.00,1538.00,14,39.00,2.00,70.13,-2.00,0.00,0.00,0,,,100,100,0,2,0,0,0,1,0,,,,,0.0,0.0,0.0,0.0,0.0,0.0,0
34.182562,-118.129071,3.90,3.90,0.10,7.01,3.90,3.90,3.81,7.01,11509,2022-06-05 23:32:07.485,2022-06-05 16:32:07.485,16,0,0,16.746,34.182619,-118.129104,-0.10,0.00,0.00,0.30,0.30,148.00,0,1,0,94,100,-7205,3196,16746,3091.50,10,WP,1,0,0,0,0,0,0,1654471927485,4192,4187,4180,4179,0,0,27,,,,,,,0,0,0,-3.00,3.00,1480.00,0.00,0.00,1537.00,14,39.00,1.00,70.06,-1.00,0.00,0.00,0,,,100,100,0,2,0,0,0,1,0,,,,,0.0,0.0,0.0,0.0,0.0,0.0,0
34.182562,-118.129071,3.90,3.90,0.10,7.03,3.90,3.90,3.81,7.03,11609,2022-06-05 23:32:07.586,2022-06-05 16:32:07.586,16,0,0,16.746,34.182619,-118.129104,-0.10,0.00,0.00,-0.20,-0.40,140.60,0,1,0,94,100,-7205,3196,16746,3091.50,10,WP,1,0,0,0,0,0,0,1654471927585,4192,4187,4180,4179,0,0,27,,,,,,,0,0,0,2.00,-4.00,1406.00,0.00,0.00,1525.00,14,39.00,1.00,70.31,-1.00,0.00,0.00,0,,,100,100,0,2,0,0,0,1,0,,,,,0.0,0.0,0.0,0.0,0.0,0.0,0
34.182562,-118.129071,3.90,3.90,0.10,7.02,3.90,3.90,3.81,7.03,11709,2022-06-05 23:32:07.685,2022-06-05 16:32:07.685,16,0,0,16.746,34.182619,-118.129104,-0.10,0.00,0.00,-0.20,-1.40,133.10,0,1,0,94,100,-7205,3196,16746,3091.50,10,WP,1,0,0,0,0,0,0,1654471927685,4192,4187,4180,4179,0,0,27,,,,,,,0,0,0,2.00,-14.00,1331.00,0.00,0.00,1460.00,14,39.00,1.00,70.20,-1.00,0.00,0.00,0,,,100,100,0,2,0,0,0,1,0,,,,,0.0,0.0,0.0,0.0,0.0,0.0,0
34.182562,-118.129071,3.90,3.90,0.10,7.04,3.90,3.90,3.81,7.04,11810,2022-06-05 23:32:07.786,2022-06-05 16:32:07.786,16,0,0,16.746,34.182619,-118.129104,-0.10,0.00,0.00,-0.30,-1.70,125.60,0,1,0,94,100,-7205,3196,16746,3091.50,10,WP,1,0,0,0,0,0,0,1654471927786,4192,4187,4180,4179,0,0,27,,,,,,,0,0,0,3.00,-17.00,1256.00,0.00,0.00,1375.00,14,39.00,1.00,70.37,-1.00,0.00,0.00,0,,,100,100,0,2,0,0,0,1,0,,,,,0.0,0.0,0.0,0.0,0.0,0.0,0
34.182562,-118.129070,3.90,3.90,0.00,7.05,3.90,3.90,3.81,7.05,11908,2022-06-05 23:32:07.884,2022-06-05 16:32:07.884,16,0,0,16.746,34.182619,-118.129104,0.00,0.00,0.00,-0.60,-1.60,118.30,0,1,0,94,100,-7205,3196,16746,3091.50,10,WP,1,0,0,0,0,0,0,1654471927884,4192,4187,4180,4179,0,0,27,,,,,,,0,0,0,6.00,-16.00,1183.00,0.00,0.00,1293.00,14,39.00,0.00,70.52,0.00,0.00,0.00,0,,,100,100,0,2,0,0,0,1,0,,,,,0.0,0.0,0.0,0.0,0.0,0.0,0
34.182562,-118.129070,3.90,3.90,0.00,7.06,3.90,3.90,3.81,7.06,12022,2022-06-05 23:32:07.998,2022-06-05 16:32:07.998,16,0,0,16.746,34.182619,-118.129104,0.00,0.00,0.00,-0.70,-1.20,111.00,0,1,0,94,100,-7205,3196,16746,3091.50,10,WP,1,0,0,0,0,0,0,1654471927998,4192,4187,4180,4179,0,0,27,,,,,,,0,0,0,7.00,-12.00,1110.00,0.00,0.00,1214.00,14,39.00,0.00,70.64,0.00,0.00,0.00,0,,,100,100,0,2,0,0,0,1,0,,,,,0.0,0.0,0.0,0.0,0.0,0.0,0
34.182562,-118.129070,3.80,3.80,0.00,7.06,3.90,3.90,3.81,7.06,12107,2022-06-05 23:32:08.083,2022-06-05 16:32:08.083,16,0,0,16.746,34.182619,-118.129104,0.00,0.00,0.00,-0.80,-1.00,103.70,0,1,0,94,100,-7205,3196,16746,3091.50,10,WP,1,0,0,0,0,0,0,1654471928083,4192,4187,4180,4179,0,0,27,,,,,,,0,0,0,8.00,-10.00,1037.00,0.00,0.00,1137.00,14,38.00,0.00,70.56,0.00,0.00,0.00,0,,,100,100,0,2,0,0,0,1,0,,,,,0.0,0.0,0.0,0.0,0.0,0.0,0
34.182562,-118.129070,3.80,3.90,0.00,7.06,3.90,3.90,3.81,7.06,12207,2022-06-05 23:32:08.184,2022-06-05 16:32:08.184,16,0,0,16.746,34.182619,-118.129104,0.00,0.00,0.00,-1.10,-0.40,96.40,0,1,0,94,100,-7205,3196,16746,3091.50,10,WP,1,0,0,0,0,0,0,1654471928183,4192,4187,4180,4179,0,0,27,,,,,,,0,0,0,11.00,-4.00,964.00,0.00,0.00,1061.00,14,38.00,0.00,70.59,0.00,0.00,0.00,0,,,100,100,0,2,0,0,0,1,0,,,,,0.0,0.0,0.0,0.0,0.0,0.0,0
34.182562,-118.129070,3.80,3.80,0.00,7.03,3.90,3.90,3.81,7.06,12307,2022-06-05 23:32:08.283,2022-06-05 16:32:08.283,16,0,0,16.682,34.182619,-118.129104,0.00,0.00,0.00,-1.50,0.60,89.10,0,1,0,94,100,-7263,3192,16682,3091.50,10,WP,1,0,0,0,0,0,0,1654471928283,4192,4187,4180,4179,0,0,27,,,,,,,0,0,0,15.00,6.00,891.00,0.00,0.00,986.00,14,38.00,0.00,70.27,0.00,0.00,0.00,0,,,100,100,0,2,0,0,0,1,0,,,,,0.0,0.0,0.0,0.0,0.0,0.0,0
34.182562,-118.129070,3.80,3.80,0.00,7.02,3.90,3.90,3.81,7.06,12408,2022-06-05 23:32:08.384,2022-06-05 16:32:08.384,16,0,0,16.682,34.182619,-118.129104,0.00,0.00,0.00,-1.40,1.50,81.80,0,1,0,94,100,-7263,3192,16682,3091.50,10,WP,1,0,0,0,0,0,0,1654471928384,4192,4187,4180,4179,0,0,27,,,,,,,0,0,0,14.00,15.00,818.00,0.00,0.00,912.00,14,38.00,0.00,70.21,0.00,0.00,0.00,0,,,100,100,0,2,0,0,0,1,0,,,,,0.0,0.0,0.0,0.0,0.0,0.0,0
34.182562,-118.129070,3.80,3.80,0.00,7.00,3.90,3.90,3.81,7.06,12507,2022-06-05 23:32:08.484,2022-06-05 16:32:08.484,16,0,0,16.682,34.182619,-118.129104,0.00,0.00,0.00,-0.70,2.10,74.50,0,1,0,94,100,-7263,3192,16682,3091.50,10,WP,1,0,0,0,0,0,0,1654471928483,4192,4187,4180,4179,0,0,27,,,,,,,0,0,0,7.00,21.00,745.00,0.00,0.00,838.00,14,38.00,0.00,69.97,0.00,0.00,0.00,0,,,100,100,0,2,0,0,0,1,0,,,,,0.0,0.0,0.0,0.0,0.0,0.0,0
34.182562,-118.129070,3.80,3.80,0.00,6.99,3.90,3.90,3.81,7.06,12607,2022-06-05 23:32:08.583,2022-06-05 16:32:08.583,16,0,0,16.682,34.182619,-118.129104,0.00,0.00,0.00,-0.40,2.40,67.20,0,1,0,94,100,-7263,3192,16682,3091.50,10,WP,1,0,0,0,0,0,0,1654471928583,4192,4187,4180,4179,0,0,27,,,,,,,0,0,0,4.00,24.00,672.00,0.00,0.00,765.00,14,38.00,0.00,69.88,0.00,0.00,0.00,0,,,100,100,0,2,0,0,0,1,0,,,,,0.0,0.0,0.0,0.0,0.0,0.0,0
34.182563,-118.129070,3.80,3.80,0.00,6.96,3.90,3.90,3.81,7.06,12707,2022-06-05 23:32:08.683,2022-06-05 16:32:08.683,16,0,0,16.682,34.182619,-118.129104,0.00,0.00,0.00,-0.20,2.30,59.90,0,1,0,94,100,-7263,3192,16682,3091.50,10,WP,1,0,0,0,0,0,0,1654471928683,4192,4187,4180,4179,0,0,27,,,,,,,0,0,0,2.00,23.00,599.00,0.00,0.00,691.00,14,38.00,0.00,69.57,0.00,0.00,0.00,0,,,100,100,0,2,0,0,0,1,0,,,,,0.0,0.0,0.0,0.0,0.0,0.0,0
34.182563,-118.129070,3.80,3.80,0.00,6.95,3.90,3.90,3.81,7.06,12807,2022-06-05 23:32:08.784,2022-06-05 16:32:08.784,16,0,0,16.682,34.182619,-118.129104,0.00,0.00,0.00,0.00,2.40,52.60,0,1,0,94,100,-7263,3192,16682,3091.50,10,WP,1,0,0,0,0,0,0,1654471928783,4192,4187,4180,4179,0,0,27,,,,,,,0,0,0,-0.00,24.00,526.00,0.00,0.00,617.00,14,38.00,0.00,69.46,0.00,0.00,0.00,0,,,100,100,0,2,0,0,0,1,0,,,,,0.0,0.0,0.0,0.0,0.0,0.0,0
34.182563,-118.129070,3.80,3.80,0.00,6.91,3.90,3.90,3.81,7.06,12908,2022-06-05 23:32:08.885,2022-06-05 16:32:08.885,16,0,0,16.682,34.182619,-118.129104,0.00,0.00,0.00,0.10,2.30,45.30,0,1,0,94,100,-7263,3192,16682,3091.50,10,WP,1,0,0,0,0,0,0,1654471928884,4192,4187,4180,4179,0,0,27,,,,,,,0,0,0,-1.00,23.00,453.00,0.00,0.00,544.00,14,38.00,0.00,69.11,0.00,0.00,0.00,0,,,100,100,0,2,0,0,0,1,0,,,,,0.0,0.0,0.0,0.0,0.0,0.0,0
34.182563,-118.129070,3.80,3.80,0.00,6.90,3.90,3.90,3.81,7.06,13008,2022-06-05 23:32:08.984,2022-06-05 16:32:08.984,16,0,0,16.682,34.182619,-118.129104,0.00,0.00,0.00,0.60,2.10,37.90,0,1,0,94,100,-7263,3192,16682,3091.50,10,WP,1,0,0,0,0,0,0,1654471928984,4192,4187,4180,4179,0,0,27,,,,,,,0,0,0,-6.00,21.00,379.00,0.00,0.00,469.00,14,38.00,0.00,68.99,0.00,0.00,0.00,0,,,100,100,0,2,0,0,0,1,0,,,,,0.0,0.0,0.0,0.0,0.0,0.0,0
34.182563,-118.129070,3.80,3.80,0.00,6.88,3.90,3.90,3.81,7.06,13108,2022-06-05 23:32:09.084,2022-06-05 16:32:09.084,16,0,0,16.682,34.182619,-118.129104,0.00,0.00,0.00,0.90,2.20,30.90,0,1,0,94,100,-7263,3192,16682,3091.50,10,WP,1,0,0,0,0,0,0,1654471929084,4192,4187,4180,4179,0,0,27,,,,,,,0,0,0,-9.00,22.00,309.00,0.00,0.00,396.00,14,38.00,0.00,68.76,0.00,0.00,0.00,0,,,100,100,0,2,0,0,0,1,0,,,,,0.0,0.0,0.0,0.0,0.0,0.0,0
34.182564,-118.129070,3.80,3.80,0.00,6.86,3.90,3.90,3.81,7.06,13208,2022-06-05 23:32:09.184,2022-06-05 16:32:09.184,16,0,0,16.682,34.182619,-118.129104,0.00,0.00,0.00,1.40,1.90,24.70,0,1,0,94,100,-7263,3192,16682,3091.50,10,WP,1,0,0,0,0,0,0,1654471929184,4192,4187,4180,4179,0,0,27,,,,,,,0,0,0,-14.00,19.00,247.00,0.00,0.00,323.00,14,38.00,0.00,68.62,0.00,0.00,0.00,0,,,100,100,0,2,0,0,0,1,0,,,,,0.0,0.0,0.0,0.0,0.0,0.0,0
34.182564,-118.129070,3.80,3.80,0.00,6.84,3.90,3.90,3.81,7.06,13308,2022-06-05 23:32:09.284,2022-06-05 16:32:09.284,16,0,0,16.682,34.182619,-118.129104,0.00,0.00,0.00,2.00,1.70,19.90,0,1,0,94,100,-7263,3192,16682,3091.50,10,WP,1,0,0,0,0,0,0,1654471929284,4192,4187,4180,4179,0,0,27,,,,,,,0,0,0,-20.00,17.00,199.00,0.00,0.00,261.00,14,38.00,0.00,68.44,0.00,0.00,0.00,0,,,100,100,0,2,0,0,0,1,0,,,,,0.0,0.0,0.0,0.0,0.0,0.0,0
34.182564,-118.129070,3.80,3.80,0.00,6.83,3.90,3.90,3.81,7.06,13408,2022-06-05 23:32:09.385,2022-06-05 16:32:09.385,16,0,0,16.682,34.182619,-118.129104,0.00,0.00,0.00,2.00,1.60,16.10,0,1,0,94,100,-7263,3192,16682,3091.50,10,WP,1,0,0,0,0,0,0,1654471929384,4192,4187,4180,4179,0,0,27,,,,,,,0,0,0,-20.00,16.00,161.00,0.00,0.00,211.00,14,38.00,0.00,68.30,0.00,0.00,0.00,0,,,100,100,0,2,0,0,0,1,0,,,,,0.0,0.0,0.0,0.0,0.0,0.0,0
34.182564,-118.129070,3.80,3.80,0.00,6.81,3.90,3.90,3.81,7.06,13508,2022-06-05 23:32:09.485,2022-06-05 16:32:09.485,16,0,0,16.682,34.182619,-118.129104,0.00,0.00,0.00,2.50,1.60,13.00,0,1,0,94,100,-7263,3192,16682,3091.50,10,WP,1,0,0,0,0,0,0,1654471929484,4192,4187,4180,4179,0,0,27,,,,,,,0,0,0,-25.00,16.00,130.00,0.00,0.00,171.00,14,38.00,0.00,68.06,0.00,0.00,0.00,0,,,100,100,0,2,0,0,0,1,0,,,,,0.0,0.0,0.0,0.0,0.0,0.0,0
34.182564,-118.129070,3.80,3.80,0.00,6.79,3.90,3.90,3.81,7.06,13608,2022-06-05 23:32:09.585,2022-06-05 16:32:09.585,16,0,0,16.682,34.182619,-118.129104,0.00,0.00,0.00,2.80,1.20,10.40,0,1,0,94,100,-7263,3192,16682,3091.50,10,WP,1,0,0,0,0,0,0,1654471929584,4192,4187,4180,4179,0,0,27,,,,,,,0,0,0,-28.00,12.00,104.00,0.00,0.00,138.00,14,38.00,0.00,67.92,0.00,0.00,0.00,0,,,100,100,0,2,0,0,0,1,0,,,,,0.0,0.0,0.0,0.0,0.0,0.0,0
