latitude,longitude,altitude(m),ultrasonicHeight(m),speed(mps),distance(m),max_altitude(m),max_ascent(m),max_speed(mps),max_distance(m),time(millisecond),datetime(utc),datetime(local),satellites,pressure(Pa),temperature(F),voltage(v),home_latitude,home_longitude,velocityX(mps),velocityY(mps),velocityZ(mps),pitch(deg),roll(deg),yaw(deg),powerlevel,isflying,istakingphoto,remainPowerPercent,remainLifePercent,currentCurrent,currentElectricity,currentVoltage,batteryTemperature,dischargeCount,flightmode,isMotorsOn,isTakingVideo,Rc_elevator,Rc_aileron,Rc_throttle,Rc_rudder,Rc_gyro,timestamp,Battery_Cell1,Battery_Cell2,Battery_Cell3,Battery_Cell4,Battery_Cell5,Battery_Cell6,Dronetype,AppVersion,Planename,FlyControllerSerialNumber,RemoteSerialNumber,BatterySerialNumber,CENTER_BATTERY.productDate,CENTER_BATTERY.serialNo,CENTER_BATTERY.fullCapacity,CENTER_BATTERY.productDateRaw,pitchRaw,rollRaw,yawRaw,gimbalPitchRaw,gimbalRollRaw,gimbalYawRaw,flyState,altitudeRaw,speedRaw,distanceRaw,velocityXRaw,velocityYRaw,velocityZRaw,data_reuse,App_Tip,App_Warning,downlinkSignalQuality,uplinkSignalQuality,transmissionChannel,rcModeSwitch,rcHome,rcPause,rcTransform,rcJoystickMode,appMode,FlyControllerSerialNumber_legacy,RemoteSerialNumber_legacy,BatterySerialNumber_legacy,Battery2SerialNumber,frontAvoidDist,backAvoidDist,rightAvoidDist,leftAvoidDist,upAvoidDist,downAvoidDist,isBrakingToAvoid
34.182639,-118.129088,0.30,0.40,0.41,0.11,0.30,0.30,0.41,0.11,1,2022-06-05 22:58:58.163,2022-06-05 15:58:58.163,17,0,0,16.536,34.182639,-118.129088,0.10,0.00,-0.40,1.30,-1.30,-20.40,0,1,0,85,100,-6114,3065,16536,3131.50,4,TakeOff,1,0,0,0,0,0,0,1654469938163,4201,4188,4199,4199,0,0,27,Litchi_iOS_2.14.0,Brian-MAVIC 2,163DFCK001S13F,1DUCFB800104PR,0P2AG3L53400KG,,0,3645,0,-13.00,-13.00,-204.00,0.00,0.00,-399.00,11,3.00,4.12,1.14,1.00,0.00,-4.00,0,,,100,100,0,2,0,0,0,1,0,(null),(null),,,0.0,0.0,0.0,0.0,0.0,0.0,0
34.182640,-118.129088,0.40,0.40,0.41,0.12,0.40,0.40,0.41,0.12,94,2022-06-05 22:58:58.257,2022-06-05 15:58:58.257,17,0,0,16.536,34.182639,-118.129088,0.10,0.00,-0.40,1.50,-1.00,-20.40,0,1,0,85,100,-6114,3065,16536,3131.50,4,TakeOff,1,0,0,0,0,0,0,1654469938256,4201,4188,4199,4199,0,0,27,,,,,,,0,0,0,-15.00,-10.00,-204.00,0.00,0.00,-399.00,11,4.00,4.12,1.22,1.00,0.00,-4.00,0,,,100,100,0,2,0,0,0,1,0,,,,,0.0,0.0,0.0,0.0,0.0,0.0,0
34.182640,-118.129088,0.40,0.50,0.40,0.13,0.40,0.40,0.41,0.13,196,2022-06-05 22:58:58.359,2022-06-05 15:58:58.359,17,0,0,16.536,34.182639,-118.129088,0.00,0.00,-0.40,1.70,-0.40,-20.50,0,1,0,85,100,-6114,3065,16536,3131.50,4,TakeOff,1,0,0,0,0,0,0,1654469938358,4201,4188,4199,4199,0,0,27,,,,,,,0,0,0,-17.00,-4.00,-205.00,0.00,0.00,-400.00,11,4.00,4.00,1.28,0.00,0.00,-4.00,0,,,100,100,0,2,0,0,0,1,0,,,,,0.0,0.0,0.0,0.0,0.0,0.0,0
34.182640,-118.129088,0.50,0.50,0.50,0.13,0.50,0.50,0.50,0.13,296,2022-06-05 22:58:58.459,2022-06-05 15:58:58.459,17,0,0,16.536,34.182639,-118.129088,0.00,0.00,-0.50,1.60,-0.80,-20.50,0,1,0,85,100,-6114,3065,16536,3131.50,4,TakeOff,1,0,0,0,0,0,0,1654469938458,4201,4188,4199,4199,0,0,27,,,,,,,0,0,0,-16.00,-8.00,-205.00,0.00,0.00,-400.00,11,5.00,5.00,1.34,0.00,0.00,-5.00,0,,,100,100,0,2,0,0,0,1,0,,,,,0.0,0.0,0.0,0.0,0.0,0.0,0
34.182640,-118.129088,0.50,0.60,0.50,0.14,0.50,0.50,0.50,0.14,396,2022-06-05 22:58:58.559,2022-06-05 15:58:58.559,17,0,0,16.536,34.182639,-118.129088,0.00,0.00,-0.50,1.30,-1.70,-20.40,0,1,0,85,100,-6114,3065,16536,3131.50,4,TakeOff,1,0,0,0,0,0,0,1654469938558,4201,4188,4199,4199,0,0,27,,,,,,,0,0,0,-13.00,-17.00,-204.00,0.00,0.00,-400.00,11,5.00,5.00,1.40,0.00,0.00,-5.00,0,,,100,100,0,2,0,0,0,1,0,,,,,0.0,0.0,0.0,0.0,0.0,0.0,0
34.182640,-118.129088,0.60,0.60,0.50,0.15,0.60,0.60,0.50,0.15,447,2022-06-05 22:58:58.609,2022-06-05 15:58:58.609,17,0,0,16.536,34.182639,-118.129088,0.00,0.00,-0.50,1.50,-1.70,-20.50,0,1,0,85,100,-6114,3065,16536,3131.50,4,TakeOff,1,0,0,0,0,0,0,1654469938609,4201,4188,4199,4199,0,0,27,,,,,,,0,0,0,-15.00,-17.00,-205.00,0.00,0.00,-400.00,11,6.00,5.00,1.52,0.00,0.00,-5.00,0,,,100,100,0,2,0,0,0,1,0,,,,,0.0,0.0,0.0,0.0,0.0,0.0,0
34.182640,-118.129088,0.60,0.70,0.50,0.16,0.60,0.60,0.50,0.16,546,2022-06-05 22:58:58.709,2022-06-05 15:58:58.709,17,0,0,16.536,34.182639,-118.129088,0.00,0.00,-0.50,2.10,-1.10,-20.50,0,1,0,85,100,-6114,3065,16536,3131.50,4,TakeOff,1,0,0,0,0,0,0,1654469938708,4201,4188,4199,4199,0,0,27,,,,,,,0,0,0,-21.00,-11.00,-205.00,0.00,0.00,-400.00,11,6.00,5.00,1.58,0.00,0.00,-5.00,0,,,100,100,0,2,0,0,0,1,0,,,,,0.0,0.0,0.0,0.0,0.0,0.0,0
34.182640,-118.129088,0.70,0.70,0.50,0.19,0.70,0.70,0.50,0.19,646,2022-06-05 22:58:58.809,2022-06-05 15:58:58.809,17,0,0,16.536,34.182639,-118.129088,0.00,0.00,-0.50,2.40,-1.00,-20.30,0,1,0,85,100,-6114,3065,16536,3131.50,4,TakeOff,1,0,0,0,0,0,0,1654469938808,4201,4188,4199,4199,0,0,27,,,,,,,0,0,0,-24.00,-10.00,-203.00,0.00,0.00,-400.00,11,7.00,5.00,1.94,0.00,0.00,-5.00,0,,,100,100,0,2,0,0,0,1,0,,,,,0.0,0.0,0.0,0.0,0.0,0.0,0
34.182640,-118.129088,0.70,0.80,0.50,0.20,0.70,0.70,0.50,0.20,797,2022-06-05 22:58:58.959,2022-06-05 15:58:58.959,17,0,0,16.536,34.182639,-118.129088,0.00,0.00,-0.50,2.40,-0.70,-20.30,0,1,0,85,100,-6114,3065,16536,3131.50,4,TakeOff,1,0,0,0,0,0,0,1654469938959,4201,4188,4199,4199,0,0,27,,,,,,,0,0,0,-24.00,-7.00,-203.00,0.00,0.00,-400.00,11,7.00,5.00,2.01,0.00,0.00,-5.00,0,,,100,100,0,2,0,0,0,1,0,,,,,0.0,0.0,0.0,0.0,0.0,0.0,0
34.182640,-118.129088,0.80,0.80,0.50,0.18,0.80,0.80,0.50,0.20,896,2022-06-05 22:58:59.059,2022-06-05 15:58:59.059,17,0,0,16.536,34.182639,-118.129088,0.00,0.00,-0.50,2.00,-0.70,-20.20,0,1,0,85,100,-6114,3065,16536,3131.50,4,TakeOff,1,0,0,0,0,0,0,1654469939058,4201,4188,4199,4199,0,0,27,,,,,,,0,0,0,-20.00,-7.00,-202.00,0.00,0.00,-400.00,11,8.00,5.00,1.79,0.00,0.00,-5.00,0,,,100,100,0,2,0,0,0,1,0,,,,,0.0,0.0,0.0,0.0,0.0,0.0,0
34.182640,-118.129088,0.80,0.90,0.50,0.18,0.80,0.80,0.50,0.20,947,2022-06-05 22:58:59.109,2022-06-05 15:58:59.109,17,0,0,16.536,34.182639,-118.129088,0.00,0.00,-0.50,1.80,-0.80,-20.20,0,1,0,85,100,-6114,3065,16536,3131.50,4,TakeOff,1,0,0,0,0,0,0,1654469939109,4201,4188,4199,4199,0,0,27,,,,,,,0,0,0,-18.00,-8.00,-202.00,0.00,0.00,-400.00,11,8.00,5.00,1.81,0.00,0.00,-5.00,0,,,100,100,0,2,0,0,0,1,0,,,,,0.0,0.0,0.0,0.0,0.0,0.0,0
34.182640,-118.129088,0.90,0.90,0.50,0.19,0.90,0.90,0.50,0.20,1096,2022-06-05 22:58:59.259,2022-06-05 15:58:59.259,17,0,0,16.536,34.182639,-118.129088,0.00,0.00,-0.50,2.00,-0.80,-20.30,0,1,0,85,100,-6114,3065,16536,3131.50,4,TakeOff,1,0,0,0,0,0,0,1654469939258,4201,4188,4199,4199,0,0,27,,,,,,,0,0,0,-20.00,-8.00,-203.00,0.00,0.00,-400.00,11,9.00,5.00,1.87,0.00,0.00,-5.00,0,,,100,100,0,2,0,0,0,1,0,,,,,0.0,0.0,0.0,0.0,0.0,0.0,0
34.182640,-118.129088,0.90,1.00,0.50,0.19,0.90,0.90,0.50,0.20,1198,2022-06-05 22:58:59.360,2022-06-05 15:58:59.360,17,0,0,16.536,34.182639,-118.129088,0.00,0.00,-0.50,2.10,-0.90,-20.30,0,1,0,85,100,-6114,3065,16536,3131.50,4,TakeOff,1,0,0,0,0,0,0,1654469939360,4201,4188,4199,4199,0,0,27,,,,,,,0,0,0,-21.00,-9.00,-203.00,0.00,0.00,-400.00,11,9.00,5.00,1.90,0.00,0.00,-5.00,0,,,100,100,0,2,0,0,0,1,0,,,,,0.0,0.0,0.0,0.0,0.0,0.0,0
34.182640,-118.129088,1.00,1.00,0.50,0.23,1.00,1.00,0.50,0.23,1297,2022-06-05 22:58:59.459,2022-06-05 15:58:59.459,17,0,0,16.536,34.182639,-118.129088,0.00,0.00,-0.50,2.10,-0.90,-20.30,0,1,0,85,100,-6114,3065,16536,3131.50,4,TakeOff,1,0,0,0,0,0,0,1654469939459,4201,4188,4199,4199,0,0,27,,,,,,,0,0,0,-21.00,-9.00,-203.00,0.00,0.00,-401.00,11,10.00,5.00,2.27,0.00,0.00,-5.00,0,,,100,100,0,2,0,0,0,1,0,,,,,0.0,0.0,0.0,0.0,0.0,0.0,0
34.182640,-118.129088,1.00,1.10,0.40,0.23,1.00,1.00,0.50,0.23,1397,2022-06-05 22:58:59.559,2022-06-05 15:58:59.559,17,0,0,16.536,34.182639,-118.129088,0.00,0.00,-0.40,2.00,-0.90,-20.30,0,1,0,85,100,-6114,3065,16536,3131.50,4,WP,1,0,0,0,0,0,0,1654469939559,4201,4188,4199,4199,0,0,27,,,,,,,0,0,0,-20.00,-9.00,-203.00,0.00,0.00,-401.00,14,10.00,4.00,2.32,0.00,0.00,-4.00,0,,,100,100,0,2,0,0,0,1,0,,,,,0.0,0.0,0.0,0.0,0.0,0.0,0
34.182640,-118.129088,1.10,1.10,0.40,0.21,1.10,1.10,0.50,0.23,1499,2022-06-05 22:58:59.662,2022-06-05 15:58:59.662,17,0,0,16.536,34.182639,-118.129088,0.00,0.00,-0.40,1.00,-0.20,-20.50,0,1,0,85,100,-6114,3065,16536,3131.50,4,WP,1,0,0,0,0,0,0,1654469939661,4201,4188,4199,4199,0,0,27,,,,,,,0,0,0,-10.00,-2.00,-205.00,0.00,0.00,-401.00,14,11.00,4.00,2.09,0.00,0.00,-4.00,0,,,100,100,0,2,0,0,0,1,0,,,,,0.0,0.0,0.0,0.0,0.0,0.0,0
34.182640,-118.129089,1.10,1.20,0.40,0.21,1.10,1.10,0.50,0.23,1597,2022-06-05 22:58:59.759,2022-06-05 15:58:59.759,17,0,0,16.536,34.182639,-118.129088,0.00,0.00,-0.40,1.10,-0.30,-21.20,0,1,0,85,100,-6114,3065,16536,3131.50,4,WP,1,0,0,0,0,0,0,1654469939759,4201,4188,4199,4199,0,0,27,,,,,,,0,0,0,-11.00,-3.00,-212.00,0.00,0.00,-401.00,14,11.00,4.00,2.11,0.00,0.00,-4.00,0,,,100,100,0,2,0,0,0,1,0,,,,,0.0,0.0,0.0,0.0,0.0,0.0,0
34.182640,-118.129088,1.20,1.20,0.40,0.20,1.20,1.20,0.50,0.23,1697,2022-06-05 22:58:59.859,2022-06-05 15:58:59.859,17,0,0,16.536,34.182639,-118.129088,0.00,0.00,-0.40,1.40,-0.40,-22.50,0,1,0,85,100,-6114,3065,16536,3131.50,4,WP,1,0,0,0,0,0,0,1654469939859,4201,4188,4199,4199,0,0,27,,,,,,,0,0,0,-14.00,-4.00,-225.00,0.00,0.00,-402.00,14,12.00,4.00,2.02,0.00,0.00,-4.00,0,,,100,100,0,2,0,0,0,1,0,,,,,0.0,0.0,0.0,0.0,0.0,0.0,0
34.182640,-118.129088,1.20,1.30,0.40,0.20,1.20,1.20,0.50,0.23,1747,2022-06-05 22:58:59.909,2022-06-05 15:58:59.910,17,0,0,16.536,34.182639,-118.129088,0.00,0.00,-0.40,1.60,-0.50,-24.40,0,1,0,85,100,-6114,3065,16536,3131.50,4,WP,1,0,0,0,0,0,0,1654469939909,4201,4188,4199,4199,0,0,27,,,,,,,0,0,0,-16.00,-5.00,-244.00,0.00,0.00,-404.00,14,12.00,4.00,2.04,0.00,0.00,-4.00,0,,,100,100,0,2,0,0,0,1,0,,,,,0.0,0.0,0.0,0.0,0.0,0.0,0
34.182640,-118.129088,1.20,1.30,0.40,0.22,1.20,1.20,0.50,0.23,1897,2022-06-05 22:59:00.060,2022-06-05 15:59:00.060,17,0,0,16.438,34.182639,-118.129088,0.00,0.00,-0.40,1.80,-0.70,-27.00,0,1,0,84,100,-7573,3061,16438,3131.50,4,WP,1,0,0,0,0,0,0,1654469940059,4201,4188,4199,4199,0,0,27,,,,,,,0,0,0,-18.00,-7.00,-270.00,0.00,0.00,-412.00,14,12.00,4.00,2.20,0.00,0.00,-4.00,0,,,100,100,0,2,0,0,0,1,0,,,,,0.0,0.0,0.0,0.0,0.0,0.0,0
34.182640,-118.129088,1.30,1.40,0.40,0.22,1.30,1.30,0.50,0.23,2007,2022-06-05 22:59:00.169,2022-06-05 15:59:00.169,17,0,0,16.438,34.182639,-118.129088,0.00,0.00,-0.40,1.70,-0.90,-30.10,0,1,0,84,100,-7573,3061,16438,3131.50,4,WP,1,0,0,0,0,0,0,1654469940169,4201,4188,4199,4199,0,0,27,,,,,,,0,0,0,-17.00,-9.00,-301.00,0.00,0.00,-429.00,14,13.00,4.00,2.24,0.00,0.00,-4.00,0,,,100,100,0,2,0,0,0,1,0,,,,,0.0,0.0,0.0,0.0,0.0,0.0,0
34.182641,-118.129088,1.30,1.40,0.40,0.24,1.30,1.30,0.50,0.24,2047,2022-06-05 22:59:00.210,2022-06-05 15:59:00.210,17,0,0,16.438,34.182639,-118.129088,0.00,0.00,-0.40,1.60,-1.10,-33.90,0,1,0,84,100,-7573,3061,16438,3131.50,4,WP,1,0,0,0,0,0,0,1654469940209,4201,4188,4199,4199,0,0,27,,,,,,,0,0,0,-16.00,-11.00,-339.00,0.00,0.00,-460.00,14,13.00,4.00,2.35,0.00,0.00,-4.00,0,,,100,100,0,2,0,0,0,1,0,,,,,0.0,0.0,0.0,0.0,0.0,0.0,0
34.182641,-118.129088,1.40,1.50,0.40,0.24,1.40,1.40,0.50,0.24,2148,2022-06-05 22:59:00.310,2022-06-05 15:59:00.310,17,0,0,16.438,34.182639,-118.129088,0.00,0.00,-0.40,1.70,-1.30,-38.20,0,1,0,84,100,-7573,3061,16438,3131.50,4,WP,1,0,0,0,0,0,0,1654469940310,4201,4188,4199,4199,0,0,27,,,,,,,0,0,0,-17.00,-13.00,-382.00,0.00,0.00,-501.00,14,14.00,4.00,2.39,0.00,0.00,-4.00,0,,,100,100,0,2,0,0,0,1,0,,,,,0.0,0.0,0.0,0.0,0.0,0.0,0
34.182641,-118.129088,1.40,1.50,0.40,0.25,1.40,1.40,0.50,0.25,2247,2022-06-05 22:59:00.410,2022-06-05 15:59:00.410,17,0,0,16.438,34.182639,-118.129088,0.00,0.00,-0.40,1.60,-1.50,-43.00,0,1,0,84,100,-7573,3061,16438,3131.50,4,WP,1,0,0,0,0,0,0,1654469940409,4201,4188,4199,4199,0,0,27,,,,,,,0,0,0,-16.00,-15.00,-430.00,0.00,0.00,-548.00,14,14.00,4.00,2.46,0.00,0.00,-4.00,0,,,100,100,0,2,0,0,0,1,0,,,,,0.0,0.0,0.0,0.0,0.0,0.0,0
34.182641,-118.129088,1.50,1.50,0.40,0.25,1.50,1.50,0.50,0.25,2347,2022-06-05 22:59:00.510,2022-06-05 15:59:00.510,17,0,0,16.438,34.182639,-118.129088,0.00,0.00,-0.40,1.40,-1.50,-48.30,0,1,0,84,100,-7573,3061,16438,3131.50,4,WP,1,0,0,0,0,0,0,1654469940509,4201,4188,4199,4199,0,0,27,,,,,,,0,0,0,-14.00,-15.00,-483.00,0.00,0.00,-601.00,14,15.00,4.00,2.49,0.00,0.00,-4.00,0,,,100,100,0,2,0,0,0,1,0,,,,,0.0,0.0,0.0,0.0,0.0,0.0,0
34.182641,-118.129088,1.50,1.60,0.40,0.23,1.50,1.50,0.50,0.25,2448,2022-06-05 22:59:00.611,2022-06-05 15:59:00.611,17,0,0,16.438,34.182639,-118.129088,0.00,0.00,-0.40,1.30,-1.60,-54.20,0,1,0,84,100,-7573,3061,16438,3131.50,4,WP,1,0,0,0,0,0,0,1654469940610,4201,4188,4199,4199,0,0,27,,,,,,,0,0,0,-13.00,-16.00,-542.00,0.00,0.00,-659.00,14,15.00,4.00,2.33,0.00,0.00,-4.00,0,,,100,100,0,2,0,0,0,1,0,,,,,0.0,0.0,0.0,0.0,0.0,0.0,0
34.182641,-118.129088,1.60,1.60,0.40,0.23,1.60,1.60,0.50,0.25,2548,2022-06-05 22:59:00.710,2022-06-05 15:59:00.710,17,0,0,16.438,34.182639,-118.129088,0.00,0.00,-0.40,1.00,-1.90,-60.90,0,1,0,84,100,-7573,3061,16438,3131.50,4,WP,1,0,0,0,0,0,0,1654469940710,4201,4188,4199,4199,0,0,27,,,,,,,0,0,0,-10.00,-19.00,-609.00,0.00,0.00,-723.00,14,16.00,4.00,2.33,0.00,0.00,-4.00,0,,,100,100,0,2,0,0,0,1,0,,,,,0.0,0.0,0.0,0.0,0.0,0.0,0
34.182641,-118.129088,1.60,1.70,0.30,0.25,1.60,1.60,0.50,0.25,2648,2022-06-05 22:59:00.811,2022-06-05 15:59:00.811,17,0,0,16.438,34.182639,-118.129088,0.00,0.00,-0.30,0.60,-2.00,-68.00,0,1,0,84,100,-7573,3061,16438,3131.50,4,WP,1,0,0,0,0,0,0,1654469940810,4201,4188,4199,4199,0,0,27,,,,,,,0,0,0,-6.00,-20.00,-680.00,0.00,0.00,-792.00,14,16.00,3.00,2.53,0.00,0.00,-3.00,0,,,100,100,0,2,0,0,0,1,0,,,,,0.0,0.0,0.0,0.0,0.0,0.0,0
34.182641,-118.129088,1.70,1.70,0.30,0.25,1.70,1.70,0.50,0.25,2749,2022-06-05 22:59:00.911,2022-06-05 15:59:00.911,17,0,0,16.438,34.182639,-118.129088,0.00,0.00,-0.30,0.30,-2.10,-75.60,0,1,0,84,100,-7573,3061,16438,3131.50,4,WP,1,0,0,0,0,0,0,1654469940911,4201,4188,4199,4199,0,0,27,,,,,,,0,0,0,-3.00,-21.00,-756.00,0.00,0.00,-867.00,14,17.00,3.00,2.54,0.00,0.00,-3.00,0,,,100,100,0,2,0,0,0,1,0,,,,,0.0,0.0,0.0,0.0,0.0,0.0,0
34.182641,-118.129088,1.70,1.80,0.30,0.26,1.70,1.70,0.50,0.26,2848,2022-06-05 22:59:01.011,2022-06-05 15:59:01.011,17,0,0,16.438,34.182639,-118.129088,0.00,0.00,-0.30,0.10,-2.00,-83.30,0,1,0,84,100,-7573,3061,16438,3131.50,4,WP,1,0,0,0,0,0,0,1654469941010,4201,4188,4199,4199,0,0,27,,,,,,,0,0,0,-1.00,-20.00,-833.00,0.00,0.00,-946.00,14,17.00,3.00,2.57,0.00,0.00,-3.00,0,,,100,100,0,2,0,0,0,1,0,,,,,0.0,0.0,0.0,0.0,0.0,0.0,0
34.182641,-118.129088,1.70,1.80,0.20,0.26,1.70,1.70,0.50,0.26,3011,2022-06-05 22:59:01.174,2022-06-05 15:59:01.174,17,0,0,16.438,34.182639,-118.129088,0.00,0.00,-0.20,-0.10,-1.70,-90.80,0,1,0,84,100,-7573,3061,16438,3131.50,4,WP,1,0,0,0,0,0,0,1654469941173,4201,4188,4199,4199,0,0,27,,,,,,,0,0,0,1.00,-17.00,-908.00,0.00,0.00,-1024.00,14,17.00,2.00,2.56,0.00,0.00,-2.00,0,,,100,100,0,2,0,0,0,1,0,,,,,0.0,0.0,0.0,0.0,0.0,0.0,0
34.182641,-118.129088,1.70,1.80,0.20,0.26,1.70,1.70,0.50,0.26,3050,2022-06-05 22:59:01.212,2022-06-05 15:59:01.212,17,0,0,16.438,34.182639,-118.129088,0.00,0.00,-0.20,-0.60,-1.50,-98.30,0,1,0,84,100,-7573,3061,16438,3131.50,4,WP,1,0,0,0,0,0,0,1654469941212,4201,4188,4199,4199,0,0,27,,,,,,,0,0,0,6.00,-15.00,-983.00,0.00,0.00,-1100.00,14,17.00,2.00,2.64,0.00,0.00,-2.00,0,,,100,100,0,2,0,0,0,1,0,,,,,0.0,0.0,0.0,0.0,0.0,0.0,0
34.182641,-118.129088,1.80,1.80,0.10,0.26,1.80,1.80,0.50,0.26,3151,2022-06-05 22:59:01.314,2022-06-05 15:59:01.314,17,0,0,16.438,34.182639,-118.129088,0.00,0.00,-0.10,-1.10,-1.00,-105.80,0,1,0,84,100,-7573,3061,16438,3131.50,4,WP,1,0,0,0,0,0,0,1654469941313,4201,4188,4199,4199,0,0,27,,,,,,,0,0,0,11.00,-10.00,-1058.00,0.00,0.00,-1177.00,14,18.00,1.00,2.63,0.00,0.00,-1.00,0,,,100,100,0,2,0,0,0,1,0,,,,,0.0,0.0,0.0,0.0,0.0,0.0,0
34.182640,-118.129088,1.80,1.80,0.10,0.23,1.80,1.80,0.50,0.26,3252,2022-06-05 22:59:01.414,2022-06-05 15:59:01.414,17,0,0,16.438,34.182639,-118.129088,0.00,0.00,-0.10,-1.30,-0.80,-113.20,0,1,0,84,100,-7573,3061,16438,3131.50,4,WP,1,0,0,0,0,0,0,1654469941414,4201,4188,4199,4199,0,0,27,,,,,,,0,0,0,13.00,-8.00,-1132.00,0.00,0.00,-1252.00,14,18.00,1.00,2.27,0.00,0.00,-1.00,0,,,100,100,0,2,0,0,0,1,0,,,,,0.0,0.0,0.0,0.0,0.0,0.0,0
34.182640,-118.129088,1.80,1.90,0.10,0.22,1.80,1.80,0.50,0.26,3353,2022-06-05 22:59:01.516,2022-06-05 15:59:01.516,17,0,0,16.438,34.182639,-118.129088,0.00,0.00,-0.10,-1.40,-0.60,-120.80,0,1,0,84,100,-7573,3061,16438,3131.50,4,WP,1,0,0,0,0,0,0,1654469941515,4201,4188,4199,4199,0,0,27,,,,,,,0,0,0,14.00,-6.00,-1208.00,0.00,0.00,-1329.00,14,18.00,1.00,2.22,0.00,0.00,-1.00,0,,,100,100,0,2,0,0,0,1,0,,,,,0.0,0.0,0.0,0.0,0.0,0.0,0
34.182640,-118.129088,1.80,1.90,0.10,0.22,1.80,1.80,0.50,0.26,3454,2022-06-05 22:59:01.617,2022-06-05 15:59:01.617,17,0,0,16.438,34.182639,-118.129088,0.00,0.00,-0.10,-1.50,-0.50,-128.20,0,1,0,84,100,-7573,3061,16438,3131.50,4,WP,1,0,0,0,0,0,0,1654469941616,4201,4188,4199,4199,0,0,27,,,,,,,0,0,0,15.00,-5.00,-1282.00,0.00,0.00,-1404.00,14,18.00,1.00,2.22,0.00,0.00,-1.00,0,,,100,100,0,2,0,0,0,1,0,,,,,0.0,0.0,0.0,0.0,0.0,0.0,0
34.182640,-118.129088,1.80,1.90,0.10,0.22,1.80,1.80,0.50,0.26,3553,2022-06-05 22:59:01.716,2022-06-05 15:59:01.716,17,0,0,16.438,34.182639,-118.129088,0.00,0.00,-0.10,-1.60,-0.30,-135.80,0,1,0,84,100,-7573,3061,16438,3131.50,4,WP,1,0,0,0,0,0,0,1654469941715,4201,4188,4199,4199,0,0,27,,,,,,,0,0,0,16.00,-3.00,-1358.00,0.00,0.00,-1480.00,14,18.00,1.00,2.18,0.00,0.00,-1.00,0,,,100,100,0,2,0,0,0,1,0,,,,,0.0,0.0,0.0,0.0,0.0,0.0,0
34.182640,-118.129088,1.80,1.90,0.10,0.20,1.80,1.80,0.50,0.26,3652,2022-06-05 22:59:01.814,2022-06-05 15:59:01.814,17,0,0,16.438,34.182639,-118.129088,0.00,0.00,-0.10,-1.60,0.20,-143.20,0,1,0,84,100,-7573,3061,16438,3131.50,4,WP,1,0,0,0,0,0,0,1654469941814,4201,4188,4199,4199,0,0,27,,,,,,,0,0,0,16.00,2.00,-1432.00,0.00,0.00,-1554.00,14,18.00,1.00,2.04,0.00,0.00,-1.00,0,,,100,100,0,2,0,0,0,1,0,,,,,0.0,0.0,0.0,0.0,0.0,0.0,0
34.182640,-118.129088,1.80,1.90,0.10,0.20,1.80,1.80,0.50,0.26,3748,2022-06-05 22:59:01.910,2022-06-05 15:59:01.910,17,0,0,16.438,34.182639,-118.129088,0.00,0.00,-0.10,-1.30,0.30,-150.60,0,1,0,84,100,-7573,3061,16438,3131.50,4,WP,1,0,0,0,0,0,0,1654469941910,4201,4188,4199,4199,0,0,27,,,,,,,0,0,0,13.00,3.00,-1506.00,0.00,0.00,-1629.00,14,18.00,1.00,1.99,0.00,0.00,-1.00,0,,,100,100,0,2,0,0,0,1,0,,,,,0.0,0.0,0.0,0.0,0.0,0.0,0
34.182640,-118.129088,1.80,1.90,0.00,0.19,1.80,1.80,0.50,0.26,3849,2022-06-05 22:59:02.011,2022-06-05 15:59:02.011,17,0,0,16.438,34.182639,-118.129088,0.00,0.00,0.00,-1.00,0.00,-158.10,0,1,0,84,100,-7573,3061,16438,3131.50,4,WP,1,0,0,0,0,0,0,1654469942011,4201,4188,4199,4199,0,0,27,,,,,,,0,0,0,10.00,0.00,-1581.00,0.00,0.00,-1703.00,14,18.00,0.00,1.86,0.00,0.00,0.00,0,,,100,100,0,2,0,0,0,1,0,,,,,0.0,0.0,0.0,0.0,0.0,0.0,0
34.182640,-118.129088,1.90,1.90,0.00,0.18,1.90,1.90,0.50,0.26,3950,2022-06-05 22:59:02.112,2022-06-05 15:59:02.112,17,0,0,16.414,34.182639,-118.129088,0.00,0.00,0.00,-1.00,-0.40,-165.20,0,1,0,84,100,-7334,3057,16414,3131.50,4,WP,1,0,0,0,0,0,0,1654469942112,4201,4188,4199,4199,0,0,27,,,,,,,0,0,0,10.00,-4.00,-1652.00,0.00,0.00,-1779.00,14,19.00,0.00,1.81,0.00,0.00,0.00,0,,,100,100,0,2,0,0,0,1,0,,,,,0.0,0.0,0.0,0.0,0.0,0.0,0
34.182640,-118.129088,1.90,1.90,0.00,0.17,1.90,1.90,0.50,0.26,4049,2022-06-05 22:59:02.212,2022-06-05 15:59:02.212,17,0,0,16.414,34.182639,-118.129088,0.00,0.00,0.00,-0.90,-0.30,-170.10,0,1,0,84,100,-7334,3057,16414,3131.50,4,WP,1,0,0,0,0,0,0,1654469942211,4201,4188,4199,4199,0,0,27,,,,,,,0,0,0,9.00,-3.00,-1701.00,0.00,0.00,1752.00,14,19.00,0.00,1.72,0.00,0.00,0.00,0,,,100,100,0,2,0,0,0,1,0,,,,,0.0,0.0,0.0,0.0,0.0,0.0,0
34.182640,-118.129088,1.90,1.90,0.00,0.17,1.90,1.90,0.50,0.26,4150,2022-06-05 22:59:02.313,2022-06-05 15:59:02.313,17,0,0,16.414,34.182639,-118.129088,0.00,0.00,0.00,-0.60,0.20,-173.50,0,1,0,84,100,-7334,3057,16414,3131.50,4,WP,1,0,0,0,0,0,0,1654469942312,4201,4188,4199,4199,0,0,27,,,,,,,0,0,0,6.00,2.00,-1735.00,0.00,0.00,1703.00,14,19.00,0.00,1.65,0.00,0.00,0.00,0,,,100,100,0,2,0,0,0,1,0,,,,,0.0,0.0,0.0,0.0,0.0,0.0,0
34.182640,-118.129088,1.90,1.90,0.00,0.15,1.90,1.90,0.50,0.26,4250,2022-06-05 22:59:02.412,2022-06-05 15:59:02.412,17,0,0,16.414,34.182639,-118.129088,0.00,0.00,0.00,-0.50,0.60,-175.60,0,1,0,84,100,-7334,3057,16414,3131.50,4,WP,1,0,0,0,0,0,0,1654469942412,4201,4188,4199,4199,0,0,27,,,,,,,0,0,0,5.00,6.00,-1756.00,0.00,0.00,1669.00,14,19.00,0.00,1.52,0.00,0.00,0.00,0,,,100,100,0,2,0,0,0,1,0,,,,,0.0,0.0,0.0,0.0,0.0,0.0,0
34.182640,-118.129088,1.90,2.00,0.00,0.15,1.90,1.90,0.50,0.26,4350,2022-06-05 22:59:02.512,2022-06-05 15:59:02.512,17,0,0,16.414,34.182639,-118.129088,0.00,0.00,0.00,-0.30,0.60,-176.80,0,1,0,84,100,-7334,3057,16414,3131.50,4,WP,1,0,0,0,0,0,0,1654469942512,4201,4188,4199,4199,0,0,27,,,,,,,0,0,0,3.00,6.00,-1768.00,0.00,0.00,1648.00,14,19.00,0.00,1.46,0.00,0.00,0.00,0,,,100,100,0,2,0,0,0,1,0,,,,,0.0,0.0,0.0,0.0,0.0,0.0,0
34.182639,-118.129088,1.90,2.00,0.00,0.12,1.90,1.90,0.50,0.26,4450,2022-06-05 22:59:02.612,2022-06-05 15:59:02.612,17,0,0,16.414,34.182639,-118.129088,0.00,0.00,0.00,-0.30,0.60,-177.40,0,1,0,84,100,-7334,3057,16414,3131.50,4,WP,1,0,0,0,0,0,0,1654469942612,4201,4188,4199,4199,0,0,27,,,,,,,0,0,0,3.00,6.00,-1774.00,0.00,0.00,1634.00,14,19.00,0.00,1.21,0.00,0.00,0.00,0,,,100,100,0,2,0,0,0,1,0,,,,,0.0,0.0,0.0,0.0,0.0,0.0,0
34.182639,-118.129088,1.90,2.00,0.00,0.11,1.90,1.90,0.50,0.26,4551,2022-06-05 22:59:02.714,2022-06-05 15:59:02.714,17,0,0,16.414,34.182639,-118.129088,0.00,0.00,0.00,-0.70,0.60,-177.50,0,1,0,84,100,-7334,3057,16414,3131.50,4,WP,1,0,0,0,0,0,0,1654469942713,4201,4188,4199,4199,0,0,27,,,,,,,0,0,0,7.00,6.00,-1775.00,0.00,0.00,1626.00,14,19.00,0.00,1.14,0.00,0.00,0.00,0,,,100,100,0,2,0,0,0,1,0,,,,,0.0,0.0,0.0,0.0,0.0,0.0,0
34.182639,-118.129088,1.90,2.00,0.00,0.10,1.90,1.90,0.50,0.26,4648,2022-06-05 22:59:02.811,2022-06-05 15:59:02.811,17,0,0,16.414,34.182639,-118.129088,0.00,0.00,0.00,-5.90,0.50,-177.50,0,1,0,84,100,-7334,3057,16414,3131.50,4,WP,1,0,0,0,0,0,0,1654469942810,4201,4188,4199,4199,0,0,27,,,,,,,0,0,0,59.00,5.00,-1775.00,0.00,0.00,1623.00,14,19.00,0.00,0.97,0.00,0.00,0.00,0,,,100,100,0,2,0,0,0,1,0,,,,,0.0,0.0,0.0,0.0,0.0,0.0,0
34.182639,-118.129088,1.90,2.00,0.10,0.09,1.90,1.90,0.50,0.26,4749,2022-06-05 22:59:02.911,2022-06-05 15:59:02.911,17,0,0,16.414,34.182639,-118.129088,-0.10,0.00,0.00,-11.00,0.50,-177.50,0,1,0,84,100,-7334,3057,16414,3131.50,4,WP,1,0,0,0,0,0,0,1654469942911,4201,4188,4199,4199,0,0,27,,,,,,,0,0,0,110.00,5.00,-1775.00,0.00,0.00,1621.00,14,19.00,1.00,0.86,-1.00,0.00,0.00,0,,,100,100,0,2,0,0,0,1,0,,,,,0.0,0.0,0.0,0.0,0.0,0.0,0
34.182638,-118.129088,1.90,2.00,0.30,0.08,1.90,1.90,0.50,0.26,4849,2022-06-05 22:59:03.012,2022-06-05 15:59:03.012,17,0,0,16.414,34.182639,-118.129088,-0.30,0.00,0.00,-14.70,0.50,-177.60,0,1,0,84,100,-7334,3057,16414,3131.50,4,WP,1,0,0,0,0,0,0,1654469943011,4201,4188,4199,4199,0,0,27,,,,,,,0,0,0,147.00,5.00,-1776.00,0.00,0.00,1621.00,14,19.00,3.00,0.77,-3.00,0.00,0.00,0,,,100,100,0,2,0,0,0,1,0,,,,,0.0,0.0,0.0,0.0,0.0,0.0,0
34.182638,-118.129088,1.90,2.00,0.60,0.10,1.90,1.90,0.60,0.26,4949,2022-06-05 22:59:03.112,2022-06-05 15:59:03.112,17,0,0,16.414,34.182639,-118.129088,-0.60,0.00,0.00,-17.30,0.60,-177.70,0,1,0,84,100,-7334,3057,16414,3131.50,4,WP,1,0,0,0,0,0,0,1654469943111,4201,4188,4199,4199,0,0,27,,,,,,,0,0,0,173.00,6.00,-1777.00,0.00,0.00,1620.00,14,19.00,6.00,0.96,-6.00,0.00,0.00,0,,,100,100,0,2,0,0,0,1,0,,,,,0.0,0.0,0.0,0.0,0.0,0.0,0
34.182637,-118.129088,1.90,2.00,0.80,0.17,1.90,1.90,0.80,0.26,5049,2022-06-05 22:59:03.211,2022-06-05 15:59:03.211,17,0,0,16.414,34.182639,-118.129088,-0.80,0.00,0.00,-19.00,0.60,-177.60,0,1,0,84,100,-7334,3057,16414,3131.50,4,WP,1,0,0,0,0,0,0,1654469943211,4201,4188,4199,4199,0,0,27,,,,,,,0,0,0,190.00,6.00,-1776.00,0.00,0.00,1620.00,14,19.00,8.00,1.73,-8.00,0.00,0.00,0,,,100,100,0,2,0,0,0,1,0,,,,,0.0,0.0,0.0,0.0,0.0,0.0,0
34.182636,-118.129088,1.90,2.00,1.20,0.28,1.90,1.90,1.20,0.28,5150,2022-06-05 22:59:03.313,2022-06-05 15:59:03.313,17,0,0,16.414,34.182639,-118.129088,-1.20,0.00,0.00,-20.30,0.90,-177.70,0,1,0,84,100,-7334,3057,16414,3131.50,4,WP,1,0,0,0,0,0,0,1654469943312,4201,4188,4199,4199,0,0,27,,,,,,,0,0,0,203.00,9.00,-1777.00,0.00,0.00,1620.00,14,19.00,12.00,2.77,-12.00,0.00,0.00,0,,,100,100,0,2,0,0,0,1,0,,,,,0.0,0.0,0.0,0.0,0.0,0.0,0
34.182635,-118.129088,1.90,1.90,1.50,0.42,1.90,1.90,1.50,0.42,5249,2022-06-05 22:59:03.411,2022-06-05 15:59:03.411,17,0,0,16.414,34.182639,-118.129088,-1.50,0.00,0.00,-20.90,1.40,-177.80,0,1,0,84,100,-7334,3057,16414,3131.50,4,WP,1,0,0,0,0,0,0,1654469943411,4201,4188,4199,4199,0,0,27,,,,,,,0,0,0,209.00,14.00,-1778.00,0.00,0.00,1620.00,14,19.00,15.00,4.20,-15.00,0.00,0.00,0,,,100,100,0,2,0,0,0,1,0,,,,,0.0,0.0,0.0,0.0,0.0,0.0,0
34.182633,-118.129088,1.90,2.00,1.80,0.60,1.90,1.90,1.80,0.60,5349,2022-06-05 22:59:03.512,2022-06-05 15:59:03.512,17,0,0,16.414,34.182639,-118.129088,-1.80,0.00,0.00,-21.20,1.70,-178.30,0,1,0,84,100,-7334,3057,16414,3131.50,4,WP,1,0,0,0,0,0,0,1654469943511,4201,4188,4199,4199,0,0,27,,,,,,,0,0,0,212.00,17.00,-1783.00,0.00,0.00,1620.00,14,19.00,18.00,5.96,-18.00,0.00,0.00,0,,,100,100,0,2,0,0,0,1,0,,,,,0.0,0.0,0.0,0.0,0.0,0.0,0
34.182631,-118.129088,1.90,2.00,2.20,0.80,1.90,1.90,2.20,0.80,5502,2022-06-05 22:59:03.664,2022-06-05 15:59:03.665,17,0,0,16.414,34.182639,-118.129088,-2.20,0.00,0.00,-21.90,1.60,-178.20,0,1,0,84,100,-7334,3057,16414,3131.50,4,WP,1,0,0,0,0,0,0,1654469943664,4112,4092,4100,4104,0,0,27,,,,,,,0,0,0,219.00,16.00,-1782.00,0.00,0.00,1620.00,14,19.00,22.00,7.99,-22.00,0.00,0.00,0,,,100,100,0,2,0,0,0,1,0,,,,,0.0,0.0,0.0,0.0,0.0,0.0,0
34.182629,-118.129088,1.90,2.00,2.50,1.04,1.90,1.90,2.50,1.04,5550,2022-06-05 22:59:03.713,2022-06-05 15:59:03.713,17,0,0,16.414,34.182639,-118.129088,-2.50,0.00,0.00,-22.80,1.90,-178.40,0,1,0,84,100,-7334,3057,16414,3131.50,4,WP,1,0,0,0,0,0,0,1654469943712,4112,4092,4100,4104,0,0,27,,,,,,,0,0,0,228.00,19.00,-1784.00,0.00,0.00,1620.00,14,19.00,25.00,10.42,-25.00,0.00,0.00,0,,,100,100,0,2,0,0,0,1,0,,,,,0.0,0.0,0.0,0.0,0.0,0.0,0
34.182627,-118.129087,1.90,2.00,2.80,1.31,1.90,1.90,2.80,1.31,5650,2022-06-05 22:59:03.812,2022-06-05 15:59:03.812,17,0,0,16.414,34.182639,-118.129088,-2.80,0.00,0.00,-23.40,2.30,-178.30,0,1,0,84,100,-7334,3057,16414,3131.50,4,WP,1,0,0,0,0,0,0,1654469943812,4112,4092,4100,4104,0,0,27,,,,,,,0,0,0,234.00,23.00,-1783.00,0.00,0.00,1621.00,14,19.00,28.00,13.10,-28.00,0.00,0.00,0,,,100,100,0,2,0,0,0,1,0,,,,,0.0,0.0,0.0,0.0,0.0,0.0,0
34.182624,-118.129087,1.90,2.00,3.20,1.62,1.90,1.90,3.20,1.62,5748,2022-06-05 22:59:03.910,2022-06-05 15:59:03.911,17,0,0,16.414,34.182639,-118.129088,-3.20,0.00,0.00,-23.80,2.50,-179.00,0,1,0,84,100,-7334,3057,16414,3131.50,4,WP,1,0,0,0,0,0,0,1654469943910,4112,4092,4100,4104,0,0,27,,,,,,,0,0,0,238.00,25.00,-1790.00,0.00,0.00,1622.00,14,19.00,32.00,16.20,-32.00,0.00,0.00,0,,,100,100,0,2,0,0,0,1,0,,,,,0.0,0.0,0.0,0.0,0.0,0.0,0
34.182621,-118.129086,1.90,2.00,3.60,1.98,1.90,1.90,3.60,1.98,5850,2022-06-05 22:59:04.013,2022-06-05 15:59:04.013,17,0,0,16.414,34.182639,-118.129088,-3.60,0.00,0.00,-23.30,2.90,-178.70,0,1,0,84,100,-7334,3057,16414,3131.50,4,WP,1,0,0,0,0,0,0,1654469944012,4112,4092,4100,4104,0,0,27,,,,,,,0,0,0,233.00,29.00,-1787.00,0.00,0.00,1625.00,14,19.00,36.00,19.77,-36.00,0.00,0.00,0,,,100,100,0,2,0,0,0,1,0,,,,,0.0,0.0,0.0,0.0,0.0,0.0,0
34.182617,-118.129086,1.90,2.00,3.90,2.36,1.90,1.90,3.90,2.36,5950,2022-06-05 22:59:04.113,2022-06-05 15:59:04.113,17,0,0,16.362,34.182639,-118.129088,-3.90,0.00,0.00,-18.70,3.20,-178.70,0,1,0,84,100,-8036,3053,16362,3131.50,4,WP,1,0,0,0,0,0,0,1654469944112,4112,4092,4100,4104,0,0,27,,,,,,,0,0,0,187.00,32.00,-1787.00,0.00,0.00,1628.00,14,19.00,39.00,23.56,-39.00,0.00,0.00,0,,,100,100,0,2,0,0,0,1,0,,,,,0.0,0.0,0.0,0.0,0.0,0.0,0
34.182614,-118.129085,1.90,2.00,4.10,2.75,1.90,1.90,4.10,2.75,6099,2022-06-05 22:59:04.262,2022-06-05 15:59:04.262,17,0,0,16.362,34.182639,-118.129088,-4.10,0.00,0.00,-14.10,3.60,-178.40,0,1,0,84,100,-8036,3053,16362,3131.50,4,WP,1,0,0,0,0,0,0,1654469944261,4112,4092,4100,4104,0,0,27,,,,,,,0,0,0,141.00,36.00,-1784.00,0.00,0.00,1631.00,14,19.00,41.00,27.50,-41.00,0.00,0.00,0,,,100,100,0,2,0,0,0,1,0,,,,,0.0,0.0,0.0,0.0,0.0,0.0,0
34.182610,-118.129085,1.90,2.00,4.20,3.17,1.90,1.90,4.20,3.17,6148,2022-06-05 22:59:04.311,2022-06-05 15:59:04.311,17,0,0,16.362,34.182639,-118.129088,-4.20,0.00,0.00,-9.90,4.40,-178.40,0,1,0,84,100,-8036,3053,16362,3131.50,4,WP,1,0,0,0,0,0,0,1654469944310,4112,4092,4100,4104,0,0,27,,,,,,,0,0,0,99.00,44.00,-1784.00,0.00,0.00,1635.00,14,19.00,42.00,31.70,-42.00,0.00,0.00,0,,,100,100,0,2,0,0,0,1,0,,,,,0.0,0.0,0.0,0.0,0.0,0.0,0
34.182606,-118.129084,1.90,2.10,4.30,3.60,1.90,1.90,4.30,3.60,6302,2022-06-05 22:59:04.464,2022-06-05 15:59:04.464,17,0,0,16.362,34.182639,-118.129088,-4.30,-0.10,0.00,-2.80,5.00,-177.90,0,1,0,84,100,-8036,3053,16362,3131.50,4,WP,1,0,0,0,0,0,0,1654469944464,4112,4092,4100,4104,0,0,27,,,,,,,0,0,0,28.00,50.00,-1779.00,0.00,0.00,1638.00,14,19.00,43.01,36.03,-43.00,-1.00,0.00,0,,,100,100,0,2,0,0,0,1,0,,,,,0.0,0.0,0.0,0.0,0.0,0.0,0
34.182602,-118.129084,1.90,2.00,4.20,4.03,1.90,1.90,4.30,4.03,6349,2022-06-05 22:59:04.511,2022-06-05 15:59:04.511,17,0,0,16.362,34.182639,-118.129088,-4.20,-0.10,0.00,3.60,5.70,-177.50,0,1,0,84,100,-8036,3053,16362,3131.50,4,WP,1,0,0,0,0,0,0,1654469944511,4112,4092,4100,4104,0,0,27,,,,,,,0,0,0,-36.00,57.00,-1775.00,0.00,0.00,1641.00,14,19.00,42.01,40.28,-42.00,-1.00,0.00,0,,,100,100,0,2,0,0,0,1,0,,,,,0.0,0.0,0.0,0.0,0.0,0.0,0
34.182598,-118.129084,1.90,2.00,4.10,4.48,1.90,1.90,4.30,4.48,6450,2022-06-05 22:59:04.612,2022-06-05 15:59:04.612,17,0,0,16.362,34.182639,-118.129088,-4.10,-0.20,0.00,9.00,6.00,-177.00,0,1,0,84,100,-8036,3053,16362,3131.50,4,WP,1,0,0,0,0,0,0,1654469944612,4112,4092,4100,4104,0,0,27,,,,,,,0,0,0,-90.00,60.00,-1770.00,0.00,0.00,1644.00,14,19.00,41.05,44.76,-41.00,-2.00,0.00,0,,,100,100,0,2,0,0,0,1,0,,,,,0.0,0.0,0.0,0.0,0.0,0.0,0
34.182595,-118.129084,1.90,2.00,3.91,4.87,1.90,1.90,4.30,4.87,6550,2022-06-05 22:59:04.713,2022-06-05 15:59:04.713,17,0,0,16.362,34.182639,-118.129088,-3.90,-0.30,0.00,12.00,6.20,-176.60,0,1,0,84,100,-8036,3053,16362,3131.50,4,WP,1,0,0,0,0,0,0,1654469944712,4112,4092,4100,4104,0,0,27,,,,,,,0,0,0,-120.00,62.00,-1766.00,0.00,0.00,1647.00,14,19.00,39.12,48.72,-39.00,-3.00,0.00,0,,,100,100,0,2,0,0,0,1,0,,,,,0.0,0.0,0.0,0.0,0.0,0.0,0
34.182591,-118.129083,1.90,2.00,3.61,5.27,1.90,1.90,4.30,5.27,6650,2022-06-05 22:59:04.813,2022-06-05 15:59:04.813,17,0,0,16.362,34.182639,-118.129088,-3.60,-0.30,0.00,12.70,5.90,-176.50,0,1,0,84,100,-8036,3053,16362,3131.50,4,WP,1,0,0,0,0,0,0,1654469944812,4112,4092,4100,4104,0,0,27,,,,,,,0,0,0,-127.00,59.00,-1765.00,0.00,0.00,1649.00,14,19.00,36.12,52.72,-36.00,-3.00,0.00,0,,,100,100,0,2,0,0,0,1,0,,,,,0.0,0.0,0.0,0.0,0.0,0.0,0
34.182588,-118.129083,1.90,2.00,3.32,5.61,1.90,1.90,4.30,5.61,6751,2022-06-05 22:59:04.913,2022-06-05 15:59:04.913,17,0,0,16.362,34.182639,-118.129088,-3.30,-0.40,0.00,12.70,5.50,-176.50,0,1,0,84,100,-8036,3053,16362,3131.50,4,WP,1,0,0,0,0,0,0,1654469944913,4112,4092,4100,4104,0,0,27,,,,,,,0,0,0,-127.00,55.00,-1765.00,0.00,0.00,1651.00,14,19.00,33.24,56.15,-33.00,-4.00,0.00,0,,,100,100,0,2,0,0,0,1,0,,,,,0.0,0.0,0.0,0.0,0.0,0.0,0
34.182585,-118.129083,1.90,2.00,3.03,5.98,1.90,1.90,4.30,5.98,6851,2022-06-05 22:59:05.014,2022-06-05 15:59:05.014,17,0,0,16.362,34.182639,-118.129088,-3.00,-0.40,0.00,14.10,5.10,-176.90,0,1,0,84,100,-8036,3053,16362,3131.50,4,WP,1,0,0,0,0,0,0,1654469945013,4112,4092,4100,4104,0,0,27,,,,,,,0,0,0,-141.00,51.00,-1769.00,0.00,0.00,1653.00,14,19.00,30.27,59.83,-30.00,-4.00,0.00,0,,,100,100,0,2,0,0,0,1,0,,,,,0.0,0.0,0.0,0.0,0.0,0.0,0
34.182582,-118.129083,1.80,2.00,2.73,6.27,1.90,1.90,4.30,6.27,6950,2022-06-05 22:59:05.112,2022-06-05 15:59:05.112,17,0,0,16.362,34.182639,-118.129088,-2.70,-0.40,0.00,15.90,5.00,-176.50,0,1,0,84,100,-8036,3053,16362,3131.50,4,WP,1,0,0,0,0,0,0,1654469945112,4112,4092,4100,4104,0,0,27,,,,,,,0,0,0,-159.00,50.00,-1765.00,0.00,0.00,1654.00,14,18.00,27.29,62.71,-27.00,-4.00,0.00,0,,,100,100,0,2,0,0,0,1,0,,,,,0.0,0.0,0.0,0.0,0.0,0.0,0
34.182580,-118.129084,1.80,2.00,2.35,6.54,1.90,1.90,4.30,6.54,7050,2022-06-05 22:59:05.213,2022-06-05 15:59:05.213,17,0,0,16.362,34.182639,-118.129088,-2.30,-0.50,0.00,14.80,4.40,-176.90,0,1,0,84,100,-8036,3053,16362,3131.50,4,WP,1,0,0,0,0,0,0,1654469945212,4112,4092,4100,4104,0,0,27,,,,,,,0,0,0,-148.00,44.00,-1769.00,0.00,0.00,1655.00,14,18.00,23.54,65.37,-23.00,-5.00,0.00,0,,,100,100,0,2,0,0,0,1,0,,,,,0.0,0.0,0.0,0.0,0.0,0.0,0
34.182578,-118.129084,1.80,2.00,2.06,6.76,1.90,1.90,4.30,6.76,7150,2022-06-05 22:59:05.313,2022-06-05 15:59:05.313,17,0,0,16.362,34.182639,-118.129088,-2.00,-0.50,0.00,12.30,3.30,-176.70,0,1,0,84,100,-8036,3053,16362,3131.50,4,WP,1,0,0,0,0,0,0,1654469945312,4112,4092,4100,4104,0,0,27,,,,,,,0,0,0,-123.00,33.00,-1767.00,0.00,0.00,1656.00,14,18.00,20.62,67.58,-20.00,-5.00,0.00,0,,,100,100,0,2,0,0,0,1,0,,,,,0.0,0.0,0.0,0.0,0.0,0.0,0
34.182576,-118.129085,1.80,2.00,1.87,6.98,1.90,1.90,4.30,6.98,7250,2022-06-05 22:59:05.412,2022-06-05 15:59:05.412,17,0,0,16.362,34.182639,-118.129088,-1.80,-0.50,0.10,9.80,2.20,-176.90,0,1,0,84,100,-8036,3053,16362,3131.50,4,WP,1,0,0,0,0,0,0,1654469945412,4112,4092,4100,4104,0,0,27,,,,,,,0,0,0,-98.00,22.00,-1769.00,0.00,0.00,1657.00,14,18.00,18.71,69.83,-18.00,-5.00,1.00,0,,,100,100,0,2,0,0,0,1,0,,,,,0.0,0.0,0.0,0.0,0.0,0.0,0
34.182574,-118.129085,1.80,2.00,1.58,7.16,1.90,1.90,4.30,7.16,7350,2022-06-05 22:59:05.512,2022-06-05 15:59:05.512,17,0,0,16.362,34.182639,-118.129088,-1.50,-0.50,0.00,7.90,1.60,-177.10,0,1,0,84,100,-8036,3053,16362,3131.50,4,WP,1,0,0,0,0,0,0,1654469945512,4112,4092,4100,4104,0,0,27,,,,,,,0,0,0,-79.00,16.00,-1771.00,0.00,0.00,1658.00,14,18.00,15.81,71.56,-15.00,-5.00,0.00,0,,,100,100,0,2,0,0,0,1,0,,,,,0.0,0.0,0.0,0.0,0.0,0.0,0
34.182572,-118.129085,1.80,2.00,1.46,7.33,1.90,1.90,4.30,7.33,7450,2022-06-05 22:59:05.612,2022-06-05 15:59:05.613,17,0,0,16.362,34.182639,-118.129088,-1.40,-0.40,0.00,6.60,1.70,-177.20,0,1,0,84,100,-8036,3053,16362,3131.50,4,WP,1,0,0,0,0,0,0,1654469945612,4112,4092,4100,4104,0,0,27,,,,,,,0,0,0,-66.00,17.00,-1772.00,0.00,0.00,1658.00,14,18.00,14.56,73.26,-14.00,-4.00,0.00,0,,,100,100,0,2,0,0,0,1,0,,,,,0.0,0.0,0.0,0.0,0.0,0.0,0
34.182571,-118.129086,1.80,2.00,1.26,7.46,1.90,1.90,4.30,7.46,7550,2022-06-05 22:59:05.713,2022-06-05 15:59:05.713,17,0,0,16.362,34.182639,-118.129088,-1.20,-0.40,0.00,5.70,1.90,-177.20,0,1,0,84,100,-8036,3053,16362,3131.50,4,WP,1,0,0,0,0,0,0,1654469945712,4112,4092,4100,4104,0,0,27,,,,,,,0,0,0,-57.00,19.00,-1772.00,0.00,0.00,1659.00,14,18.00,12.65,74.62,-12.00,-4.00,0.00,0,,,100,100,0,2,0,0,0,1,0,,,,,0.0,0.0,0.0,0.0,0.0,0.0,0
34.182570,-118.129087,1.80,2.00,1.08,7.56,1.90,1.90,4.30,7.56,7650,2022-06-05 22:59:05.813,2022-06-05 15:59:05.813,17,0,0,16.362,34.182639,-118.129088,-1.00,-0.40,0.00,3.90,1.70,-177.30,0,1,0,84,100,-8036,3053,16362,3131.50,4,WP,1,0,0,0,0,0,0,1654469945812,4112,4092,4100,4104,0,0,27,,,,,,,0,0,0,-39.00,17.00,-1773.00,0.00,0.00,1659.00,14,18.00,10.77,75.59,-10.00,-4.00,0.00,0,,,100,100,0,2,0,0,0,1,0,,,,,0.0,0.0,0.0,0.0,0.0,0.0,0
34.182569,-118.129087,1.80,2.00,0.98,7.67,1.90,1.90,4.30,7.67,7750,2022-06-05 22:59:05.912,2022-06-05 15:59:05.912,17,0,0,16.362,34.182639,-118.129088,-0.90,-0.40,0.00,2.50,0.70,-177.50,0,1,0,84,100,-8036,3053,16362,3131.50,4,WP,1,0,0,0,0,0,0,1654469945912,4112,4092,4100,4104,0,0,27,,,,,,,0,0,0,-25.00,7.00,-1775.00,0.00,0.00,1660.00,14,18.00,9.85,76.67,-9.00,-4.00,0.00,0,,,100,100,0,2,0,0,0,1,0,,,,,0.0,0.0,0.0,0.0,0.0,0.0,0
34.182569,-118.129088,1.80,2.00,0.89,7.76,1.90,1.90,4.30,7.76,7853,2022-06-05 22:59:06.015,2022-06-05 15:59:06.015,17,0,0,16.362,34.182639,-118.129088,-0.80,-0.40,0.00,2.00,0.50,-177.50,0,1,0,84,100,-8036,3053,16362,3131.50,4,WP,1,0,0,0,0,0,0,1654469946015,4112,4092,4100,4104,0,0,27,,,,,,,0,0,0,-20.00,5.00,-1775.00,0.00,0.00,1660.00,14,18.00,8.94,77.64,-8.00,-4.00,0.00,0,,,100,100,0,2,0,0,0,1,0,,,,,0.0,0.0,0.0,0.0,0.0,0.0,0
34.182568,-118.129088,1.70,2.00,0.81,7.86,1.90,1.90,4.30,7.86,7951,2022-06-05 22:59:06.114,2022-06-05 15:59:06.114,17,0,0,16.375,34.182639,-118.129088,-0.70,-0.40,0.00,1.50,0.00,-177.60,0,1,0,84,100,-7416,3048,16375,3131.50,4,WP,1,0,0,0,0,0,0,1654469946113,4112,4092,4100,4104,0,0,27,,,,,,,0,0,0,-15.00,0.00,-1776.00,0.00,0.00,1660.00,14,17.00,8.06,78.56,-7.00,-4.00,0.00,0,,,100,100,0,2,0,0,0,1,0,,,,,0.0,0.0,0.0,0.0,0.0,0.0,0
34.182567,-118.129089,1.70,2.00,0.76,7.92,1.90,1.90,4.30,7.92,8050,2022-06-05 22:59:06.213,2022-06-05 15:59:06.213,17,0,0,16.375,34.182639,-118.129088,-0.70,-0.30,0.00,1.10,-0.50,-177.50,0,1,0,84,100,-7416,3048,16375,3131.50,4,WP,1,0,0,0,0,0,0,1654469946212,4112,4092,4100,4104,0,0,27,,,,,,,0,0,0,-11.00,-5.00,-1775.00,0.00,0.00,1661.00,14,17.00,7.62,79.17,-7.00,-3.00,0.00,0,,,100,100,0,2,0,0,0,1,0,,,,,0.0,0.0,0.0,0.0,0.0,0.0,0
34.182566,-118.129089,1.70,2.00,0.67,7.99,1.90,1.90,4.30,7.99,8150,2022-06-05 22:59:06.312,2022-06-05 15:59:06.312,17,0,0,16.375,34.182639,-118.129088,-0.60,-0.30,0.00,1.10,-0.90,-177.50,0,1,0,84,100,-7416,3048,16375,3131.50,4,WP,1,0,0,0,0,0,0,1654469946312,4112,4092,4100,4104,0,0,27,,,,,,,0,0,0,-11.00,-9.00,-1775.00,0.00,0.00,1661.00,14,17.00,6.71,79.94,-6.00,-3.00,0.00,0,,,100,100,0,2,0,0,0,1,0,,,,,0.0,0.0,0.0,0.0,0.0,0.0,0
34.182566,-118.129090,1.70,2.00,0.58,8.04,1.90,1.90,4.30,8.04,8251,2022-06-05 22:59:06.413,2022-06-05 15:59:06.413,17,0,0,16.375,34.182639,-118.129088,-0.50,-0.30,0.00,1.60,-1.10,-177.60,0,1,0,84,100,-7416,3048,16375,3131.50,4,WP,1,0,0,0,0,0,0,1654469946413,4112,4092,4100,4104,0,0,27,,,,,,,0,0,0,-16.00,-11.00,-1776.00,0.00,0.00,1661.00,14,17.00,5.83,80.44,-5.00,-3.00,0.00,0,,,100,100,0,2,0,0,0,1,0,,,,,0.0,0.0,0.0,0.0,0.0,0.0,0
34.182565,-118.129090,1.70,1.90,0.54,8.11,1.90,1.90,4.30,8.11,8350,2022-06-05 22:59:06.512,2022-06-05 15:59:06.512,17,0,0,16.375,34.182639,-118.129088,-0.50,-0.20,0.00,1.80,-1.50,-177.60,0,1,0,84,100,-7416,3048,16375,3131.50,4,WP,1,0,0,0,0,0,0,1654469946512,4112,4092,4100,4104,0,0,27,,,,,,,0,0,0,-18.00,-15.00,-1776.00,0.00,0.00,1661.00,14,17.00,5.39,81.08,-5.00,-2.00,0.00,0,,,100,100,0,2,0,0,0,1,0,,,,,0.0,0.0,0.0,0.0,0.0,0.0,0
34.182565,-118.129091,1.70,1.90,0.45,8.13,1.90,1.90,4.30,8.13,8450,2022-06-05 22:59:06.612,2022-06-05 15:59:06.612,17,0,0,16.375,34.182639,-118.129088,-0.40,-0.20,0.00,1.70,-1.20,-177.50,0,1,0,84,100,-7416,3048,16375,3131.50,4,WP,1,0,0,0,0,0,0,1654469946612,4112,4092,4100,4104,0,0,27,,,,,,,0,0,0,-17.00,-12.00,-1775.00,0.00,0.00,1662.00,14,17.00,4.47,81.26,-4.00,-2.00,0.00,0,,,100,100,0,2,0,0,0,1,0,,,,,0.0,0.0,0.0,0.0,0.0,0.0,0
34.182565,-118.129091,1.70,1.90,0.32,8.17,1.90,1.90,4.30,8.17,8550,2022-06-05 22:59:06.713,2022-06-05 15:59:06.713,17,0,0,16.375,34.182639,-118.129088,-0.30,-0.10,0.00,1.20,-1.30,-177.50,0,1,0,84,100,-7416,3048,16375,3131.50,4,WP,1,0,0,0,0,0,0,1654469946712,4112,4092,4100,4104,0,0,27,,,,,,,0,0,0,-12.00,-13.00,-1775.00,0.00,0.00,1662.00,14,17.00,3.16,81.74,-3.00,-1.00,0.00,0,,,100,100,0,2,0,0,0,1,0,,,,,0.0,0.0,0.0,0.0,0.0,0.0,0
34.182565,-118.129091,1.70,1.90,0.32,8.19,1.90,1.90,4.30,8.19,8651,2022-06-05 22:59:06.814,2022-06-05 15:59:06.814,17,0,0,16.375,34.182639,-118.129088,-0.30,-0.10,0.00,1.40,-1.00,-177.30,0,1,0,84,100,-7416,3048,16375,3131.50,4,WP,1,0,0,0,0,0,0,1654469946813,4112,4092,4100,4104,0,0,27,,,,,,,0,0,0,-14.00,-10.00,-1773.00,0.00,0.00,1662.00,14,17.00,3.16,81.90,-3.00,-1.00,0.00,0,,,100,100,0,2,0,0,0,1,0,,,,,0.0,0.0,0.0,0.0,0.0,0.0,0
34.182564,-118.129091,1.70,1.90,0.22,8.22,1.90,1.90,4.30,8.22,8802,2022-06-05 22:59:06.965,2022-06-05 15:59:06.965,17,0,0,16.375,34.182639,-118.129088,-0.20,-0.10,0.00,4.00,-0.50,-176.80,0,1,0,84,100,-7416,3048,16375,3131.50,4,WP,1,0,0,0,0,0,0,1654469946964,4112,4092,4100,4104,0,0,27,,,,,,,0,0,0,-40.00,-5.00,-1768.00,0.00,0.00,1662.00,14,17.00,2.24,82.24,-2.00,-1.00,0.00,0,,,100,100,0,2,0,0,0,1,0,,,,,0.0,0.0,0.0,0.0,0.0,0.0,0
34.182564,-118.129091,1.70,1.90,0.10,8.23,1.90,1.90,4.30,8.23,8851,2022-06-05 22:59:07.014,2022-06-05 15:59:07.014,17,0,0,16.375,34.182639,-118.129088,-0.10,0.00,0.00,3.00,0.40,-175.80,0,1,0,84,100,-7416,3048,16375,3131.50,4,WP,1,0,0,0,0,0,0,1654469947013,4112,4092,4100,4104,0,0,27,,,,,,,0,0,0,-30.00,4.00,-1758.00,0.00,0.00,1663.00,14,17.00,1.00,82.32,-1.00,0.00,0.00,0,,,100,100,0,2,0,0,0,1,0,,,,,0.0,0.0,0.0,0.0,0.0,0.0,0
34.182564,-118.129091,1.70,1.90,0.00,8.25,1.90,1.90,4.30,8.25,8950,2022-06-05 22:59:07.112,2022-06-05 15:59:07.113,17,0,0,16.375,34.182639,-118.129088,0.00,0.00,0.00,1.60,0.80,-174.30,0,1,0,84,100,-7416,3048,16375,3131.50,4,WP,1,0,0,0,0,0,0,1654469947112,4112,4092,4100,4104,0,0,27,,,,,,,0,0,0,-16.00,8.00,-1743.00,0.00,0.00,1666.00,14,17.00,0.00,82.46,0.00,0.00,0.00,0,,,100,100,0,2,0,0,0,1,0,,,,,0.0,0.0,0.0,0.0,0.0,0.0,0
34.182564,-118.129092,1.70,1.90,0.00,8.24,1.90,1.90,4.30,8.25,9050,2022-06-05 22:59:07.213,2022-06-05 15:59:07.213,17,0,0,16.375,34.182639,-118.129088,0.00,0.00,0.00,0.60,0.70,-172.30,0,1,0,84,100,-7416,3048,16375,3131.50,4,WP,1,0,0,0,0,0,0,1654469947212,4112,4092,4100,4104,0,0,27,,,,,,,0,0,0,-6.00,7.00,-1723.00,0.00,0.00,1673.00,14,17.00,0.00,82.45,0.00,0.00,0.00,0,,,100,100,0,2,0,0,0,1,0,,,,,0.0,0.0,0.0,0.0,0.0,0.0,0
34.182564,-118.129092,1.70,1.90,0.00,8.25,1.90,1.90,4.30,8.25,9150,2022-06-05 22:59:07.313,2022-06-05 15:59:07.313,17,0,0,16.375,34.182639,-118.129088,0.00,0.00,0.00,0.00,0.60,-169.70,0,1,0,84,100,-7416,3048,16375,3131.50,4,WP,1,0,0,0,0,0,0,1654469947312,4112,4092,4100,4104,0,0,27,,,,,,,0,0,0,-0.00,6.00,-1697.00,0.00,0.00,1687.00,14,17.00,0.00,82.50,0.00,0.00,0.00,0,,,100,100,0,2,0,0,0,1,0,,,,,0.0,0.0,0.0,0.0,0.0,0.0,0
34.182564,-118.129092,1.70,1.90,0.00,8.22,1.90,1.90,4.30,8.25,9251,2022-06-05 22:59:07.413,2022-06-05 15:59:07.413,17,0,0,16.375,34.182639,-118.129088,0.00,0.00,0.00,-0.20,0.60,-166.40,0,1,0,84,100,-7416,3048,16375,3131.50,4,WP,1,0,0,0,0,0,0,1654469947413,4112,4092,4100,4104,0,0,27,,,,,,,0,0,0,2.00,6.00,-1664.00,0.00,0.00,1711.00,14,17.00,0.00,82.24,0.00,0.00,0.00,0,,,100,100,0,2,0,0,0,1,0,,,,,0.0,0.0,0.0,0.0,0.0,0.0,0
34.182564,-118.129092,1.70,1.90,0.00,8.22,1.90,1.90,4.30,8.25,9405,2022-06-05 22:59:07.567,2022-06-05 15:59:07.567,17,0,0,16.375,34.182639,-118.129088,0.00,0.00,0.00,-0.50,0.70,-162.70,0,1,0,84,100,-7416,3048,16375,3131.50,4,WP,1,0,0,0,0,0,0,1654469947567,4112,4092,4100,4104,0,0,27,,,,,,,0,0,0,5.00,7.00,-1627.00,0.00,0.00,1744.00,14,17.00,0.00,82.21,0.00,0.00,0.00,0,,,100,100,0,2,0,0,0,1,0,,,,,0.0,0.0,0.0,0.0,0.0,0.0,0
34.182565,-118.129092,1.70,1.90,0.00,8.22,1.90,1.90,4.30,8.25,9452,2022-06-05 22:59:07.615,2022-06-05 15:59:07.615,17,0,0,16.375,34.182639,-118.129088,0.00,0.00,0.00,-0.60,0.50,-158.40,0,1,0,84,100,-7416,3048,16375,3131.50,4,WP,1,0,0,0,0,0,0,1654469947614,4112,4092,4100,4104,0,0,27,,,,,,,0,0,0,6.00,5.00,-1584.00,0.00,0.00,1784.00,14,17.00,0.00,82.17,0.00,0.00,0.00,0,,,100,100,0,2,0,0,0,1,0,,,,,0.0,0.0,0.0,0.0,0.0,0.0,0
34.182565,-118.129092,1.70,1.90,0.00,8.21,1.90,1.90,4.30,8.25,9553,2022-06-05 22:59:07.716,2022-06-05 15:59:07.716,17,0,0,16.375,34.182639,-118.129088,0.00,0.00,0.00,-0.70,0.40,-153.50,0,1,0,84,100,-7416,3048,16375,3131.50,4,WP,1,0,0,0,0,0,0,1654469947715,4112,4092,4100,4104,0,0,27,,,,,,,0,0,0,7.00,4.00,-1535.00,0.00,0.00,-1770.00,14,17.00,0.00,82.13,0.00,0.00,0.00,0,,,100,100,0,2,0,0,0,1,0,,,,,0.0,0.0,0.0,0.0,0.0,0.0,0
34.182565,-118.129092,1.70,1.90,0.00,8.19,1.90,1.90,4.30,8.25,9653,2022-06-05 22:59:07.816,2022-06-05 15:59:07.816,17,0,0,16.375,34.182639,-118.129088,0.00,0.00,0.00,-0.90,0.00,-148.30,0,1,0,84,100,-7416,3048,16375,3131.50,4,WP,1,0,0,0,0,0,0,1654469947815,4112,4092,4100,4104,0,0,27,,,,,,,0,0,0,9.00,0.00,-1483.00,0.00,0.00,-1720.00,14,17.00,0.00,81.93,0.00,0.00,0.00,0,,,100,100,0,2,0,0,0,1,0,,,,,0.0,0.0,0.0,0.0,0.0,0.0,0
34.182565,-118.129092,1.70,1.90,0.00,8.19,1.90,1.90,4.30,8.25,9754,2022-06-05 22:59:07.917,2022-06-05 15:59:07.917,17,0,0,16.375,34.182639,-118.129088,0.00,0.00,0.00,-0.80,-0.10,-142.40,0,1,0,84,100,-7416,3048,16375,3131.50,4,WP,1,0,0,0,0,0,0,1654469947916,4112,4092,4100,4104,0,0,27,,,,,,,0,0,0,8.00,-1.00,-1424.00,0.00,0.00,-1664.00,14,17.00,0.00,81.87,0.00,0.00,0.00,0,,,100,100,0,2,0,0,0,1,0,,,,,0.0,0.0,0.0,0.0,0.0,0.0,0
34.182565,-118.129092,1.70,1.90,0.00,8.16,1.90,1.90,4.30,8.25,9853,2022-06-05 22:59:08.015,2022-06-05 15:59:08.015,17,0,0,16.375,34.182639,-118.129088,0.00,0.00,0.00,-1.10,-0.40,-136.00,0,1,0,84,100,-7416,3048,16375,3131.50,4,WP,1,0,0,0,0,0,0,1654469948015,4112,4092,4100,4104,0,0,27,,,,,,,0,0,0,11.00,-4.00,-1360.00,0.00,0.00,-1603.00,14,17.00,0.00,81.62,0.00,0.00,0.00,0,,,100,100,0,2,0,0,0,1,0,,,,,0.0,0.0,0.0,0.0,0.0,0.0,0
34.182565,-118.129092,1.70,1.90,0.00,8.15,1.90,1.90,4.30,8.25,9954,2022-06-05 22:59:08.117,2022-06-05 15:59:08.117,17,0,0,16.361,34.182639,-118.129088,0.00,0.00,0.00,-1.10,-0.60,-128.90,0,1,0,84,100,-7580,3044,16361,3131.50,4,WP,1,0,0,0,0,0,0,1654469948116,4112,4092,4100,4104,0,0,27,,,,,,,0,0,0,11.00,-6.00,-1289.00,0.00,0.00,-1536.00,14,17.00,0.00,81.53,0.00,0.00,0.00,0,,,100,100,0,2,0,0,0,1,0,,,,,0.0,0.0,0.0,0.0,0.0,0.0,0
34.182565,-118.129092,1.70,1.90,0.00,8.16,1.90,1.90,4.30,8.25,10053,2022-06-05 22:59:08.215,2022-06-05 15:59:08.215,17,0,0,16.361,34.182639,-118.129088,0.00,0.00,0.00,-1.10,-0.70,-121.60,0,1,0,84,100,-7580,3044,16361,3131.50,4,WP,1,0,0,0,0,0,0,1654469948215,4112,4092,4100,4104,0,0,27,,,,,,,0,0,0,11.00,-7.00,-1216.00,0.00,0.00,-1464.00,14,17.00,0.00,81.56,0.00,0.00,0.00,0,,,100,100,0,2,0,0,0,1,0,,,,,0.0,0.0,0.0,0.0,0.0,0.0,0
34.182565,-118.129092,1.70,1.90,0.00,8.15,1.90,1.90,4.30,8.25,10152,2022-06-05 22:59:08.315,2022-06-05 15:59:08.315,17,0,0,16.361,34.182639,-118.129088,0.00,0.00,0.00,-1.00,-0.50,-114.20,0,1,0,84,100,-7580,3044,16361,3131.50,4,WP,1,0,0,0,0,0,0,1654469948314,4112,4092,4100,4104,0,0,27,,,,,,,0,0,0,10.00,-5.00,-1142.00,0.00,0.00,-1388.00,14,17.00,0.00,81.49,0.00,0.00,0.00,0,,,100,100,0,2,0,0,0,1,0,,,,,0.0,0.0,0.0,0.0,0.0,0.0,0
34.182565,-118.129092,1.70,1.90,0.00,8.12,1.90,1.90,4.30,8.25,10252,2022-06-05 22:59:08.415,2022-06-05 15:59:08.415,17,0,0,16.361,34.182639,-118.129088,0.00,0.00,0.00,-0.80,-0.50,-106.90,0,1,0,84,100,-7580,3044,16361,3131.50,4,WP,1,0,0,0,0,0,0,1654469948414,4112,4092,4100,4104,0,0,27,,,,,,,0,0,0,8.00,-5.00,-1069.00,0.00,0.00,-1313.00,14,17.00,0.00,81.23,0.00,0.00,0.00,0,,,100,100,0,2,0,0,0,1,0,,,,,0.0,0.0,0.0,0.0,0.0,0.0,0
34.182565,-118.129093,1.70,1.90,0.00,8.11,1.90,1.90,4.30,8.25,10355,2022-06-05 22:59:08.518,2022-06-05 15:59:08.518,17,0,0,16.361,34.182639,-118.129088,0.00,0.00,0.00,-0.50,-0.90,-99.50,0,1,0,84,100,-7580,3044,16361,3131.50,4,WP,1,0,0,0,0,0,0,1654469948517,4112,4092,4100,4104,0,0,27,,,,,,,0,0,0,5.00,-9.00,-995.00,0.00,0.00,-1238.00,14,17.00,0.00,81.15,0.00,0.00,0.00,0,,,100,100,0,2,0,0,0,1,0,,,,,0.0,0.0,0.0,0.0,0.0,0.0,0
34.182566,-118.129093,1.70,1.90,0.00,8.09,1.90,1.90,4.30,8.25,10453,2022-06-05 22:59:08.616,2022-06-05 15:59:08.616,17,0,0,16.361,34.182639,-118.129088,0.00,0.00,0.00,-0.30,-1.10,-92.30,0,1,0,84,100,-7580,3044,16361,3131.50,4,WP,1,0,0,0,0,0,0,1654469948615,4112,4092,4100,4104,0,0,27,,,,,,,0,0,0,3.00,-11.00,-923.00,0.00,0.00,-1165.00,14,17.00,0.00,80.94,0.00,0.00,0.00,0,,,100,100,0,2,0,0,0,1,0,,,,,0.0,0.0,0.0,0.0,0.0,0.0,0
34.182566,-118.129093,1.70,1.90,0.00,8.08,1.90,1.90,4.30,8.25,10552,2022-06-05 22:59:08.715,2022-06-05 15:59:08.715,17,0,0,16.361,34.182639,-118.129088,0.00,0.00,0.00,-0.40,-1.20,-85.00,0,1,0,84,100,-7580,3044,16361,3131.50,4,WP,1,0,0,0,0,0,0,1654469948714,4112,4092,4100,4104,0,0,27,,,,,,,0,0,0,4.00,-12.00,-850.00,0.00,0.00,-1091.00,14,17.00,0.00,80.85,0.00,0.00,0.00,0,,,100,100,0,2,0,0,0,1,0,,,,,0.0,0.0,0.0,0.0,0.0,0.0,0
34.182566,-118.129093,1.70,1.90,0.00,8.07,1.90,1.90,4.30,8.25,10653,2022-06-05 22:59:08.816,2022-06-05 15:59:08.816,17,0,0,16.361,34.182639,-118.129088,0.00,0.00,0.00,-0.10,-1.10,-77.70,0,1,0,84,100,-7580,3044,16361,3131.50,4,WP,1,0,0,0,0,0,0,1654469948815,4112,4092,4100,4104,0,0,27,,,,,,,0,0,0,1.00,-11.00,-777.00,0.00,0.00,-1018.00,14,17.00,0.00,80.68,0.00,0.00,0.00,0,,,100,100,0,2,0,0,0,1,0,,,,,0.0,0.0,0.0,0.0,0.0,0.0,0
34.182566,-118.129093,1.70,1.90,0.00,8.06,1.90,1.90,4.30,8.25,10755,2022-06-05 22:59:08.918,2022-06-05 15:59:08.918,17,0,0,16.361,34.182639,-118.129088,0.00,0.00,0.00,0.00,-1.10,-70.40,0,1,0,84,100,-7580,3044,16361,3131.50,4,WP,1,0,0,0,0,0,0,1654469948917,4112,4092,4100,4104,0,0,27,,,,,,,0,0,0,-0.00,-11.00,-704.00,0.00,0.00,-944.00,14,17.00,0.00,80.58,0.00,0.00,0.00,0,,,100,100,0,2,0,0,0,1,0,,,,,0.0,0.0,0.0,0.0,0.0,0.0,0
34.182566,-118.129093,1.70,1.90,0.00,8.04,1.90,1.90,4.30,8.25,10853,2022-06-05 22:59:09.016,2022-06-05 15:59:09.016,17,0,0,16.361,34.182639,-118.129088,0.00,0.00,0.00,-0.10,-1.20,-63.10,0,1,0,84,100,-7580,3044,16361,3131.50,4,WP,1,0,0,0,0,0,0,1654469949015,4112,4092,4100,4104,0,0,27,,,,,,,0,0,0,1.00,-12.00,-631.00,0.00,0.00,-871.00,14,17.00,0.00,80.45,0.00,0.00,0.00,0,,,100,100,0,2,0,0,0,1,0,,,,,0.0,0.0,0.0,0.0,0.0,0.0,0
34.182566,-118.129093,1.70,1.90,0.00,8.04,1.90,1.90,4.30,8.25,10953,2022-06-05 22:59:09.116,2022-06-05 15:59:09.116,17,0,0,16.361,34.182639,-118.129088,0.00,0.00,0.00,0.00,-1.10,-55.70,0,1,0,84,100,-7580,3044,16361,3131.50,4,WP,1,0,0,0,0,0,0,1654469949115,4112,4092,4100,4104,0,0,27,,,,,,,0,0,0,-0.00,-11.00,-557.00,0.00,0.00,-797.00,14,17.00,0.00,80.35,0.00,0.00,0.00,0,,,100,100,0,2,0,0,0,1,0,,,,,0.0,0.0,0.0,0.0,0.0,0.0,0
34.182566,-118.129093,1.70,1.90,0.00,8.02,1.90,1.90,4.30,8.25,11053,2022-06-05 22:59:09.216,2022-06-05 15:59:09.216,17,0,0,16.361,34.182639,-118.129088,0.00,0.00,0.00,0.20,-1.20,-48.30,0,1,0,84,100,-7580,3044,16361,3131.50,4,WP,1,0,0,0,0,0,0,1654469949215,4112,4092,4100,4104,0,0,27,,,,,,,0,0,0,-2.00,-12.00,-483.00,0.00,0.00,-723.00,14,17.00,0.00,80.24,0.00,0.00,0.00,0,,,100,100,0,2,0,0,0,1,0,,,,,0.0,0.0,0.0,0.0,0.0,0.0,0
34.182566,-118.129093,1.70,1.90,0.00,8.02,1.90,1.90,4.30,8.25,11154,2022-06-05 22:59:09.316,2022-06-05 15:59:09.316,17,0,0,16.361,34.182639,-118.129088,0.00,0.00,0.00,0.30,-1.20,-41.00,0,1,0,84,100,-7580,3044,16361,3131.50,4,WP,1,0,0,0,0,0,0,1654469949316,4112,4092,4100,4104,0,0,27,,,,,,,0,0,0,-3.00,-12.00,-410.00,0.00,0.00,-650.00,14,17.00,0.00,80.16,0.00,0.00,0.00,0,,,100,100,0,2,0,0,0,1,0,,,,,0.0,0.0,0.0,0.0,0.0,0.0,0
34.182566,-118.129092,1.70,1.90,0.00,8.00,1.90,1.90,4.30,8.25,11252,2022-06-05 22:59:09.415,2022-06-05 15:59:09.415,17,0,0,16.361,34.182639,-118.129088,0.00,0.00,0.00,0.50,-1.10,-34.00,0,1,0,84,100,-7580,3044,16361,3131.50,4,WP,1,0,0,0,0,0,0,1654469949414,4112,4092,4100,4104,0,0,27,,,,,,,0,0,0,-5.00,-11.00,-340.00,0.00,0.00,-575.00,14,17.00,0.00,80.04,0.00,0.00,0.00,0,,,100,100,0,2,0,0,0,1,0,,,,,0.0,0.0,0.0,0.0,0.0,0.0,0
34.182567,-118.129092,1.70,1.90,0.00,8.00,1.90,1.90,4.30,8.25,11353,2022-06-05 22:59:09.515,2022-06-05 15:59:09.515,17,0,0,16.361,34.182639,-118.129088,0.00,0.00,0.00,0.50,-0.90,-29.00,0,1,0,84,100,-7580,3044,16361,3131.50,4,WP,1,0,0,0,0,0,0,1654469949515,4112,4092,4100,4104,0,0,27,,,,,,,0,0,0,-5.00,-9.00,-290.00,0.00,0.00,-507.00,14,17.00,0.00,79.97,0.00,0.00,0.00,0,,,100,100,0,2,0,0,0,1,0,,,,,0.0,0.0,0.0,0.0,0.0,0.0,0
34.182567,-118.129092,1.70,1.90,0.00,7.98,1.90,1.90,4.30,8.25,11508,2022-06-05 22:59:09.670,2022-06-05 15:59:09.670,17,0,0,16.361,34.182639,-118.129088,0.00,0.00,0.00,0.40,-0.70,-25.60,0,1,0,84,100,-7580,3044,16361,3131.50,4,WP,1,0,0,0,0,0,0,1654469949670,4112,4092,4100,4104,0,0,27,,,,,,,0,0,0,-4.00,-7.00,-256.00,0.00,0.00,-458.00,14,17.00,0.00,79.84,0.00,0.00,0.00,0,,,100,100,0,2,0,0,0,1,0,,,,,0.0,0.0,0.0,0.0,0.0,0.0,0
34.182567,-118.129092,1.70,1.90,0.00,7.98,1.90,1.90,4.30,8.25,11553,2022-06-05 22:59:09.715,2022-06-05 15:59:09.715,17,0,0,16.361,34.182639,-118.129088,0.00,0.00,0.00,0.40,-0.70,-23.40,0,1,0,84,100,-7580,3044,16361,3131.50,4,WP,1,0,0,0,0,0,0,1654469949715,4112,4092,4100,4104,0,0,27,,,,,,,0,0,0,-4.00,-7.00,-234.00,0.00,0.00,-424.00,14,17.00,0.00,79.77,0.00,0.00,0.00,0,,,100,100,0,2,0,0,0,1,0,,,,,0.0,0.0,0.0,0.0,0.0,0.0,0
34.182567,-118.129092,1.70,1.90,0.00,7.94,1.90,1.90,4.30,8.25,11653,2022-06-05 22:59:09.815,2022-06-05 15:59:09.815,17,0,0,16.361,34.182639,-118.129088,0.00,0.00,0.00,0.60,-0.90,-22.00,0,1,0,84,100,-7580,3044,16361,3131.50,4,WP,1,0,0,0,0,0,0,1654469949815,4112,4092,4100,4104,0,0,27,,,,,,,0,0,0,-6.00,-9.00,-220.00,0.00,0.00,-402.00,14,17.00,0.00,79.41,0.00,0.00,0.00,0,,,100,100,0,2,0,0,0,1,0,,,,,0.0,0.0,0.0,0.0,0.0,0.0,0
34.182567,-118.129092,1.70,1.90,0.00,7.93,1.90,1.90,4.30,8.25,11754,2022-06-05 22:59:09.917,2022-06-05 15:59:09.917,17,0,0,16.361,34.182639,-118.129088,0.00,0.00,0.00,1.00,-1.30,-21.10,0,1,0,84,100,-7580,3044,16361,3131.50,4,WP,1,0,0,0,0,0,0,1654469949916,4112,4092,4100,4104,0,0,27,,,,,,,0,0,0,-10.00,-13.00,-211.00,0.00,0.00,-386.00,14,17.00,0.00,79.32,0.00,0.00,0.00,0,,,100,100,0,2,0,0,0,1,0,,,,,0.0,0.0,0.0,0.0,0.0,0.0,0
34.182567,-118.129092,1.70,1.90,0.00,7.92,1.90,1.90,4.30,8.25,11905,2022-06-05 22:59:10.067,2022-06-05 15:59:10.067,17,0,0,16.361,34.182639,-118.129088,0.00,0.00,0.00,1.10,-1.40,-21.00,0,1,0,84,100,-7580,3044,16361,3131.50,4,WP,1,0,0,0,0,0,0,1654469950067,4112,4092,4100,4104,0,0,27,,,,,,,0,0,0,-11.00,-14.00,-210.00,0.00,0.00,-377.00,14,17.00,0.00,79.22,0.00,0.00,0.00,0,,,100,100,0,2,0,0,0,1,0,,,,,0.0,0.0,0.0,0.0,0.0,0.0,0
34.182567,-118.129092,1.70,1.90,0.00,7.91,1.90,1.90,4.30,8.25,11954,2022-06-05 22:59:10.116,2022-06-05 15:59:10.116,17,0,0,16.357,34.182639,-118.129088,0.00,0.00,0.00,1.40,-1.50,-21.00,0,1,0,84,100,-7320,3042,16357,3131.50,4,WP,1,0,0,0,0,0,0,1654469950116,4112,4092,4100,4104,0,0,27,,,,,,,0,0,0,-14.00,-15.00,-210.00,0.00,0.00,-372.00,14,17.00,0.00,79.14,0.00,0.00,0.00,0,,,100,100,0,2,0,0,0,1,0,,,,,0.0,0.0,0.0,0.0,0.0,0.0,0
34.182567,-118.129092,1.70,1.90,0.00,7.90,1.90,1.90,4.30,8.25,12054,2022-06-05 22:59:10.216,2022-06-05 15:59:10.216,17,0,0,16.357,34.182639,-118.129088,0.00,0.00,0.00,1.70,-1.50,-21.20,0,1,0,84,100,-7320,3042,16357,3131.50,4,WP,1,0,0,0,0,0,0,1654469950216,4112,4092,4100,4104,0,0,27,,,,,,,0,0,0,-17.00,-15.00,-212.00,0.00,0.00,-371.00,14,17.00,0.00,79.02,0.00,0.00,0.00,0,,,100,100,0,2,0,0,0,1,0,,,,,0.0,0.0,0.0,0.0,0.0,0.0,0
34.182567,-118.129092,1.70,1.90,0.00,7.90,1.90,1.90,4.30,8.25,12154,2022-06-05 22:59:10.316,2022-06-05 15:59:10.316,17,0,0,16.357,34.182639,-118.129088,0.00,0.00,0.00,0.20,-2.20,-21.40,0,1,0,84,100,-7320,3042,16357,3131.50,4,WP,1,0,0,0,0,0,0,1654469950316,4112,4092,4100,4104,0,0,27,,,,,,,0,0,0,-2.00,-22.00,-214.00,0.00,0.00,-371.00,14,17.00,0.00,78.96,0.00,0.00,0.00,0,,,100,100,0,2,0,0,0,1,0,,,,,0.0,0.0,0.0,0.0,0.0,0.0,0
34.182568,-118.129092,1.70,1.90,0.00,7.87,1.90,1.90,4.30,8.25,12254,2022-06-05 22:59:10.416,2022-06-05 15:59:10.416,17,0,0,16.357,34.182639,-118.129088,0.00,0.00,0.00,-0.20,-3.00,-21.50,0,1,0,84,100,-7320,3042,16357,3131.50,4,WP,1,0,0,0,0,0,0,1654469950416,4112,4092,4100,4104,0,0,27,,,,,,,0,0,0,2.00,-30.00,-215.00,0.00,0.00,-371.00,14,17.00,0.00,78.69,0.00,0.00,0.00,0,,,100,100,0,2,0,0,0,1,0,,,,,0.0,0.0,0.0,0.0,0.0,0.0,0
34.182568,-118.129091,1.70,1.90,0.00,7.86,1.90,1.90,4.30,8.25,12404,2022-06-05 22:59:10.567,2022-06-05 15:59:10.567,17,0,0,16.357,34.182639,-118.129088,0.00,0.00,0.00,1.50,-3.30,-21.60,0,1,0,84,100,-7320,3042,16357,3131.50,4,WP,1,0,0,0,0,0,0,1654469950566,4112,4092,4100,4104,0,0,27,,,,,,,0,0,0,-15.00,-33.00,-216.00,0.00,0.00,-370.00,14,17.00,0.00,78.62,0.00,0.00,0.00,0,,,100,100,0,2,0,0,0,1,0,,,,,0.0,0.0,0.0,0.0,0.0,0.0,0
34.182568,-118.129091,1.70,2.00,0.00,7.85,1.90,1.90,4.30,8.25,12453,2022-06-05 22:59:10.616,2022-06-05 15:59:10.616,17,0,0,16.357,34.182639,-118.129088,0.00,0.00,0.00,2.70,-3.30,-21.60,0,1,0,84,100,-7320,3042,16357,3131.50,4,WP,1,0,0,0,0,0,0,1654469950615,4112,4092,4100,4104,0,0,27,,,,,,,0,0,0,-27.00,-33.00,-216.00,0.00,0.00,-370.00,14,17.00,0.00,78.51,0.00,0.00,0.00,0,,,100,100,0,2,0,0,0,1,0,,,,,0.0,0.0,0.0,0.0,0.0,0.0,0
34.182568,-118.129091,1.70,2.00,0.00,7.85,1.90,1.90,4.30,8.25,12553,2022-06-05 22:59:10.716,2022-06-05 15:59:10.716,17,0,0,16.357,34.182639,-118.129088,0.00,0.00,0.00,3.10,-3.10,-21.50,0,1,0,84,100,-7320,3042,16357,3131.50,4,WP,1,0,0,0,0,0,0,1654469950715,4112,4092,4100,4104,0,0,27,,,,,,,0,0,0,-31.00,-31.00,-215.00,0.00,0.00,-370.00,14,17.00,0.00,78.53,0.00,0.00,0.00,0,,,100,100,0,2,0,0,0,1,0,,,,,0.0,0.0,0.0,0.0,0.0,0.0,0
34.182568,-118.129091,1.70,2.00,0.10,7.85,1.90,1.90,4.30,8.25,12655,2022-06-05 22:59:10.818,2022-06-05 15:59:10.818,17,0,0,16.357,34.182639,-118.129088,-0.10,0.00,0.00,3.00,-3.20,-21.50,0,1,0,84,100,-7320,3042,16357,3131.50,4,WP,1,0,0,0,0,0,0,1654469950817,4112,4092,4100,4104,0,0,27,,,,,,,0,0,0,-30.00,-32.00,-215.00,0.00,0.00,-370.00,14,17.00,1.00,78.48,-1.00,0.00,0.00,0,,,100,100,0,2,0,0,0,1,0,,,,,0.0,0.0,0.0,0.0,0.0,0.0,0
34.182568,-118.129091,1.70,2.00,0.20,7.86,1.90,1.90,4.30,8.25,12820,2022-06-05 22:59:10.982,2022-06-05 15:59:10.982,17,0,0,16.357,34.182639,-118.129088,-0.20,0.00,0.00,2.40,-3.50,-21.40,0,1,0,84,100,-7320,3042,16357,3131.50,4,WP,1,0,0,0,0,0,0,1654469950982,4112,4092,4100,4104,0,0,27,,,,,,,0,0,0,-24.00,-35.00,-214.00,0.00,0.00,-370.00,14,17.00,2.00,78.61,-2.00,0.00,0.00,0,,,100,100,0,2,0,0,0,1,0,,,,,0.0,0.0,0.0,0.0,0.0,0.0,0
34.182568,-118.129091,1.70,2.00,0.20,7.87,1.90,1.90,4.30,8.25,12854,2022-06-05 22:59:11.017,2022-06-05 15:59:11.017,17,0,0,16.357,34.182639,-118.129088,-0.20,0.00,0.00,1.90,-3.50,-21.50,0,1,0,84,100,-7320,3042,16357,3131.50,4,WP,1,0,0,0,0,0,0,1654469951016,4112,4092,4100,4104,0,0,27,,,,,,,0,0,0,-19.00,-35.00,-215.00,0.00,0.00,-370.00,14,17.00,2.00,78.72,-2.00,0.00,0.00,0,,,100,100,0,2,0,0,0,1,0,,,,,8.1,0.0,0.0,0.0,0.0,0.0,0
34.182567,-118.129091,1.70,2.00,0.20,7.89,1.90,1.90,4.30,8.25,12955,2022-06-05 22:59:11.118,2022-06-05 15:59:11.118,17,0,0,16.357,34.182639,-118.129088,-0.20,0.00,0.00,1.30,-3.70,-21.40,0,1,0,84,100,-7320,3042,16357,3131.50,4,WP,1,0,0,0,0,0,0,1654469951117,4112,4092,4100,4104,0,0,27,,,,,,,0,0,0,-13.00,-37.00,-214.00,0.00,0.00,-370.00,14,17.00,2.00,78.93,-2.00,0.00,0.00,0,,,100,100,0,2,0,0,0,1,0,,,,,8.1,0.0,0.0,0.0,0.0,0.0,0
34.182567,-118.129090,1.70,2.00,0.30,7.91,1.90,1.90,4.30,8.25,13060,2022-06-05 22:59:11.222,2022-06-05 15:59:11.222,17,0,0,16.357,34.182639,-118.129088,-0.30,0.00,0.00,0.70,-3.90,-21.30,0,1,0,84,100,-7320,3042,16357,3131.50,4,WP,1,0,0,0,0,0,0,1654469951222,4112,4092,4100,4104,0,0,27,,,,,,,0,0,0,-7.00,-39.00,-213.00,0.00,0.00,-370.00,14,17.00,3.00,79.12,-3.00,0.00,0.00,0,,,100,100,0,2,0,0,0,1,0,,,,,8.1,0.0,0.0,0.0,0.0,0.0,0
34.182567,-118.129090,1.70,2.00,0.30,7.94,1.90,1.90,4.30,8.25,13155,2022-06-05 22:59:11.317,2022-06-05 15:59:11.317,17,0,0,16.357,34.182639,-118.129088,-0.30,0.00,0.00,-0.10,-3.70,-21.30,0,1,0,84,100,-7320,3042,16357,3131.50,4,WP,1,0,0,0,0,0,0,1654469951317,4112,4092,4100,4104,0,0,27,,,,,,,0,0,0,1.00,-37.00,-213.00,0.00,0.00,-370.00,14,17.00,3.00,79.38,-3.00,0.00,0.00,0,,,100,100,0,2,0,0,0,1,0,,,,,8.1,0.0,0.0,0.0,0.0,0.0,0
34.182567,-118.129090,1.70,2.00,0.30,7.96,1.90,1.90,4.30,8.25,13304,2022-06-05 22:59:11.467,2022-06-05 15:59:11.467,17,0,0,16.357,34.182639,-118.129088,-0.30,0.00,0.00,-0.90,-3.60,-21.30,0,1,0,84,100,-7320,3042,16357,3131.50,4,WP,1,0,0,0,0,0,0,1654469951466,4112,4092,4100,4104,0,0,27,,,,,,,0,0,0,9.00,-36.00,-213.00,0.00,0.00,-370.00,14,17.00,3.00,79.64,-3.00,0.00,0.00,0,,,100,100,0,2,0,0,0,1,0,,,,,8.1,0.0,0.0,0.0,0.0,0.0,0
34.182567,-118.129090,1.70,2.00,0.30,7.99,1.90,1.90,4.30,8.25,13356,2022-06-05 22:59:11.519,2022-06-05 15:59:11.519,17,0,0,16.357,34.182639,-118.129088,-0.30,0.00,0.00,-1.10,-3.90,-21.30,0,1,0,84,100,-7320,3042,16357,3131.50,4,WP,1,0,0,0,0,0,0,1654469951518,4112,4092,4100,4104,0,0,27,,,,,,,0,0,0,11.00,-39.00,-213.00,0.00,0.00,-370.00,14,17.00,3.00,79.89,-3.00,0.00,0.00,0,,,100,100,0,2,0,0,0,1,0,,,,,8.1,0.0,0.0,0.0,0.0,0.0,0
34.182566,-118.129090,1.80,2.00,0.20,8.01,1.90,1.90,4.30,8.25,13504,2022-06-05 22:59:11.666,2022-06-05 15:59:11.666,17,0,0,16.357,34.182639,-118.129088,-0.20,0.00,0.00,-1.20,-4.10,-21.30,0,1,0,84,100,-7320,3042,16357,3131.50,4,WP,1,0,0,0,0,0,0,1654469951666,4112,4092,4100,4104,0,0,27,,,,,,,0,0,0,12.00,-41.00,-213.00,0.00,0.00,-370.00,14,18.00,2.00,80.05,-2.00,0.00,0.00,0,,,100,100,0,2,0,0,0,1,0,,,,,8.1,0.0,0.0,0.0,0.0,0.0,0
