latitude,longitude,altitude(m),ultrasonicHeight(m),speed(mps),distance(m),max_altitude(m),max_ascent(m),max_speed(mps),max_distance(m),time(millisecond),datetime(utc),datetime(local),satellites,pressure(Pa),temperature(F),voltage(v),home_latitude,home_longitude,velocityX(mps),velocityY(mps),velocityZ(mps),pitch(deg),roll(deg),yaw(deg),powerlevel,isflying,istakingphoto,remainPowerPercent,remainLifePercent,currentCurrent,currentElectricity,currentVoltage,batteryTemperature,dischargeCount,flightmode,isMotorsOn,isTakingVideo,Rc_elevator,Rc_aileron,Rc_throttle,Rc_rudder,Rc_gyro,timestamp,Battery_Cell1,Battery_Cell2,Battery_Cell3,Battery_Cell4,Battery_Cell5,Battery_Cell6,Dronetype,AppVersion,Planename,FlyControllerSerialNumber,RemoteSerialNumber,BatterySerialNumber,CENTER_BATTERY.productDate,CENTER_BATTERY.serialNo,CENTER_BATTERY.fullCapacity,CENTER_BATTERY.productDateRaw,pitchRaw,rollRaw,yawRaw,gimbalPitchRaw,gimbalRollRaw,gimbalYawRaw,flyState,altitudeRaw,speedRaw,distanceRaw,velocityXRaw,velocityYRaw,velocityZRaw,data_reuse,App_Tip,App_Warning,downlinkSignalQuality,uplinkSignalQuality,transmissionChannel,rcModeSwitch,rcHome,rcPause,rcTransform,rcJoystickMode,appMode,FlyControllerSerialNumber_legacy,RemoteSerialNumber_legacy,BatterySerialNumber_legacy,Battery2SerialNumber,frontAvoidDist,backAvoidDist,rightAvoidDist,leftAvoidDist,upAvoidDist,downAvoidDist,isBrakingToAvoid
34.181571,-118.130747,0.40,0.40,0.40,0.17,0.40,0.40,0.40,0.17,1,2022-06-08 12:54:21.808,2022-06-08 05:54:21.809,16,0,0,16.710,34.181570,-118.130748,0.00,0.00,-0.40,1.20,-0.70,-2.60,0,1,0,91,100,-4202,3181,16710,3011.50,11,TakeOff,1,0,0,0,0,0,0,1654692861808,4246,4249,4245,4231,0,0,27,Litchi_iOS_2.14.0,Brian-MAVIC 2,163DFCK001S13F,1DUCFB800104PR,0P2AFBV5340045,,0,3525,0,-12.00,-7.00,-26.00,-24.00,0.00,-86.00,11,4.00,4.00,1.67,0.00,0.00,-4.00,0,,,100,100,0,1,0,0,0,0,6,(null),(null),(null),(null),2.8,5.1,0.0,0.0,0.0,0.0,0
34.181571,-118.130747,0.40,0.50,0.40,0.17,0.40,0.40,0.40,0.17,101,2022-06-08 12:54:21.909,2022-06-08 05:54:21.909,16,0,0,16.710,34.181570,-118.130748,0.00,0.00,-0.40,1.00,-0.30,-2.60,0,1,0,91,100,-4202,3181,16710,3011.50,11,TakeOff,1,0,0,0,0,0,0,1654692861908,4246,4249,4245,4231,0,0,27,,,,,,,0,0,0,-10.00,-3.00,-26.00,-24.00,0.00,-86.00,11,4.00,4.00,1.71,0.00,0.00,-4.00,0,,,100,100,0,1,0,0,0,0,6,,,,,2.6,5.1,0.0,0.0,0.0,0.0,0
34.181571,-118.130747,0.50,0.50,0.40,0.15,0.50,0.50,0.40,0.17,200,2022-06-08 12:54:22.008,2022-06-08 05:54:22.008,18,0,0,16.710,34.181570,-118.130748,0.00,0.00,-0.40,0.90,-0.40,-2.60,0,1,0,91,100,-4202,3181,16710,3011.50,11,TakeOff,1,0,0,0,0,0,0,1654692862007,4246,4249,4245,4231,0,0,27,,,,,,,0,0,0,-9.00,-4.00,-26.00,-24.00,0.00,-86.00,11,5.00,4.00,1.51,0.00,0.00,-4.00,0,,,100,100,0,1,0,0,0,0,6,,,,,2.6,5.1,0.0,0.0,0.0,0.0,0
34.181571,-118.130747,0.50,0.60,0.40,0.15,0.50,0.50,0.40,0.17,300,2022-06-08 12:54:22.108,2022-06-08 05:54:22.108,18,0,0,16.494,34.181570,-118.130748,0.00,0.00,-0.40,0.70,-0.40,-2.50,0,1,0,91,100,-7462,3178,16494,3011.50,11,TakeOff,1,0,0,0,0,0,0,1654692862107,4246,4249,4245,4231,0,0,27,,,,,,,0,0,0,-7.00,-4.00,-25.00,-24.00,0.00,-86.00,11,5.00,4.00,1.52,0.00,0.00,-4.00,0,,,100,100,0,1,0,0,0,0,6,,,,,2.6,5.1,0.0,0.0,0.0,0.0,0
34.181571,-118.130747,0.60,0.60,0.50,0.16,0.60,0.60,0.50,0.17,400,2022-06-08 12:54:22.207,2022-06-08 05:54:22.207,18,0,0,16.494,34.181570,-118.130748,0.00,0.00,-0.50,0.50,-0.70,-2.50,0,1,0,91,100,-7462,3178,16494,3011.50,11,TakeOff,1,0,0,0,0,0,0,1654692862207,4246,4249,4245,4231,0,0,27,,,,,,,0,0,0,-5.00,-7.00,-25.00,-24.00,0.00,-86.00,11,6.00,5.00,1.60,0.00,0.00,-5.00,0,,,100,100,0,1,0,0,0,0,6,,,,,2.6,5.1,0.0,0.0,0.0,0.0,0
34.181571,-118.130747,0.60,0.70,0.50,0.16,0.60,0.60,0.50,0.17,501,2022-06-08 12:54:22.308,2022-06-08 05:54:22.308,18,0,0,16.494,34.181570,-118.130748,0.00,0.00,-0.50,0.50,-0.90,-2.50,0,1,0,91,100,-7462,3178,16494,3011.50,11,TakeOff,1,0,0,0,0,0,0,1654692862308,4246,4249,4245,4231,0,0,27,,,,,,,0,0,0,-5.00,-9.00,-25.00,-24.00,0.00,-86.00,11,6.00,5.00,1.60,0.00,0.00,-5.00,0,,,100,100,0,1,0,0,0,0,6,,,,,2.6,5.1,0.0,0.0,0.0,0.0,0
34.181571,-118.130747,0.70,0.70,0.50,0.16,0.70,0.70,0.50,0.17,601,2022-06-08 12:54:22.409,2022-06-08 05:54:22.409,18,0,0,16.494,34.181570,-118.130748,0.00,0.00,-0.50,0.40,-0.80,-2.50,0,1,0,91,100,-7462,3178,16494,3011.50,11,TakeOff,1,0,0,0,0,0,0,1654692862408,4246,4249,4245,4231,0,0,27,,,,,,,0,0,0,-4.00,-8.00,-25.00,-24.00,0.00,-86.00,11,7.00,5.00,1.59,0.00,0.00,-5.00,0,,,100,100,0,1,0,0,0,0,6,,,,,2.6,5.1,0.0,0.0,0.0,0.0,0
34.181571,-118.130747,0.70,0.80,0.50,0.16,0.70,0.70,0.50,0.17,701,2022-06-08 12:54:22.508,2022-06-08 05:54:22.508,18,0,0,16.494,34.181570,-118.130748,0.00,0.00,-0.50,0.40,-0.50,-2.50,0,1,0,91,100,-7462,3178,16494,3011.50,11,TakeOff,1,0,0,0,0,0,0,1654692862508,4246,4249,4245,4231,0,0,27,,,,,,,0,0,0,-4.00,-5.00,-25.00,-24.00,0.00,-86.00,11,7.00,5.00,1.58,0.00,0.00,-5.00,0,,,100,100,0,1,0,0,0,0,6,,,,,2.6,5.1,0.0,0.0,0.0,0.0,0
34.181571,-118.130747,0.80,0.80,0.50,0.16,0.80,0.80,0.50,0.17,800,2022-06-08 12:54:22.608,2022-06-08 05:54:22.608,18,0,0,16.494,34.181570,-118.130748,0.00,0.00,-0.50,0.50,-0.50,-2.50,0,1,0,91,100,-7462,3178,16494,3011.50,11,TakeOff,1,0,0,0,0,0,0,1654692862607,4246,4249,4245,4231,0,0,27,,,,,,,0,0,0,-5.00,-5.00,-25.00,-24.00,0.00,-86.00,11,8.00,5.00,1.60,0.00,0.00,-5.00,0,,,100,100,0,1,0,0,0,0,6,,,,,2.6,5.1,0.0,0.0,0.0,0.0,0
34.181571,-118.130747,0.80,0.90,0.50,0.16,0.80,0.80,0.50,0.17,901,2022-06-08 12:54:22.708,2022-06-08 05:54:22.708,18,0,0,16.494,34.181570,-118.130748,0.00,0.00,-0.50,0.40,-0.50,-2.50,0,1,0,91,100,-7462,3178,16494,3011.50,11,TakeOff,1,0,0,0,0,0,0,1654692862708,4246,4249,4245,4231,0,0,27,,,,,,,0,0,0,-4.00,-5.00,-25.00,-24.00,0.00,-86.00,11,8.00,5.00,1.60,0.00,0.00,-5.00,0,,,100,100,0,1,0,0,0,0,6,,,,,2.6,5.1,0.0,0.0,0.0,0.0,0
34.181571,-118.130747,0.90,0.90,0.50,0.15,0.90,0.90,0.50,0.17,1001,2022-06-08 12:54:22.808,2022-06-08 05:54:22.808,16,0,0,16.494,34.181570,-118.130748,0.00,0.00,-0.50,0.40,-0.50,-2.50,0,1,0,91,100,-7462,3178,16494,3011.50,11,TakeOff,1,0,0,0,0,0,0,1654692862808,4246,4249,4245,4231,0,0,27,,,,,,,0,0,0,-4.00,-5.00,-25.00,-24.00,0.00,-86.00,11,9.00,5.00,1.50,0.00,0.00,-5.00,0,,,100,100,0,1,0,0,0,0,6,,,,,2.6,5.1,0.0,0.0,0.0,0.0,0
34.181571,-118.130747,0.90,1.00,0.40,0.15,0.90,0.90,0.50,0.17,1101,2022-06-08 12:54:22.909,2022-06-08 05:54:22.909,16,0,0,16.494,34.181570,-118.130748,0.00,0.00,-0.40,0.40,-0.20,-2.50,0,1,0,91,100,-7462,3178,16494,3011.50,11,TakeOff,1,0,0,0,0,0,0,1654692862908,4246,4249,4245,4231,0,0,27,,,,,,,0,0,0,-4.00,-2.00,-25.00,-24.00,0.00,-86.00,11,9.00,4.00,1.48,0.00,0.00,-4.00,0,,,100,100,0,1,0,0,0,0,6,,,,,2.6,5.1,0.0,0.0,0.0,0.0,0
34.181571,-118.130747,1.00,1.00,0.40,0.14,1.00,1.00,0.50,0.17,1201,2022-06-08 12:54:23.009,2022-06-08 05:54:23.009,16,0,0,16.494,34.181570,-118.130748,0.00,0.00,-0.40,0.40,0.00,-2.50,0,1,0,91,100,-7462,3178,16494,3011.50,11,TakeOff,1,0,0,0,0,0,0,1654692863008,4246,4249,4245,4231,0,0,27,,,,,,,0,0,0,-4.00,0.00,-25.00,-24.00,0.00,-86.00,11,10.00,4.00,1.43,0.00,0.00,-4.00,0,,,100,100,0,1,0,0,0,0,6,,,,,2.6,5.1,0.0,0.0,0.0,0.0,0
34.181571,-118.130747,1.00,1.10,0.40,0.14,1.00,1.00,0.50,0.17,1301,2022-06-08 12:54:23.109,2022-06-08 05:54:23.109,16,0,0,16.494,34.181570,-118.130748,0.00,0.00,-0.40,0.30,-0.10,-2.50,0,1,0,91,100,-7462,3178,16494,3011.50,11,TakeOff,1,0,0,0,0,0,0,1654692863108,4246,4249,4245,4231,0,0,27,,,,,,,0,0,0,-3.00,-1.00,-25.00,-24.00,0.00,-86.00,11,10.00,4.00,1.40,0.00,0.00,-4.00,0,,,100,100,0,1,0,0,0,0,6,,,,,2.6,5.1,0.0,0.0,0.0,0.0,0
34.181571,-118.130746,1.10,1.10,0.40,0.14,1.10,1.10,0.50,0.17,1401,2022-06-08 12:54:23.209,2022-06-08 05:54:23.209,17,0,0,16.494,34.181570,-118.130748,0.00,0.00,-0.40,0.20,-0.30,-2.50,0,1,0,91,100,-7462,3178,16494,3011.50,11,Sport,1,0,0,0,0,0,0,1654692863208,4246,4249,4245,4231,0,0,27,,,,,,,0,0,0,-2.00,-3.00,-25.00,-24.00,0.00,-86.00,31,11.00,4.00,1.40,0.00,0.00,-4.00,0,,,100,100,0,1,0,0,0,0,6,,,,,2.6,5.1,0.0,0.0,0.0,0.0,0
34.181571,-118.130746,1.10,1.20,0.20,0.14,1.10,1.10,0.50,0.17,1501,2022-06-08 12:54:23.309,2022-06-08 05:54:23.309,17,0,0,16.494,34.181570,-118.130748,0.00,0.00,-0.20,0.10,-0.50,-2.50,0,1,0,91,100,-7462,3178,16494,3011.50,11,Sport,1,0,0,0,0,0,0,1654692863308,4246,4249,4245,4231,0,0,27,,,,,,,0,0,0,-1.00,-5.00,-25.00,-24.00,0.00,-86.00,31,11.00,2.00,1.40,0.00,0.00,-2.00,0,,,100,100,0,1,0,0,0,0,6,,,,,2.6,5.1,0.0,0.0,0.0,0.0,0
34.181570,-118.130747,1.10,1.20,0.10,0.11,1.10,1.10,0.50,0.17,1602,2022-06-08 12:54:23.409,2022-06-08 05:54:23.409,17,0,0,16.494,34.181570,-118.130748,0.00,0.00,-0.10,0.00,-0.60,-2.50,0,1,0,91,100,-7462,3178,16494,3011.50,11,Sport,1,0,0,0,0,0,0,1654692863409,4246,4249,4245,4231,0,0,27,,,,,,,0,0,0,-0.00,-6.00,-25.00,-24.00,0.00,-86.00,31,11.00,1.00,1.12,0.00,0.00,-1.00,0,,,100,100,0,1,0,0,0,0,6,,,,,2.6,5.1,0.0,0.0,0.0,0.0,0
34.181570,-118.130747,1.10,1.20,0.00,0.11,1.10,1.10,0.50,0.17,1701,2022-06-08 12:54:23.508,2022-06-08 05:54:23.508,17,0,0,16.494,34.181570,-118.130748,0.00,0.00,0.00,0.00,-0.30,-2.60,0,1,0,91,100,-7462,3178,16494,3011.50,11,Sport,1,0,0,0,0,0,0,1654692863508,4246,4249,4245,4231,0,0,27,,,,,,,0,0,0,-0.00,-3.00,-26.00,-24.00,0.00,-86.00,31,11.00,0.00,1.11,0.00,0.00,0.00,0,,,100,100,0,1,0,0,0,0,6,,,,,2.6,5.1,0.0,0.0,0.0,0.0,0
34.181570,-118.130746,1.10,1.20,0.00,0.14,1.10,1.10,0.50,0.17,1801,2022-06-08 12:54:23.608,2022-06-08 05:54:23.608,17,0,0,16.494,34.181570,-118.130748,0.00,0.00,0.00,0.00,-0.20,-2.60,0,1,0,91,100,-7462,3178,16494,3011.50,11,Sport,1,0,0,0,0,0,0,1654692863608,4246,4249,4245,4231,0,0,27,,,,,,,0,0,0,-0.00,-2.00,-26.00,-24.00,0.00,-86.00,31,11.00,0.00,1.36,0.00,0.00,0.00,0,,,100,100,0,1,0,0,0,0,6,,,,,2.6,5.1,0.0,0.0,0.0,0.0,0
34.181570,-118.130746,1.10,1.20,0.00,0.14,1.10,1.10,0.50,0.17,1901,2022-06-08 12:54:23.709,2022-06-08 05:54:23.709,17,0,0,16.494,34.181570,-118.130748,0.00,0.00,0.00,0.10,-0.20,-2.60,0,1,0,91,100,-7462,3178,16494,3011.50,11,Sport,1,0,0,0,0,0,0,1654692863708,4246,4249,4245,4231,0,0,27,,,,,,,0,0,0,-1.00,-2.00,-26.00,-24.00,0.00,-86.00,31,11.00,0.00,1.39,0.00,0.00,0.00,0,,,100,100,0,1,0,0,0,0,6,,,,,2.6,5.1,0.0,0.0,0.0,0.0,0
34.181570,-118.130747,1.10,1.20,0.00,0.12,1.10,1.10,0.50,0.17,2002,2022-06-08 12:54:23.809,2022-06-08 05:54:23.809,17,0,0,16.494,34.181570,-118.130748,0.00,0.00,0.00,0.20,-0.30,-2.60,0,1,0,91,100,-7462,3178,16494,3011.50,11,Sport,1,0,0,0,0,0,0,1654692863809,4246,4249,4245,4231,0,0,27,,,,,,,0,0,0,-2.00,-3.00,-26.00,-24.00,0.00,-86.00,31,11.00,0.00,1.19,0.00,0.00,0.00,0,,,100,100,0,1,0,0,0,0,6,,,,,2.6,5.1,0.0,0.0,0.0,0.0,0
34.181570,-118.130746,1.10,1.20,0.00,0.12,1.10,1.10,0.50,0.17,2101,2022-06-08 12:54:23.909,2022-06-08 05:54:23.909,17,0,0,16.494,34.181570,-118.130748,0.00,0.00,0.00,0.10,-0.30,-2.60,0,1,0,91,100,-7462,3178,16494,3011.50,11,Sport,1,0,0,0,0,0,0,1654692863908,4246,4249,4245,4231,0,0,27,,,,,,,0,0,0,-1.00,-3.00,-26.00,-24.00,0.00,-86.00,31,11.00,0.00,1.19,0.00,0.00,0.00,0,,,100,100,0,1,0,0,0,0,6,,,,,2.6,5.1,0.0,0.0,0.0,0.0,0
34.181570,-118.130747,1.10,1.20,0.00,0.10,1.10,1.10,0.50,0.17,2202,2022-06-08 12:54:24.009,2022-06-08 05:54:24.009,18,0,0,16.494,34.181570,-118.130748,0.00,0.00,0.00,0.20,-0.30,-2.60,0,1,0,91,100,-7462,3178,16494,3011.50,11,Sport,1,0,0,0,0,0,0,1654692864009,4246,4249,4245,4231,0,0,27,,,,,,,0,0,0,-2.00,-3.00,-26.00,-24.00,0.00,-86.00,31,11.00,0.00,1.02,0.00,0.00,0.00,0,,,100,100,0,1,0,0,0,0,6,,,,,2.6,5.1,0.0,0.0,0.0,0.0,0
34.181570,-118.130747,1.10,1.20,0.00,0.10,1.10,1.10,0.50,0.17,2302,2022-06-08 12:54:24.110,2022-06-08 05:54:24.110,18,0,0,16.499,34.181570,-118.130748,0.00,0.00,0.00,0.10,-0.30,-2.60,0,1,0,91,100,-6862,3174,16499,3011.50,11,Sport,1,0,0,0,0,0,0,1654692864109,4246,4249,4245,4231,0,0,27,,,,,,,0,0,0,-1.00,-3.00,-26.00,-24.00,0.00,-86.00,31,11.00,0.00,1.01,0.00,0.00,0.00,0,,,100,100,0,1,0,0,0,0,6,,,,,2.6,5.1,0.0,0.0,0.0,0.0,0
34.181570,-118.130747,1.10,1.20,0.00,0.12,1.10,1.10,0.50,0.17,2402,2022-06-08 12:54:24.209,2022-06-08 05:54:24.209,18,0,0,16.499,34.181570,-118.130748,0.00,0.00,0.00,0.00,-0.40,-2.60,0,1,0,91,100,-6862,3174,16499,3011.50,11,Sport,1,0,0,0,0,0,0,1654692864209,4246,4249,4245,4231,0,0,27,,,,,,,0,0,0,-0.00,-4.00,-26.00,-24.00,0.00,-86.00,31,11.00,0.00,1.16,0.00,0.00,0.00,0,,,100,100,0,1,0,0,0,0,6,,,,,2.6,5.1,0.0,0.0,0.0,0.0,0
34.181570,-118.130747,1.10,1.20,0.00,0.12,1.10,1.10,0.50,0.17,2502,2022-06-08 12:54:24.310,2022-06-08 05:54:24.310,18,0,0,16.499,34.181570,-118.130748,0.00,0.00,0.00,0.10,-0.50,-2.60,0,1,0,91,100,-6862,3174,16499,3011.50,11,Sport,1,0,0,0,0,0,0,1654692864309,4246,4249,4245,4231,0,0,27,,,,,,,0,0,0,-1.00,-5.00,-26.00,-24.00,0.00,-86.00,31,11.00,0.00,1.17,0.00,0.00,0.00,0,,,100,100,0,1,0,0,0,0,6,,,,,2.6,5.1,0.0,0.0,0.0,0.0,0
34.181570,-118.130747,1.10,1.20,0.00,0.10,1.10,1.10,0.50,0.17,2602,2022-06-08 12:54:24.410,2022-06-08 05:54:24.410,18,0,0,16.499,34.181570,-118.130748,0.00,0.00,0.00,0.20,-0.50,-2.60,0,1,0,91,100,-6862,3174,16499,3011.50,11,Sport,1,0,0,0,0,0,0,1654692864409,4246,4249,4245,4231,0,0,27,,,,,,,0,0,0,-2.00,-5.00,-26.00,-24.00,0.00,-86.00,31,11.00,0.00,1.05,0.00,0.00,0.00,0,,,100,100,0,1,0,0,0,0,6,,,,,2.6,5.1,0.0,0.0,0.0,0.0,0
34.181570,-118.130747,1.10,1.20,0.00,0.10,1.10,1.10,0.50,0.17,2703,2022-06-08 12:54:24.510,2022-06-08 05:54:24.510,18,0,0,16.499,34.181570,-118.130748,0.00,0.00,0.00,0.20,-0.40,-2.60,0,1,0,91,100,-6862,3174,16499,3011.50,11,Sport,1,0,0,0,0,0,0,1654692864510,4246,4249,4245,4231,0,0,27,,,,,,,0,0,0,-2.00,-4.00,-26.00,-24.00,0.00,-86.00,31,11.00,0.00,1.04,0.00,0.00,0.00,0,,,100,100,0,1,0,0,0,0,6,,,,,2.6,5.1,0.0,0.0,0.0,0.0,0
34.181571,-118.130747,1.10,1.20,0.00,0.11,1.10,1.10,0.50,0.17,2802,2022-06-08 12:54:24.609,2022-06-08 05:54:24.609,18,0,0,16.499,34.181570,-118.130748,0.00,0.00,0.00,0.20,-0.40,-2.60,0,1,0,91,100,-6862,3174,16499,3011.50,11,Sport,1,0,0,0,0,0,0,1654692864609,4246,4249,4245,4231,0,0,27,,,,,,,0,0,0,-2.00,-4.00,-26.00,-24.00,0.00,-86.00,31,11.00,0.00,1.15,0.00,0.00,0.00,0,,,100,100,0,1,0,0,0,0,6,,,,,2.6,5.1,0.0,0.0,0.0,0.0,0
34.181571,-118.130747,1.10,1.20,0.00,0.12,1.10,1.10,0.50,0.17,2902,2022-06-08 12:54:24.710,2022-06-08 05:54:24.710,18,0,0,16.499,34.181570,-118.130748,0.00,0.00,0.00,0.30,-0.40,-2.60,0,1,0,91,100,-6862,3174,16499,3011.50,11,Sport,1,0,0,0,0,0,0,1654692864709,4246,4249,4245,4231,0,0,27,,,,,,,0,0,0,-3.00,-4.00,-26.00,-24.00,0.00,-86.00,31,11.00,0.00,1.15,0.00,0.00,0.00,0,,,100,100,0,1,0,0,0,0,6,,,,,2.6,5.1,0.0,0.0,0.0,0.0,0
34.181571,-118.130747,1.10,1.20,0.00,0.10,1.10,1.10,0.50,0.17,3002,2022-06-08 12:54:24.810,2022-06-08 05:54:24.810,18,0,0,16.499,34.181570,-118.130748,0.00,0.00,0.00,0.30,-0.30,-2.60,0,1,0,91,100,-6862,3174,16499,3011.50,11,Sport,1,0,0,0,13,0,0,1654692864809,4246,4249,4245,4231,0,0,27,,,,,,,0,0,0,-3.00,-3.00,-26.00,-24.00,0.00,-86.00,31,11.00,0.00,1.05,0.00,0.00,0.00,0,,,100,100,0,1,0,0,0,0,6,,,,,2.6,5.1,0.0,0.0,0.0,0.0,0
34.181571,-118.130747,1.10,1.20,0.00,0.10,1.10,1.10,0.50,0.17,3102,2022-06-08 12:54:24.910,2022-06-08 05:54:24.910,18,0,0,16.499,34.181570,-118.130748,0.00,0.00,0.00,0.40,-0.30,-2.60,0,1,0,91,100,-6862,3174,16499,3011.50,11,Sport,1,0,0,0,29,0,0,1654692864909,4246,4249,4245,4231,0,0,27,,,,,,,0,0,0,-4.00,-3.00,-26.00,-24.00,0.00,-86.00,31,11.00,0.00,1.05,0.00,0.00,0.00,0,,,100,100,0,1,0,0,0,0,6,,,,,2.6,5.1,0.0,0.0,0.0,0.0,0
34.181571,-118.130747,1.10,1.20,0.00,0.11,1.10,1.10,0.50,0.17,3203,2022-06-08 12:54:25.011,2022-06-08 05:54:25.011,18,0,0,16.499,34.181570,-118.130748,0.00,0.00,0.00,0.40,-0.20,-2.60,0,1,0,91,100,-6862,3174,16499,3011.50,11,Sport,1,0,0,0,52,0,0,1654692865010,4246,4249,4245,4231,0,0,27,,,,,,,0,0,0,-4.00,-2.00,-26.00,-24.00,0.00,-86.00,31,11.00,0.00,1.10,0.00,0.00,0.00,0,,,100,100,0,1,0,0,0,0,6,,,,,2.6,5.1,0.0,0.0,0.0,0.0,0
34.181571,-118.130747,1.10,1.20,0.00,0.11,1.10,1.10,0.50,0.17,3303,2022-06-08 12:54:25.110,2022-06-08 05:54:25.110,18,0,0,16.499,34.181570,-118.130748,0.00,0.00,0.00,0.40,0.00,-2.60,0,1,0,91,100,-6862,3174,16499,3011.50,11,Sport,1,0,0,0,64,0,0,1654692865110,4246,4249,4245,4231,0,0,27,,,,,,,0,0,0,-4.00,0.00,-26.00,-24.00,0.00,-86.00,31,11.00,0.00,1.10,0.00,0.00,0.00,0,,,100,100,0,1,0,0,0,0,6,,,,,2.6,5.1,0.0,0.0,0.0,0.0,0
34.181571,-118.130747,1.10,1.20,0.00,0.10,1.10,1.10,0.50,0.17,3403,2022-06-08 12:54:25.210,2022-06-08 05:54:25.210,18,0,0,16.499,34.181570,-118.130748,0.00,0.00,0.00,0.40,0.00,-2.60,0,1,0,91,100,-6862,3174,16499,3011.50,11,Sport,1,0,0,0,80,0,0,1654692865210,4246,4249,4245,4231,0,0,27,,,,,,,0,0,0,-4.00,0.00,-26.00,-24.00,0.00,-86.00,31,11.00,0.00,1.02,0.00,0.00,0.00,0,,,100,100,0,1,0,0,0,0,6,,,,,2.6,5.1,0.0,0.0,0.0,0.0,0
34.181571,-118.130747,1.10,1.20,0.00,0.10,1.10,1.10,0.50,0.17,3502,2022-06-08 12:54:25.310,2022-06-08 05:54:25.310,18,0,0,16.499,34.181570,-118.130748,0.00,0.00,0.00,0.40,-0.10,-2.50,0,1,0,91,100,-6862,3174,16499,3011.50,11,Sport,1,0,0,0,86,0,0,1654692865309,4246,4249,4245,4231,0,0,27,,,,,,,0,0,0,-4.00,-1.00,-25.00,-24.00,0.00,-86.00,31,11.00,0.00,1.03,0.00,0.00,0.00,0,,,100,100,0,1,0,0,0,0,6,,,,,2.6,5.1,0.0,0.0,0.0,0.0,0
34.181571,-118.130747,1.10,1.20,0.00,0.09,1.10,1.10,0.50,0.17,3602,2022-06-08 12:54:25.410,2022-06-08 05:54:25.410,18,0,0,16.499,34.181570,-118.130748,0.00,0.00,0.00,0.40,-0.20,-2.50,0,1,0,91,100,-6862,3174,16499,3011.50,11,Sport,1,0,0,0,118,0,0,1654692865409,4246,4249,4245,4231,0,0,27,,,,,,,0,0,0,-4.00,-2.00,-25.00,-24.00,0.00,-86.00,31,11.00,0.00,0.88,0.00,0.00,0.00,0,,,100,100,0,1,0,0,0,0,6,,,,,2.6,5.1,0.0,0.0,0.0,0.0,0
34.181571,-118.130747,1.10,1.20,0.00,0.09,1.10,1.10,0.50,0.17,3703,2022-06-08 12:54:25.510,2022-06-08 05:54:25.510,18,0,0,16.499,34.181570,-118.130748,0.00,0.00,0.00,0.40,-0.20,-2.50,0,1,0,91,100,-6862,3174,16499,3011.50,11,Sport,1,0,0,0,140,0,0,1654692865510,4246,4249,4245,4231,0,0,27,,,,,,,0,0,0,-4.00,-2.00,-25.00,-24.00,0.00,-86.00,31,11.00,0.00,0.86,0.00,0.00,0.00,0,,,100,100,0,1,0,0,0,0,6,,,,,2.6,5.1,0.0,0.0,0.0,0.0,0
34.181571,-118.130747,1.10,1.20,0.00,0.10,1.10,1.10,0.50,0.17,3802,2022-06-08 12:54:25.610,2022-06-08 05:54:25.610,18,0,0,16.499,34.181570,-118.130748,0.00,0.00,0.00,0.40,-0.30,-2.50,0,1,0,91,100,-6862,3174,16499,3011.50,11,Sport,1,0,0,0,141,0,0,1654692865609,4246,4249,4245,4231,0,0,27,,,,,,,0,0,0,-4.00,-3.00,-25.00,-24.00,0.00,-86.00,31,11.00,0.00,0.96,0.00,0.00,0.00,0,,,100,100,0,1,0,0,0,0,6,,,,,2.6,5.1,0.0,0.0,0.0,0.0,0
34.181571,-118.130747,1.10,1.20,0.10,0.09,1.10,1.10,0.50,0.17,3905,2022-06-08 12:54:25.712,2022-06-08 05:54:25.712,18,0,0,16.499,34.181570,-118.130748,0.00,0.00,-0.10,0.40,-0.30,-2.50,0,1,0,91,100,-6862,3174,16499,3011.50,11,Sport,1,0,0,0,147,0,0,1654692865712,4246,4249,4245,4231,0,0,27,,,,,,,0,0,0,-4.00,-3.00,-25.00,-24.00,0.00,-86.00,31,11.00,1.00,0.95,0.00,0.00,-1.00,0,,,100,100,0,1,0,0,0,0,6,,,,,2.6,5.1,0.0,0.0,0.0,0.0,0
34.181571,-118.130747,1.10,1.20,0.10,0.09,1.10,1.10,0.50,0.17,4003,2022-06-08 12:54:25.810,2022-06-08 05:54:25.810,18,0,0,16.499,34.181570,-118.130748,0.00,0.00,-0.10,0.40,-0.20,-2.50,0,1,0,91,100,-6862,3174,16499,3011.50,11,Sport,1,0,0,0,148,0,0,1654692865810,4246,4249,4245,4231,0,0,27,,,,,,,0,0,0,-4.00,-2.00,-25.00,-24.00,0.00,-86.00,31,11.00,1.00,0.90,0.00,0.00,-1.00,0,,,100,100,0,1,0,0,0,0,6,,,,,2.6,5.1,0.0,0.0,0.0,0.0,0
34.181571,-118.130747,1.10,1.20,0.10,0.09,1.10,1.10,0.50,0.17,4103,2022-06-08 12:54:25.911,2022-06-08 05:54:25.911,18,0,0,16.499,34.181570,-118.130748,0.00,0.00,-0.10,0.40,-0.10,-2.50,0,1,0,91,100,-6862,3174,16499,3011.50,11,Sport,1,0,0,0,148,0,0,1654692865910,4246,4249,4245,4231,0,0,27,,,,,,,0,0,0,-4.00,-1.00,-25.00,-24.00,0.00,-86.00,31,11.00,1.00,0.89,0.00,0.00,-1.00,0,,,100,100,0,1,0,0,0,0,6,,,,,2.6,5.1,0.0,0.0,0.0,0.0,0
34.181571,-118.130747,1.10,1.20,0.10,0.09,1.10,1.10,0.50,0.17,4203,2022-06-08 12:54:26.011,2022-06-08 05:54:26.011,18,0,0,16.499,34.181570,-118.130748,0.00,0.00,-0.10,0.40,0.00,-2.50,0,1,0,91,100,-6862,3174,16499,3011.50,11,Sport,1,0,0,0,148,0,0,1654692866010,4246,4249,4245,4231,0,0,27,,,,,,,0,0,0,-4.00,0.00,-25.00,-24.00,0.00,-86.00,31,11.00,1.00,0.86,0.00,0.00,-1.00,0,,,100,100,0,1,0,0,0,0,6,,,,,2.6,5.1,0.0,0.0,0.0,0.0,0
34.181571,-118.130748,1.20,1.30,0.10,0.08,1.20,1.20,0.50,0.17,4303,2022-06-08 12:54:26.111,2022-06-08 05:54:26.111,18,0,0,16.430,34.181570,-118.130748,0.00,0.00,-0.10,0.40,-0.10,-2.50,0,1,0,90,100,-7385,3170,16430,3011.50,11,Sport,1,0,0,0,161,0,0,1654692866110,4246,4249,4245,4231,0,0,27,,,,,,,0,0,0,-4.00,-1.00,-25.00,-24.00,0.00,-86.00,31,12.00,1.00,0.85,0.00,0.00,-1.00,0,,,100,100,0,1,0,0,0,0,6,,,,,2.6,5.1,0.0,0.0,0.0,0.0,0
34.181571,-118.130748,1.20,1.30,0.10,0.10,1.20,1.20,0.50,0.17,4404,2022-06-08 12:54:26.212,2022-06-08 05:54:26.212,18,0,0,16.430,34.181570,-118.130748,0.00,0.00,-0.10,0.40,-0.10,-2.50,0,1,0,90,100,-7385,3170,16430,3011.50,11,Sport,1,0,0,0,168,0,0,1654692866211,4246,4249,4245,4231,0,0,27,,,,,,,0,0,0,-4.00,-1.00,-25.00,-24.00,0.00,-86.00,31,12.00,1.00,1.00,0.00,0.00,-1.00,0,,,100,100,0,1,0,0,0,0,6,,,,,2.6,5.1,0.0,0.0,0.0,0.0,0
34.181571,-118.130748,1.20,1.30,0.20,0.10,1.20,1.20,0.50,0.17,4503,2022-06-08 12:54:26.311,2022-06-08 05:54:26.311,18,0,0,16.430,34.181570,-118.130748,0.00,0.00,-0.20,0.40,0.00,-2.50,0,1,0,90,100,-7385,3170,16430,3011.50,11,Sport,1,0,0,0,168,0,0,1654692866310,4246,4249,4245,4231,0,0,27,,,,,,,0,0,0,-4.00,0.00,-25.00,-24.00,0.00,-86.00,31,12.00,2.00,1.01,0.00,0.00,-2.00,0,,,100,100,0,1,0,0,0,0,6,,,,,2.6,5.1,0.0,0.0,0.0,0.0,0
34.181571,-118.130748,1.20,1.30,0.20,0.11,1.20,1.20,0.50,0.17,4603,2022-06-08 12:54:26.411,2022-06-08 05:54:26.411,18,0,0,16.430,34.181570,-118.130748,0.00,0.00,-0.20,0.30,-0.10,-2.40,0,1,0,90,100,-7385,3170,16430,3011.50,11,Sport,1,0,0,0,168,0,0,1654692866410,4246,4249,4245,4231,0,0,27,,,,,,,0,0,0,-3.00,-1.00,-24.00,-24.00,0.00,-86.00,31,12.00,2.00,1.15,0.00,0.00,-2.00,0,,,100,100,0,1,0,0,0,0,6,,,,,2.6,5.1,0.0,0.0,0.0,0.0,0
34.181571,-118.130748,1.20,1.30,0.20,0.12,1.20,1.20,0.50,0.17,4704,2022-06-08 12:54:26.511,2022-06-08 05:54:26.511,18,0,0,16.430,34.181570,-118.130748,0.00,0.00,-0.20,0.30,-0.20,-2.40,0,1,0,90,100,-7385,3170,16430,3011.50,11,Sport,1,0,0,0,168,0,0,1654692866511,4118,4115,4108,4089,0,0,27,,,,,,,0,0,0,-3.00,-2.00,-24.00,-24.00,0.00,-86.00,31,12.00,2.00,1.17,0.00,0.00,-2.00,0,,,100,100,0,1,0,0,0,0,6,,,,,2.6,5.1,0.0,0.0,0.0,0.0,0
34.181571,-118.130747,1.30,1.40,0.20,0.13,1.30,1.30,0.50,0.17,4804,2022-06-08 12:54:26.611,2022-06-08 05:54:26.611,18,0,0,16.430,34.181570,-118.130748,0.00,0.00,-0.20,0.30,-0.40,-2.40,0,1,0,90,100,-7385,3170,16430,3011.50,11,Sport,1,0,0,0,168,0,0,1654692866611,4118,4115,4108,4089,0,0,27,,,,,,,0,0,0,-3.00,-4.00,-24.00,-24.00,0.00,-86.00,31,13.00,2.00,1.32,0.00,0.00,-2.00,0,,,100,100,0,1,0,0,0,0,6,,,,,2.6,5.1,0.0,0.0,0.0,0.0,0
34.181571,-118.130747,1.30,1.40,0.20,0.13,1.30,1.30,0.50,0.17,4903,2022-06-08 12:54:26.710,2022-06-08 05:54:26.710,18,0,0,16.430,34.181570,-118.130748,0.00,0.00,-0.20,0.20,-0.40,-2.40,0,1,0,90,100,-7385,3170,16430,3011.50,11,Sport,1,0,0,0,168,0,0,1654692866710,4118,4115,4108,4089,0,0,27,,,,,,,0,0,0,-2.00,-4.00,-24.00,-24.00,0.00,-86.00,31,13.00,2.00,1.35,0.00,0.00,-2.00,0,,,100,100,0,1,0,0,0,0,6,,,,,2.6,5.1,0.0,0.0,0.0,0.0,0
34.181571,-118.130747,1.30,1.40,0.20,0.13,1.30,1.30,0.50,0.17,5004,2022-06-08 12:54:26.811,2022-06-08 05:54:26.811,18,0,0,16.430,34.181570,-118.130748,0.00,0.00,-0.20,0.30,-0.50,-2.40,0,1,0,90,100,-7385,3170,16430,3011.50,11,Sport,1,0,0,0,168,0,0,1654692866811,4118,4115,4108,4089,0,0,27,,,,,,,0,0,0,-3.00,-5.00,-24.00,-24.00,0.00,-86.00,31,13.00,2.00,1.30,0.00,0.00,-2.00,0,,,100,100,0,1,0,0,0,0,6,,,,,2.6,5.1,0.0,0.0,0.0,0.0,0
34.181571,-118.130747,1.30,1.40,0.20,0.13,1.30,1.30,0.50,0.17,5104,2022-06-08 12:54:26.912,2022-06-08 05:54:26.912,18,0,0,16.430,34.181570,-118.130748,0.00,0.00,-0.20,0.30,-0.50,-2.40,0,1,0,90,100,-7385,3170,16430,3011.50,11,Sport,1,0,0,0,168,0,0,1654692866911,4118,4115,4108,4089,0,0,27,,,,,,,0,0,0,-3.00,-5.00,-24.00,-24.00,0.00,-86.00,31,13.00,2.00,1.32,0.00,0.00,-2.00,0,,,100,100,0,1,0,0,0,0,6,,,,,2.6,5.1,0.0,0.0,0.0,0.0,0
34.181571,-118.130747,1.40,1.50,0.20,0.13,1.40,1.40,0.50,0.17,5203,2022-06-08 12:54:27.010,2022-06-08 05:54:27.010,18,0,0,16.430,34.181570,-118.130748,0.00,0.00,-0.20,0.20,-0.40,-2.40,0,1,0,90,100,-7385,3170,16430,3011.50,11,Sport,1,0,0,0,168,0,0,1654692867010,4118,4115,4108,4089,0,0,27,,,,,,,0,0,0,-2.00,-4.00,-24.00,-24.00,0.00,-86.00,31,14.00,2.00,1.26,0.00,0.00,-2.00,0,,,100,100,0,1,0,0,0,0,6,,,,,2.6,5.1,0.0,0.0,0.0,0.0,0
34.181571,-118.130748,1.40,1.50,0.20,0.13,1.40,1.40,0.50,0.17,5304,2022-06-08 12:54:27.111,2022-06-08 05:54:27.111,18,0,0,16.430,34.181570,-118.130748,0.00,0.00,-0.20,0.20,-0.40,-2.40,0,1,0,90,100,-7385,3170,16430,3011.50,11,Sport,1,0,0,0,168,0,0,1654692867111,4118,4115,4108,4089,0,0,27,,,,,,,0,0,0,-2.00,-4.00,-24.00,-24.00,0.00,-86.00,31,14.00,2.00,1.27,0.00,0.00,-2.00,0,,,100,100,0,1,0,0,0,0,6,,,,,2.6,5.1,0.0,0.0,0.0,0.0,0
34.181571,-118.130747,1.40,1.50,0.20,0.11,1.40,1.40,0.50,0.17,5404,2022-06-08 12:54:27.211,2022-06-08 05:54:27.211,18,0,0,16.430,34.181570,-118.130748,0.00,0.00,-0.20,0.30,-0.30,-2.40,0,1,0,90,100,-7385,3170,16430,3011.50,11,Sport,1,0,0,0,168,0,0,1654692867211,4118,4115,4108,4089,0,0,27,,,,,,,0,0,0,-3.00,-3.00,-24.00,-24.00,0.00,-86.00,31,14.00,2.00,1.08,0.00,0.00,-2.00,0,,,100,100,0,1,0,0,0,0,6,,,,,2.6,5.1,0.0,0.0,0.0,0.0,0
34.181571,-118.130748,1.40,1.50,0.20,0.11,1.40,1.40,0.50,0.17,5504,2022-06-08 12:54:27.312,2022-06-08 05:54:27.312,18,0,0,16.430,34.181570,-118.130748,0.00,0.00,-0.20,0.30,-0.20,-2.50,0,1,0,90,100,-7385,3170,16430,3011.50,11,Sport,1,0,0,0,168,0,0,1654692867311,4118,4115,4108,4089,0,0,27,,,,,,,0,0,0,-3.00,-2.00,-25.00,-24.00,0.00,-86.00,31,14.00,2.00,1.08,0.00,0.00,-2.00,0,,,100,100,0,1,0,0,0,0,6,,,,,2.6,5.1,0.0,0.0,0.0,0.0,0
34.181571,-118.130747,1.50,1.60,0.20,0.13,1.50,1.50,0.50,0.17,5604,2022-06-08 12:54:27.411,2022-06-08 05:54:27.411,18,0,0,16.430,34.181570,-118.130748,0.00,0.00,-0.20,0.20,-0.20,-2.50,0,1,0,90,100,-7385,3170,16430,3011.50,11,Sport,1,0,0,0,168,0,0,1654692867411,4118,4115,4108,4089,0,0,27,,,,,,,0,0,0,-2.00,-2.00,-25.00,-24.00,0.00,-86.00,31,15.00,2.00,1.25,0.00,0.00,-2.00,0,,,100,100,0,1,0,0,0,0,6,,,,,2.6,5.1,0.0,0.0,0.0,0.0,0
34.181571,-118.130747,1.50,1.60,0.20,0.13,1.50,1.50,0.50,0.17,5705,2022-06-08 12:54:27.512,2022-06-08 05:54:27.512,18,0,0,16.430,34.181570,-118.130748,0.00,0.00,-0.20,0.20,-0.30,-2.50,0,1,0,90,100,-7385,3170,16430,3011.50,11,Sport,1,0,0,0,168,0,0,1654692867512,4118,4115,4108,4089,0,0,27,,,,,,,0,0,0,-2.00,-3.00,-25.00,-24.00,0.00,-86.00,31,15.00,2.00,1.26,0.00,0.00,-2.00,0,,,100,100,0,1,0,0,0,0,6,,,,,2.6,4.9,0.0,0.0,0.0,0.0,0
34.181571,-118.130747,1.50,1.60,0.20,0.14,1.50,1.50,0.50,0.17,5804,2022-06-08 12:54:27.611,2022-06-08 05:54:27.611,18,0,0,16.430,34.181570,-118.130748,0.00,0.00,-0.20,0.20,-0.40,-2.50,0,1,0,90,100,-7385,3170,16430,3011.50,11,Sport,1,0,0,0,168,0,0,1654692867611,4118,4115,4108,4089,0,0,27,,,,,,,0,0,0,-2.00,-4.00,-25.00,-24.00,0.00,-86.00,31,15.00,2.00,1.38,0.00,0.00,-2.00,0,,,100,100,0,1,0,0,0,0,6,,,,,2.6,4.9,0.0,0.0,0.0,0.0,0
34.181571,-118.130747,1.50,1.60,0.20,0.14,1.50,1.50,0.50,0.17,5905,2022-06-08 12:54:27.712,2022-06-08 05:54:27.712,18,0,0,16.430,34.181570,-118.130748,0.00,0.00,-0.20,0.10,-0.60,-2.50,0,1,0,90,100,-7385,3170,16430,3011.50,11,Sport,1,0,0,0,168,0,0,1654692867712,4118,4115,4108,4089,0,0,27,,,,,,,0,0,0,-1.00,-6.00,-25.00,-24.00,0.00,-86.00,31,15.00,2.00,1.40,0.00,0.00,-2.00,0,,,100,100,0,1,0,0,0,0,6,,,,,2.6,4.8,0.0,0.0,0.0,0.0,0
34.181571,-118.130747,1.50,1.70,0.20,0.14,1.50,1.50,0.50,0.17,6004,2022-06-08 12:54:27.812,2022-06-08 05:54:27.812,18,0,0,16.430,34.181570,-118.130748,0.00,0.00,-0.20,0.10,-0.60,-2.40,0,1,0,90,100,-7385,3170,16430,3011.50,11,Sport,1,0,0,0,168,0,0,1654692867811,4118,4115,4108,4089,0,0,27,,,,,,,0,0,0,-1.00,-6.00,-24.00,-24.00,0.00,-86.00,31,15.00,2.00,1.39,0.00,0.00,-2.00,0,,,100,100,0,1,0,0,0,0,6,,,,,2.6,4.8,0.0,0.0,0.0,0.0,0
34.181571,-118.130747,1.60,1.70,0.20,0.14,1.60,1.60,0.50,0.17,6104,2022-06-08 12:54:27.912,2022-06-08 05:54:27.912,18,0,0,16.430,34.181570,-118.130748,0.00,0.00,-0.20,0.10,-0.60,-2.40,0,1,0,90,100,-7385,3170,16430,3011.50,11,Sport,1,0,0,0,168,0,0,1654692867911,4118,4115,4108,4089,0,0,27,,,,,,,0,0,0,-1.00,-6.00,-24.00,-24.00,0.00,-86.00,31,16.00,2.00,1.41,0.00,0.00,-2.00,0,,,100,100,0,1,0,0,0,0,6,,,,,2.6,4.0,0.0,0.0,0.0,0.0,0
34.181571,-118.130747,1.60,1.70,0.20,0.16,1.60,1.60,0.50,0.17,6205,2022-06-08 12:54:28.012,2022-06-08 05:54:28.012,17,0,0,16.430,34.181570,-118.130748,0.00,0.00,-0.20,0.10,-0.60,-2.40,0,1,0,90,100,-7385,3170,16430,3011.50,11,Sport,1,0,0,0,168,0,0,1654692868012,4118,4115,4108,4089,0,0,27,,,,,,,0,0,0,-1.00,-6.00,-24.00,-24.00,0.00,-86.00,31,16.00,2.00,1.57,0.00,0.00,-2.00,0,,,100,100,0,1,0,0,0,0,6,,,,,2.6,4.0,0.0,0.0,0.0,0.0,0
34.181571,-118.130747,1.60,1.70,0.20,0.16,1.60,1.60,0.50,0.17,6305,2022-06-08 12:54:28.112,2022-06-08 05:54:28.112,17,0,0,16.425,34.181570,-118.130748,0.00,0.00,-0.20,0.10,-0.50,-2.40,0,1,0,90,100,-7425,3168,16425,3011.50,11,Sport,1,0,0,0,168,0,0,1654692868112,4118,4115,4108,4089,0,0,27,,,,,,,0,0,0,-1.00,-5.00,-24.00,-24.00,0.00,-86.00,31,16.00,2.00,1.60,0.00,0.00,-2.00,0,,,100,100,0,1,0,0,0,0,6,,,,,2.6,4.0,0.0,0.0,0.0,0.0,0
34.181571,-118.130747,1.60,1.80,0.20,0.14,1.60,1.60,0.50,0.17,6404,2022-06-08 12:54:28.212,2022-06-08 05:54:28.212,17,0,0,16.425,34.181570,-118.130748,0.00,0.00,-0.20,0.10,-0.50,-2.40,0,1,0,90,100,-7425,3168,16425,3011.50,11,Sport,1,0,0,0,168,0,0,1654692868211,4118,4115,4108,4089,0,0,27,,,,,,,0,0,0,-1.00,-5.00,-24.00,-24.00,0.00,-86.00,31,16.00,2.00,1.44,0.00,0.00,-2.00,0,,,100,100,0,1,0,0,0,0,6,,,,,2.6,4.0,0.0,0.0,0.0,0.0,0
34.181571,-118.130747,1.70,1.80,0.20,0.15,1.70,1.70,0.50,0.17,6505,2022-06-08 12:54:28.312,2022-06-08 05:54:28.312,17,0,0,16.425,34.181570,-118.130748,0.00,0.00,-0.20,0.10,-0.50,-2.40,0,1,0,90,100,-7425,3168,16425,3011.50,11,Sport,1,0,0,0,168,0,0,1654692868312,4118,4115,4108,4089,0,0,27,,,,,,,0,0,0,-1.00,-5.00,-24.00,-24.00,0.00,-86.00,31,17.00,2.00,1.46,0.00,0.00,-2.00,0,,,100,100,0,1,0,0,0,0,6,,,,,2.6,4.0,0.0,0.0,0.0,0.0,0
34.181571,-118.130747,1.70,1.80,0.20,0.15,1.70,1.70,0.50,0.17,6605,2022-06-08 12:54:28.412,2022-06-08 05:54:28.412,18,0,0,16.425,34.181570,-118.130748,0.00,0.00,-0.20,0.10,-0.40,-2.40,0,1,0,90,100,-7425,3168,16425,3011.50,11,Sport,1,0,0,0,168,0,0,1654692868412,4118,4115,4108,4089,0,0,27,,,,,,,0,0,0,-1.00,-4.00,-24.00,-24.00,0.00,-86.00,31,17.00,2.00,1.49,0.00,0.00,-2.00,0,,,100,100,0,1,0,0,0,0,6,,,,,2.6,4.0,0.0,0.0,0.0,0.0,0
34.181571,-118.130747,1.70,1.80,0.20,0.15,1.70,1.70,0.50,0.17,6705,2022-06-08 12:54:28.512,2022-06-08 05:54:28.512,18,0,0,16.425,34.181570,-118.130748,0.00,0.00,-0.20,0.10,-0.40,-2.50,0,1,0,90,100,-7425,3168,16425,3011.50,11,Sport,1,0,0,0,168,0,0,1654692868512,4118,4115,4108,4089,0,0,27,,,,,,,0,0,0,-1.00,-4.00,-25.00,-24.00,0.00,-86.00,31,17.00,2.00,1.52,0.00,0.00,-2.00,0,,,100,100,0,1,0,0,0,0,6,,,,,2.6,4.0,0.0,0.0,0.0,0.0,0
34.181571,-118.130747,1.70,1.90,0.20,0.14,1.70,1.70,0.50,0.17,6805,2022-06-08 12:54:28.613,2022-06-08 05:54:28.613,18,0,0,16.425,34.181570,-118.130748,0.00,0.00,-0.20,0.10,-0.40,-2.50,0,1,0,90,100,-7425,3168,16425,3011.50,11,Sport,1,0,0,0,168,0,0,1654692868612,4118,4115,4108,4089,0,0,27,,,,,,,0,0,0,-1.00,-4.00,-25.00,-24.00,0.00,-86.00,31,17.00,2.00,1.42,0.00,0.00,-2.00,0,,,100,100,0,1,0,0,0,0,6,,,,,2.6,4.0,0.0,0.0,0.0,0.0,0
34.181571,-118.130747,1.80,1.90,0.20,0.14,1.80,1.80,0.50,0.17,6905,2022-06-08 12:54:28.712,2022-06-08 05:54:28.712,18,0,0,16.425,34.181570,-118.130748,0.00,0.00,-0.20,0.10,-0.50,-2.50,0,1,0,90,100,-7425,3168,16425,3011.50,11,Sport,1,0,0,0,168,0,0,1654692868712,4118,4115,4108,4089,0,0,27,,,,,,,0,0,0,-1.00,-5.00,-25.00,-24.00,0.00,-86.00,31,18.00,2.00,1.44,0.00,0.00,-2.00,0,,,100,100,0,1,0,0,0,0,6,,,,,2.6,4.0,0.0,0.0,0.0,0.0,0
34.181571,-118.130747,1.80,1.90,0.20,0.13,1.80,1.80,0.50,0.17,7006,2022-06-08 12:54:28.813,2022-06-08 05:54:28.813,18,0,0,16.425,34.181570,-118.130748,0.00,0.00,-0.20,0.10,-0.60,-2.50,0,1,0,90,100,-7425,3168,16425,3011.50,11,Sport,1,0,0,0,167,0,0,1654692868813,4118,4115,4108,4089,0,0,27,,,,,,,0,0,0,-1.00,-6.00,-25.00,-24.00,0.00,-86.00,31,18.00,2.00,1.29,0.00,0.00,-2.00,0,,,100,100,0,1,0,0,0,0,6,,,,,2.6,4.0,0.0,0.0,0.0,0.0,0
34.181571,-118.130747,1.80,1.90,0.20,0.13,1.80,1.80,0.50,0.17,7104,2022-06-08 12:54:28.912,2022-06-08 05:54:28.912,18,0,0,16.425,34.181570,-118.130748,0.00,0.00,-0.20,0.20,-0.70,-2.50,0,1,0,90,100,-7425,3168,16425,3011.50,11,Sport,1,0,0,0,164,0,0,1654692868911,4118,4115,4108,4089,0,0,27,,,,,,,0,0,0,-2.00,-7.00,-25.00,-24.00,0.00,-86.00,31,18.00,2.00,1.30,0.00,0.00,-2.00,0,,,100,100,0,1,0,0,0,0,6,,,,,2.6,4.0,0.0,0.0,0.0,0.0,0
34.181571,-118.130747,1.80,2.00,0.20,0.13,1.80,1.80,0.50,0.17,7205,2022-06-08 12:54:29.013,2022-06-08 05:54:29.013,18,0,0,16.425,34.181570,-118.130748,0.00,0.00,-0.20,0.20,-0.70,-2.50,0,1,0,90,100,-7425,3168,16425,3011.50,11,Sport,1,0,0,0,163,0,0,1654692869012,4118,4115,4108,4089,0,0,27,,,,,,,0,0,0,-2.00,-7.00,-25.00,-24.00,0.00,-86.00,31,18.00,2.00,1.28,0.00,0.00,-2.00,0,,,100,100,0,1,0,0,0,0,6,,,,,2.6,4.0,0.0,0.0,0.0,0.0,0
34.181571,-118.130747,1.90,2.00,0.20,0.13,1.90,1.90,0.50,0.17,7305,2022-06-08 12:54:29.112,2022-06-08 05:54:29.112,18,0,0,16.425,34.181570,-118.130748,0.00,0.00,-0.20,0.30,-0.70,-2.50,0,1,0,90,100,-7425,3168,16425,3011.50,11,Sport,1,0,0,0,149,0,0,1654692869112,4118,4115,4108,4089,0,0,27,,,,,,,0,0,0,-3.00,-7.00,-25.00,-24.00,0.00,-86.00,31,19.00,2.00,1.28,0.00,0.00,-2.00,0,,,100,100,0,1,0,0,0,0,6,,,,,2.6,4.0,0.0,0.0,0.0,0.0,0
34.181571,-118.130747,1.90,2.00,0.20,0.10,1.90,1.90,0.50,0.17,7406,2022-06-08 12:54:29.213,2022-06-08 05:54:29.213,18,0,0,16.425,34.181570,-118.130748,0.00,0.00,-0.20,0.20,-0.60,-2.50,0,1,0,90,100,-7425,3168,16425,3011.50,11,Sport,1,0,0,0,0,0,0,1654692869213,4118,4115,4108,4089,0,0,27,,,,,,,0,0,0,-2.00,-6.00,-25.00,-24.00,0.00,-86.00,31,19.00,2.00,0.98,0.00,0.00,-2.00,0,,,100,100,0,1,0,0,0,0,6,,,,,2.6,4.0,0.0,0.0,0.0,0.0,0
34.181571,-118.130747,1.90,2.00,0.10,0.10,1.90,1.90,0.50,0.17,7505,2022-06-08 12:54:29.312,2022-06-08 05:54:29.312,18,0,0,16.425,34.181570,-118.130748,0.00,0.00,-0.10,0.30,-0.50,-2.50,0,1,0,90,100,-7425,3168,16425,3011.50,11,Sport,1,0,0,0,0,0,0,1654692869312,4118,4115,4108,4089,0,0,27,,,,,,,0,0,0,-3.00,-5.00,-25.00,-24.00,0.00,-86.00,31,19.00,1.00,0.95,0.00,0.00,-1.00,0,,,100,100,0,1,0,0,0,0,6,,,,,2.6,4.0,0.0,0.0,0.0,0.0,0
34.181571,-118.130747,1.90,2.00,0.00,0.11,1.90,1.90,0.50,0.17,7606,2022-06-08 12:54:29.413,2022-06-08 05:54:29.413,18,0,0,16.425,34.181570,-118.130748,0.00,0.00,0.00,0.30,-0.50,-2.50,0,1,0,90,100,-7425,3168,16425,3011.50,11,Sport,1,0,0,0,0,0,0,1654692869413,4118,4115,4108,4089,0,0,27,,,,,,,0,0,0,-3.00,-5.00,-25.00,-24.00,0.00,-86.00,31,19.00,0.00,1.06,0.00,0.00,0.00,0,,,100,100,0,1,0,0,0,0,6,,,,,2.6,4.0,0.0,0.0,0.0,0.0,0
34.181571,-118.130748,1.90,2.00,0.00,0.10,1.90,1.90,0.50,0.17,7705,2022-06-08 12:54:29.512,2022-06-08 05:54:29.512,18,0,0,16.425,34.181570,-118.130748,0.00,0.00,0.00,0.30,-0.60,-2.50,0,1,0,90,100,-7425,3168,16425,3011.50,11,Sport,1,0,0,0,0,0,0,1654692869512,4118,4115,4108,4089,0,0,27,,,,,,,0,0,0,-3.00,-6.00,-25.00,-24.00,0.00,-86.00,31,19.00,0.00,1.04,0.00,0.00,0.00,0,,,100,100,0,1,0,0,0,0,6,,,,,2.7,4.0,0.0,0.0,0.0,0.0,0
34.181571,-118.130748,1.90,2.00,0.00,0.12,1.90,1.90,0.50,0.17,7805,2022-06-08 12:54:29.612,2022-06-08 05:54:29.612,18,0,0,16.425,34.181570,-118.130748,0.00,0.00,0.00,0.30,-0.60,-2.50,0,1,0,90,100,-7425,3168,16425,3011.50,11,Sport,1,0,0,0,0,0,0,1654692869612,4118,4115,4108,4089,0,0,27,,,,,,,0,0,0,-3.00,-6.00,-25.00,-24.00,0.00,-86.00,31,19.00,0.00,1.21,0.00,0.00,0.00,0,,,100,100,0,1,0,0,0,0,6,,,,,2.7,4.0,0.0,0.0,0.0,0.0,0
34.181571,-118.130748,1.90,2.00,0.00,0.12,1.90,1.90,0.50,0.17,7906,2022-06-08 12:54:29.713,2022-06-08 05:54:29.713,18,0,0,16.425,34.181570,-118.130748,0.00,0.00,0.00,0.30,-0.50,-2.50,0,1,0,90,100,-7425,3168,16425,3011.50,11,Sport,1,0,0,0,22,0,0,1654692869713,4118,4115,4108,4089,0,0,27,,,,,,,0,0,0,-3.00,-5.00,-25.00,-24.00,0.00,-86.00,31,19.00,0.00,1.22,0.00,0.00,0.00,0,,,100,100,0,1,0,0,0,0,6,,,,,3.3,4.0,0.0,0.0,0.0,0.0,0
34.181571,-118.130748,1.90,2.00,0.00,0.15,1.90,1.90,0.50,0.17,8006,2022-06-08 12:54:29.813,2022-06-08 05:54:29.813,18,0,0,16.425,34.181570,-118.130748,0.00,0.00,0.00,0.30,-0.30,-2.60,0,1,0,90,100,-7425,3168,16425,3011.50,11,Sport,1,0,0,0,56,0,0,1654692869813,4118,4115,4108,4089,0,0,27,,,,,,,0,0,0,-3.00,-3.00,-26.00,-24.00,0.00,-86.00,31,19.00,0.00,1.53,0.00,0.00,0.00,0,,,100,100,0,1,0,0,0,0,6,,,,,3.3,4.0,0.0,0.0,0.0,0.0,0
34.181571,-118.130748,1.90,2.00,0.00,0.16,1.90,1.90,0.50,0.17,8106,2022-06-08 12:54:29.914,2022-06-08 05:54:29.914,18,0,0,16.425,34.181570,-118.130748,0.00,0.00,0.00,0.30,0.00,-2.60,0,1,0,90,100,-7425,3168,16425,3011.50,11,Sport,1,0,0,0,0,0,0,1654692869913,4118,4115,4108,4089,0,0,27,,,,,,,0,0,0,-3.00,0.00,-26.00,-24.00,0.00,-86.00,31,19.00,0.00,1.57,0.00,0.00,0.00,0,,,100,100,0,1,0,0,0,0,6,,,,,3.3,4.0,0.0,0.0,0.0,0.0,0
34.181571,-118.130748,1.90,2.00,0.00,0.17,1.90,1.90,0.50,0.17,8205,2022-06-08 12:54:30.012,2022-06-08 05:54:30.012,18,0,0,16.425,34.181570,-118.130748,0.00,0.00,0.00,0.40,0.00,-2.60,0,1,0,90,100,-7425,3168,16425,3011.50,11,Sport,1,0,0,0,0,0,0,1654692870012,4118,4115,4108,4089,0,0,27,,,,,,,0,0,0,-4.00,0.00,-26.00,-24.00,0.00,-86.00,31,19.00,0.00,1.69,0.00,0.00,0.00,0,,,100,100,0,1,0,0,0,0,6,,,,,3.3,4.0,0.0,0.0,0.0,0.0,0
34.181571,-118.130748,1.90,2.00,0.00,0.17,1.90,1.90,0.50,0.17,8306,2022-06-08 12:54:30.113,2022-06-08 05:54:30.113,18,0,0,16.401,34.181570,-118.130748,0.00,0.00,0.00,0.30,-0.10,-2.60,0,1,0,90,100,-7326,3164,16401,3011.50,11,Sport,1,0,0,0,0,0,0,1654692870113,4118,4115,4108,4089,0,0,27,,,,,,,0,0,0,-3.00,-1.00,-26.00,-24.00,0.00,-86.00,31,19.00,0.00,1.75,0.00,0.00,0.00,0,,,100,100,0,1,0,0,0,0,6,,,,,3.3,4.0,0.0,0.0,0.0,0.0,0
34.181572,-118.130748,1.90,2.00,0.00,0.18,1.90,1.90,0.50,0.18,8406,2022-06-08 12:54:30.213,2022-06-08 05:54:30.213,18,0,0,16.401,34.181570,-118.130748,0.00,0.00,0.00,0.30,-0.10,-2.60,0,1,0,90,100,-7326,3164,16401,3011.50,11,Sport,1,0,0,0,134,0,0,1654692870213,4118,4115,4108,4089,0,0,27,,,,,,,0,0,0,-3.00,-1.00,-26.00,-24.00,0.00,-86.00,31,19.00,0.00,1.83,0.00,0.00,0.00,0,,,100,100,0,1,0,0,0,0,6,,,,,3.3,4.0,0.0,0.0,0.0,0.0,0
34.181572,-118.130748,1.90,2.00,0.00,0.19,1.90,1.90,0.50,0.19,8505,2022-06-08 12:54:30.313,2022-06-08 05:54:30.313,18,0,0,16.401,34.181570,-118.130748,0.00,0.00,0.00,0.40,0.00,-2.60,0,1,0,90,100,-7326,3164,16401,3011.50,11,Sport,1,0,0,0,0,0,0,1654692870312,4118,4115,4108,4089,0,0,27,,,,,,,0,0,0,-4.00,0.00,-26.00,-24.00,0.00,-86.00,31,19.00,0.00,1.89,0.00,0.00,0.00,0,,,100,100,0,1,0,0,0,0,6,,,,,3.3,4.0,0.0,0.0,0.0,0.0,0
34.181572,-118.130748,1.90,2.00,0.00,0.20,1.90,1.90,0.50,0.20,8606,2022-06-08 12:54:30.413,2022-06-08 05:54:30.413,18,0,0,16.401,34.181570,-118.130748,0.00,0.00,0.00,0.40,0.00,-2.60,0,1,0,90,100,-7326,3164,16401,3011.50,11,Sport,1,0,0,0,0,0,0,1654692870413,4118,4115,4108,4089,0,0,27,,,,,,,0,0,0,-4.00,0.00,-26.00,-24.00,0.00,-86.00,31,19.00,0.00,1.95,0.00,0.00,0.00,0,,,100,100,0,1,0,0,0,0,6,,,,,3.3,4.0,0.0,0.0,0.0,0.0,0
34.181572,-118.130748,1.90,2.00,0.00,0.20,1.90,1.90,0.50,0.20,8706,2022-06-08 12:54:30.513,2022-06-08 05:54:30.513,18,0,0,16.401,34.181570,-118.130748,0.00,0.00,0.00,0.40,-0.10,-2.60,0,1,0,90,100,-7326,3164,16401,3011.50,11,Sport,1,0,0,0,0,0,0,1654692870513,4118,4115,4108,4089,0,0,27,,,,,,,0,0,0,-4.00,-1.00,-26.00,-24.00,0.00,-86.00,31,19.00,0.00,2.02,0.00,0.00,0.00,0,,,100,100,0,1,0,0,0,0,6,,,,,3.3,4.0,0.0,0.0,0.0,0.0,0
34.181572,-118.130748,1.90,2.00,0.00,0.21,1.90,1.90,0.50,0.21,8807,2022-06-08 12:54:30.614,2022-06-08 05:54:30.614,18,0,0,16.401,34.181570,-118.130748,0.00,0.00,0.00,0.40,-0.40,-2.60,0,1,0,90,100,-7326,3164,16401,3011.50,11,Sport,1,0,0,0,0,0,0,1654692870614,4118,4115,4108,4089,0,0,27,,,,,,,0,0,0,-4.00,-4.00,-26.00,-24.00,0.00,-86.00,31,19.00,0.00,2.09,0.00,0.00,0.00,0,,,100,100,0,1,0,0,0,0,6,,,,,3.3,4.0,0.0,0.0,0.0,0.0,0
34.181572,-118.130748,1.90,2.00,0.00,0.22,1.90,1.90,0.50,0.22,8906,2022-06-08 12:54:30.713,2022-06-08 05:54:30.713,18,0,0,16.401,34.181570,-118.130748,0.00,0.00,0.00,0.40,-0.50,-2.60,0,1,0,90,100,-7326,3164,16401,3011.50,11,Sport,1,0,0,0,146,0,0,1654692870713,4118,4115,4108,4089,0,0,27,,,,,,,0,0,0,-4.00,-5.00,-26.00,-24.00,0.00,-86.00,31,19.00,0.00,2.15,0.00,0.00,0.00,0,,,100,100,0,1,0,0,0,0,6,,,,,3.3,4.0,0.0,0.0,0.0,0.0,0
34.181572,-118.130748,1.90,2.00,0.00,0.21,1.90,1.90,0.50,0.22,9006,2022-06-08 12:54:30.813,2022-06-08 05:54:30.813,18,0,0,16.401,34.181570,-118.130748,0.00,0.00,0.00,0.50,-0.40,-2.60,0,1,0,90,100,-7326,3164,16401,3011.50,11,Sport,1,0,0,0,24,0,0,1654692870813,4118,4115,4108,4089,0,0,27,,,,,,,0,0,0,-5.00,-4.00,-26.00,-24.00,0.00,-86.00,31,19.00,0.00,2.07,0.00,0.00,0.00,0,,,100,100,0,1,0,0,0,0,6,,,,,3.3,4.0,0.0,0.0,0.0,0.0,0
34.181572,-118.130748,1.90,2.10,0.00,0.21,1.90,1.90,0.50,0.22,9106,2022-06-08 12:54:30.913,2022-06-08 05:54:30.913,18,0,0,16.401,34.181570,-118.130748,0.00,0.00,0.00,0.40,-0.20,-2.60,0,1,0,90,100,-7326,3164,16401,3011.50,11,Sport,1,0,0,0,0,0,0,1654692870913,4118,4115,4108,4089,0,0,27,,,,,,,0,0,0,-4.00,-2.00,-26.00,-24.00,0.00,-86.00,31,19.00,0.00,2.12,0.00,0.00,0.00,0,,,100,100,0,1,0,0,0,0,6,,,,,3.3,4.0,0.0,0.0,0.0,0.0,0
34.181572,-118.130748,1.90,2.10,0.00,0.22,1.90,1.90,0.50,0.22,9207,2022-06-08 12:54:31.015,2022-06-08 05:54:31.015,18,0,0,16.401,34.181570,-118.130748,0.00,0.00,0.00,0.40,-0.20,-2.60,0,1,0,90,100,-7326,3164,16401,3011.50,11,Sport,1,0,0,0,0,0,0,1654692871014,4118,4115,4108,4089,0,0,27,,,,,,,0,0,0,-4.00,-2.00,-26.00,-24.00,0.00,-86.00,31,19.00,0.00,2.17,0.00,0.00,0.00,0,,,100,100,0,1,0,0,0,0,6,,,,,3.3,4.0,0.0,0.0,0.0,0.0,0
34.181572,-118.130748,1.90,2.10,0.00,0.22,1.90,1.90,0.50,0.22,9306,2022-06-08 12:54:31.114,2022-06-08 05:54:31.114,18,0,0,16.401,34.181570,-118.130748,0.00,0.00,0.00,0.40,-0.50,-2.60,0,1,0,90,100,-7326,3164,16401,3011.50,11,Sport,1,0,0,0,32,0,0,1654692871113,4118,4115,4108,4089,0,0,27,,,,,,,0,0,0,-4.00,-5.00,-26.00,-24.00,0.00,-86.00,31,19.00,0.00,2.22,0.00,0.00,0.00,0,,,100,100,0,1,0,0,0,0,6,,,,,3.3,4.0,0.0,0.0,0.0,0.0,0
34.181572,-118.130748,1.90,2.10,0.00,0.23,1.90,1.90,0.50,0.23,9406,2022-06-08 12:54:31.214,2022-06-08 05:54:31.214,18,0,0,16.401,34.181570,-118.130748,0.00,0.00,0.00,0.40,-0.60,-2.60,0,1,0,90,100,-7326,3164,16401,3011.50,11,Sport,1,0,0,0,250,0,0,1654692871213,4118,4115,4108,4089,0,0,27,,,,,,,0,0,0,-4.00,-6.00,-26.00,-24.00,0.00,-86.00,31,19.00,0.00,2.31,0.00,0.00,0.00,0,,,100,100,0,1,0,0,0,0,6,,,,,3.3,4.0,0.0,0.0,0.0,0.0,0
34.181572,-118.130748,1.90,2.10,0.10,0.24,1.90,1.90,0.50,0.24,9506,2022-06-08 12:54:31.314,2022-06-08 05:54:31.314,18,0,0,16.401,34.181570,-118.130748,0.00,0.00,-0.10,0.20,-0.40,-2.60,0,1,0,90,100,-7326,3164,16401,3011.50,11,Sport,1,0,0,0,146,0,0,1654692871313,4118,4115,4108,4089,0,0,27,,,,,,,0,0,0,-2.00,-4.00,-26.00,-24.00,0.00,-86.00,31,19.00,1.00,2.37,0.00,0.00,-1.00,0,,,100,100,0,1,0,0,0,0,6,,,,,3.3,4.0,0.0,0.0,0.0,0.0,0
34.181572,-118.130748,2.00,2.10,0.30,0.23,2.00,2.00,0.50,0.24,9606,2022-06-08 12:54:31.413,2022-06-08 05:54:31.413,18,0,0,16.401,34.181570,-118.130748,0.00,0.00,-0.30,0.30,-0.20,-2.60,0,1,0,90,100,-7326,3164,16401,3011.50,11,Sport,1,0,0,0,0,0,0,1654692871413,4118,4115,4108,4089,0,0,27,,,,,,,0,0,0,-3.00,-2.00,-26.00,-24.00,0.00,-86.00,31,20.00,3.00,2.30,0.00,0.00,-3.00,0,,,100,100,0,1,0,0,0,0,6,,,,,3.3,4.0,0.0,0.0,0.0,0.0,0
34.181572,-118.130748,2.00,2.10,0.10,0.23,2.00,2.00,0.50,0.24,9706,2022-06-08 12:54:31.514,2022-06-08 05:54:31.514,18,0,0,16.401,34.181570,-118.130748,0.00,0.00,-0.10,0.50,-0.20,-2.60,0,1,0,90,100,-7326,3164,16401,3011.50,11,Sport,1,0,0,0,0,0,0,1654692871513,4118,4115,4108,4089,0,0,27,,,,,,,0,0,0,-5.00,-2.00,-26.00,-24.00,0.00,-86.00,31,20.00,1.00,2.34,0.00,0.00,-1.00,0,,,100,100,0,1,0,0,0,0,6,,,,,3.3,4.0,0.0,0.0,0.0,0.0,0
34.181572,-118.130748,2.00,2.10,0.00,0.24,2.00,2.00,0.50,0.24,9807,2022-06-08 12:54:31.615,2022-06-08 05:54:31.615,17,0,0,16.401,34.181570,-118.130748,0.00,0.00,0.00,0.50,-0.50,-2.60,0,1,0,90,100,-7326,3164,16401,3011.50,11,Sport,1,0,0,0,0,0,0,1654692871614,4118,4115,4108,4089,0,0,27,,,,,,,0,0,0,-5.00,-5.00,-26.00,-24.00,0.00,-86.00,31,20.00,0.00,2.41,0.00,0.00,0.00,0,,,100,100,0,1,0,0,0,0,6,,,,,3.3,4.0,0.0,0.0,0.0,0.0,0
34.181572,-118.130748,2.00,2.10,0.00,0.25,2.00,2.00,0.50,0.25,9907,2022-06-08 12:54:31.715,2022-06-08 05:54:31.715,17,0,0,16.401,34.181570,-118.130748,0.00,0.00,0.00,0.40,-0.60,-2.60,0,1,0,90,100,-7326,3164,16401,3011.50,11,Sport,1,0,0,0,209,0,0,1654692871714,4118,4115,4108,4089,0,0,27,,,,,,,0,0,0,-4.00,-6.00,-26.00,-24.00,0.00,-86.00,31,20.00,0.00,2.46,0.00,0.00,0.00,0,,,100,100,0,1,0,0,0,0,6,,,,,3.3,4.0,0.0,0.0,0.0,0.0,0
34.181572,-118.130749,2.00,2.20,0.00,0.26,2.00,2.00,0.50,0.26,10007,2022-06-08 12:54:31.815,2022-06-08 05:54:31.815,17,0,0,16.401,34.181570,-118.130748,0.00,0.00,0.00,0.40,-0.60,-2.60,0,1,0,90,100,-7326,3164,16401,3011.50,11,Sport,1,0,0,0,46,0,0,1654692871814,4118,4115,4108,4089,0,0,27,,,,,,,0,0,0,-4.00,-6.00,-26.00,-24.00,0.00,-86.00,31,20.00,0.00,2.55,0.00,0.00,0.00,0,,,100,100,0,1,0,0,0,0,6,,,,,3.3,4.0,0.0,0.0,0.0,0.0,0
34.181572,-118.130749,2.00,2.20,0.20,0.26,2.00,2.00,0.50,0.26,10106,2022-06-08 12:54:31.914,2022-06-08 05:54:31.914,17,0,0,16.401,34.181570,-118.130748,0.00,0.00,-0.20,0.30,-0.50,-2.60,0,1,0,90,100,-7326,3164,16401,3011.50,11,Sport,1,0,0,0,0,0,0,1654692871913,4118,4115,4108,4089,0,0,27,,,,,,,0,0,0,-3.00,-5.00,-26.00,-24.00,0.00,-86.00,31,20.00,2.00,2.60,0.00,0.00,-2.00,0,,,100,100,0,1,0,0,0,0,6,,,,,3.3,4.0,0.0,0.0,0.0,0.0,0
34.181572,-118.130749,2.10,2.20,0.10,0.27,2.10,2.10,0.50,0.27,10207,2022-06-08 12:54:32.014,2022-06-08 05:54:32.015,17,0,0,16.401,34.181570,-118.130748,0.00,0.00,-0.10,0.40,-0.40,-2.60,0,1,0,90,100,-7326,3164,16401,3011.50,11,Sport,1,0,0,0,0,0,0,1654692872014,4118,4115,4108,4089,0,0,27,,,,,,,0,0,0,-4.00,-4.00,-26.00,-24.00,0.00,-86.00,31,21.00,1.00,2.70,0.00,0.00,-1.00,0,,,100,100,0,1,0,0,0,0,6,,,,,3.3,4.0,0.0,0.0,0.0,0.0,0
34.181572,-118.130749,2.10,2.20,0.00,0.28,2.10,2.10,0.50,0.28,10309,2022-06-08 12:54:32.116,2022-06-08 05:54:32.116,17,0,0,16.334,34.181570,-118.130748,0.00,0.00,0.00,0.40,-0.40,-2.60,0,1,0,90,100,-7264,3162,16334,3011.50,11,Sport,1,0,0,0,0,0,0,1654692872116,4118,4115,4108,4089,0,0,27,,,,,,,0,0,0,-4.00,-4.00,-26.00,-24.00,0.00,-86.00,31,21.00,0.00,2.76,0.00,0.00,0.00,0,,,100,100,0,1,0,0,0,0,6,,,,,3.3,4.0,0.0,0.0,0.0,0.0,0
34.181572,-118.130749,2.10,2.20,0.00,0.29,2.10,2.10,0.50,0.29,10407,2022-06-08 12:54:32.214,2022-06-08 05:54:32.214,17,0,0,16.334,34.181570,-118.130748,0.00,0.00,0.00,0.30,-0.60,-2.60,0,1,0,90,100,-7264,3162,16334,3011.50,11,Sport,1,0,0,0,0,0,0,1654692872214,4118,4115,4108,4089,0,0,27,,,,,,,0,0,0,-3.00,-6.00,-26.00,-24.00,0.00,-86.00,31,21.00,0.00,2.86,0.00,0.00,0.00,0,,,100,100,0,1,0,0,0,0,6,,,,,3.3,4.0,0.0,0.0,0.0,0.0,0
34.181572,-118.130749,2.10,2.20,0.00,0.29,2.10,2.10,0.50,0.29,10509,2022-06-08 12:54:32.317,2022-06-08 05:54:32.317,17,0,0,16.334,34.181570,-118.130748,0.00,0.00,0.00,0.30,-0.60,-2.60,0,1,0,90,100,-7264,3162,16334,3011.50,11,Sport,1,0,0,0,0,0,0,1654692872316,4118,4115,4108,4089,0,0,27,,,,,,,0,0,0,-3.00,-6.00,-26.00,-24.00,0.00,-86.00,31,21.00,0.00,2.92,0.00,0.00,0.00,0,,,100,100,0,1,0,0,0,0,6,,,,,3.3,4.0,0.0,0.0,0.0,0.0,0
34.181572,-118.130749,2.10,2.20,0.00,0.30,2.10,2.10,0.50,0.30,10608,2022-06-08 12:54:32.416,2022-06-08 05:54:32.416,18,0,0,16.334,34.181570,-118.130748,0.00,0.00,0.00,0.30,-0.50,-2.60,0,1,0,90,100,-7264,3162,16334,3011.50,11,Sport,1,0,0,0,0,0,0,1654692872415,4118,4115,4108,4089,0,0,27,,,,,,,0,0,0,-3.00,-5.00,-26.00,-24.00,0.00,-86.00,31,21.00,0.00,3.01,0.00,0.00,0.00,0,,,100,100,0,1,0,0,0,0,6,,,,,3.3,4.0,0.0,0.0,0.0,0.0,0
34.181572,-118.130749,2.10,2.20,0.00,0.31,2.10,2.10,0.50,0.31,10707,2022-06-08 12:54:32.515,2022-06-08 05:54:32.515,18,0,0,16.334,34.181570,-118.130748,0.00,0.00,0.00,0.20,-0.40,-2.60,0,1,0,90,100,-7264,3162,16334,3011.50,11,Sport,1,0,0,0,0,0,0,1654692872514,4118,4115,4108,4089,0,0,27,,,,,,,0,0,0,-2.00,-4.00,-26.00,-24.00,0.00,-86.00,31,21.00,0.00,3.08,0.00,0.00,0.00,0,,,100,100,0,1,0,0,0,0,6,,,,,3.3,4.0,0.0,0.0,0.0,0.0,0
34.181573,-118.130749,2.10,2.20,0.00,0.32,2.10,2.10,0.50,0.32,10808,2022-06-08 12:54:32.615,2022-06-08 05:54:32.615,18,0,0,16.334,34.181570,-118.130748,0.00,0.00,0.00,0.30,-0.30,-2.50,0,1,0,90,100,-7264,3162,16334,3011.50,11,Sport,1,0,0,0,0,0,0,1654692872615,4118,4115,4108,4089,0,0,27,,,,,,,0,0,0,-3.00,-3.00,-25.00,-24.00,0.00,-86.00,31,21.00,0.00,3.16,0.00,0.00,0.00,0,,,100,100,0,1,0,0,0,0,6,,,,,3.3,4.0,0.0,0.0,0.0,0.0,0
34.181573,-118.130749,2.10,2.20,0.00,0.32,2.10,2.10,0.50,0.32,10907,2022-06-08 12:54:32.715,2022-06-08 05:54:32.715,18,0,0,16.334,34.181570,-118.130748,0.00,0.00,0.00,0.30,-0.20,-2.40,0,1,0,90,100,-7264,3162,16334,3011.50,11,Sport,1,0,0,0,0,259,0,1654692872714,4118,4115,4108,4089,0,0,27,,,,,,,0,0,0,-3.00,-2.00,-24.00,-24.00,0.00,-86.00,31,21.00,0.00,3.24,0.00,0.00,0.00,0,,,100,100,0,1,0,0,0,0,6,,,,,3.3,4.0,0.0,0.0,0.0,0.0,0
34.181573,-118.130749,2.10,2.20,0.00,0.33,2.10,2.10,0.50,0.33,11009,2022-06-08 12:54:32.816,2022-06-08 05:54:32.816,18,0,0,16.334,34.181570,-118.130748,0.00,0.00,0.00,0.30,-0.30,0.00,0,1,0,90,100,-7264,3162,16334,3011.50,11,Sport,1,0,0,0,0,428,0,1654692872816,4118,4115,4108,4089,0,0,27,,,,,,,0,0,0,-3.00,-3.00,0.00,-24.00,0.00,-64.00,31,21.00,0.00,3.31,0.00,0.00,0.00,0,,,100,100,0,1,0,0,0,0,6,,,,,3.3,4.0,0.0,0.0,0.0,0.0,0
34.181573,-118.130749,2.10,2.20,0.00,0.34,2.10,2.10,0.50,0.34,11110,2022-06-08 12:54:32.917,2022-06-08 05:54:32.917,18,0,0,16.334,34.181570,-118.130748,0.00,0.00,0.00,0.20,-0.30,5.70,0,1,0,90,100,-7264,3162,16334,3011.50,11,Sport,1,0,0,0,0,288,0,1654692872917,4118,4115,4108,4089,0,0,27,,,,,,,0,0,0,-2.00,-3.00,57.00,-24.00,0.00,1.00,31,21.00,0.00,3.39,0.00,0.00,0.00,0,,,100,100,0,1,0,0,0,0,6,,,,,3.3,4.0,0.0,0.0,0.0,0.0,0
34.181573,-118.130749,2.10,2.20,0.00,0.34,2.10,2.10,0.50,0.34,11210,2022-06-08 12:54:33.017,2022-06-08 05:54:33.017,18,0,0,16.334,34.181570,-118.130748,0.00,0.00,0.00,0.10,0.00,10.50,0,1,0,90,100,-7264,3162,16334,3011.50,11,Sport,1,0,0,0,0,0,0,1654692873017,4118,4115,4108,4089,0,0,27,,,,,,,0,0,0,-1.00,0.00,105.00,-24.00,0.00,61.00,31,21.00,0.00,3.39,0.00,0.00,0.00,0,,,100,100,0,1,0,0,0,0,6,,,,,3.3,4.0,0.0,0.0,0.0,0.0,0
34.181573,-118.130749,2.10,2.20,0.00,0.35,2.10,2.10,0.50,0.35,11309,2022-06-08 12:54:33.117,2022-06-08 05:54:33.117,18,0,0,16.334,34.181570,-118.130748,0.00,0.00,0.00,0.10,0.00,12.00,0,1,0,90,100,-7264,3162,16334,3011.50,11,Sport,1,0,0,0,0,0,0,1654692873116,4118,4115,4108,4089,0,0,27,,,,,,,0,0,0,-1.00,0.00,120.00,-24.00,0.00,71.00,31,21.00,0.00,3.45,0.00,0.00,0.00,0,,,100,100,0,1,0,0,0,0,6,,,,,3.3,4.0,0.0,0.0,0.0,0.0,0
34.181573,-118.130749,2.10,2.20,0.00,0.33,2.10,2.10,0.50,0.35,11409,2022-06-08 12:54:33.216,2022-06-08 05:54:33.216,18,0,0,16.334,34.181570,-118.130748,0.00,0.00,0.00,0.20,-0.20,12.60,0,1,0,90,100,-7264,3162,16334,3011.50,11,Sport,1,0,0,0,0,0,0,1654692873216,4118,4115,4108,4089,0,0,27,,,,,,,0,0,0,-2.00,-2.00,126.00,-24.00,0.00,71.00,31,21.00,0.00,3.34,0.00,0.00,0.00,0,,,100,100,0,1,0,0,0,0,6,,,,,3.3,4.0,0.0,0.0,0.0,0.0,0
34.181573,-118.130749,2.10,2.20,0.00,0.34,2.10,2.10,0.50,0.35,11510,2022-06-08 12:54:33.317,2022-06-08 05:54:33.317,18,0,0,16.334,34.181570,-118.130748,0.00,0.00,0.00,0.20,-0.50,12.90,0,1,0,90,100,-7264,3162,16334,3011.50,11,Sport,1,0,0,0,0,-118,0,1654692873317,4118,4115,4108,4089,0,0,27,,,,,,,0,0,0,-2.00,-5.00,129.00,-24.00,0.00,71.00,31,21.00,0.00,3.39,0.00,0.00,0.00,0,,,100,100,0,1,0,0,0,0,6,,,,,3.3,4.0,0.0,0.0,0.0,0.0,0
34.181573,-118.130749,2.10,2.20,0.00,0.35,2.10,2.10,0.50,0.35,11608,2022-06-08 12:54:33.416,2022-06-08 05:54:33.416,18,0,0,16.334,34.181570,-118.130748,0.00,0.00,0.00,0.20,-0.40,12.00,0,1,0,90,100,-7264,3162,16334,3011.50,11,Sport,1,0,0,0,0,-498,0,1654692873415,4118,4115,4108,4089,0,0,27,,,,,,,0,0,0,-2.00,-4.00,120.00,-24.00,0.00,66.00,31,21.00,0.00,3.47,0.00,0.00,0.00,0,,,100,100,0,1,0,0,0,0,6,,,,,3.3,4.0,0.0,0.0,0.0,0.0,0
34.181573,-118.130749,2.10,2.20,0.00,0.35,2.10,2.10,0.50,0.35,11710,2022-06-08 12:54:33.517,2022-06-08 05:54:33.517,18,0,0,16.334,34.181570,-118.130748,0.00,0.00,0.00,0.00,-0.10,4.60,0,1,0,90,100,-7264,3162,16334,3011.50,11,Sport,1,0,0,0,0,-660,0,1654692873517,4118,4115,4108,4089,0,0,27,,,,,,,0,0,0,-0.00,-1.00,46.00,-24.00,0.00,-7.00,31,21.00,0.00,3.52,0.00,0.00,0.00,0,,,100,100,0,1,0,0,0,0,6,,,,,3.2,4.0,0.0,0.0,0.0,0.0,0
34.181573,-118.130749,2.10,2.20,0.00,0.35,2.10,2.10,0.50,0.35,11811,2022-06-08 12:54:33.618,2022-06-08 05:54:33.618,18,0,0,16.334,34.181570,-118.130748,0.00,0.00,0.00,0.10,-0.50,-8.20,0,1,0,90,100,-7264,3162,16334,3011.50,11,Sport,1,0,0,0,0,-371,0,1654692873618,4118,4115,4108,4089,0,0,27,,,,,,,0,0,0,-1.00,-5.00,-82.00,-24.00,0.00,-157.00,31,21.00,0.00,3.54,0.00,0.00,0.00,0,,,100,100,0,1,0,0,0,0,6,,,,,3.2,4.0,0.0,0.0,0.0,0.0,0
34.181573,-118.130749,2.10,2.20,0.00,0.36,2.10,2.10,0.50,0.36,11908,2022-06-08 12:54:33.716,2022-06-08 05:54:33.716,18,0,0,16.334,34.181570,-118.130748,0.00,0.00,0.00,0.20,-1.50,-18.20,0,1,0,90,100,-7264,3162,16334,3011.50,11,Sport,1,0,0,0,0,0,0,1654692873715,4118,4115,4108,4089,0,0,27,,,,,,,0,0,0,-2.00,-15.00,-182.00,-24.00,0.00,-283.00,31,21.00,0.00,3.59,0.00,0.00,0.00,0,,,100,100,0,1,0,0,0,0,6,,,,,3.2,4.0,0.0,0.0,0.0,0.0,0
34.181573,-118.130749,2.10,2.20,0.00,0.37,2.10,2.10,0.50,0.37,12009,2022-06-08 12:54:33.817,2022-06-08 05:54:33.817,18,0,0,16.334,34.181570,-118.130748,0.00,0.00,0.00,0.20,-1.30,-21.00,0,1,0,90,100,-7264,3162,16334,3011.50,11,Sport,1,0,0,0,0,0,0,1654692873816,4118,4115,4108,4089,0,0,27,,,,,,,0,0,0,-2.00,-13.00,-210.00,-24.00,0.00,-294.00,31,21.00,0.00,3.68,0.00,0.00,0.00,0,,,100,100,0,1,0,0,0,0,6,,,,,3.2,4.0,0.0,0.0,0.0,0.0,0
34.181573,-118.130749,2.10,2.20,0.00,0.37,2.10,2.10,0.50,0.37,12108,2022-06-08 12:54:33.916,2022-06-08 05:54:33.916,18,0,0,16.334,34.181570,-118.130748,0.00,0.00,0.00,0.10,-0.70,-22.20,0,1,0,90,100,-7264,3162,16334,3011.50,11,Sport,1,0,0,0,0,0,0,1654692873915,4118,4115,4108,4089,0,0,27,,,,,,,0,0,0,-1.00,-7.00,-222.00,-24.00,0.00,-294.00,31,21.00,0.00,3.72,0.00,0.00,0.00,0,,,100,100,0,1,0,0,0,0,6,,,,,3.0,4.0,0.0,0.0,0.0,0.0,0
34.181573,-118.130749,2.10,2.20,0.00,0.39,2.10,2.10,0.50,0.39,12211,2022-06-08 12:54:34.018,2022-06-08 05:54:34.018,18,0,0,16.334,34.181570,-118.130748,0.00,0.00,0.00,0.00,-0.20,-22.70,0,1,0,90,100,-7264,3162,16334,3011.50,11,Sport,1,0,0,0,0,0,0,1654692874018,4118,4115,4108,4089,0,0,27,,,,,,,0,0,0,-0.00,-2.00,-227.00,-24.00,0.00,-294.00,31,21.00,0.00,3.86,0.00,0.00,0.00,0,,,100,100,0,1,0,0,0,0,6,,,,,3.0,4.0,0.0,0.0,0.0,0.0,0
34.181573,-118.130749,2.10,2.20,0.00,0.39,2.10,2.10,0.50,0.39,12311,2022-06-08 12:54:34.118,2022-06-08 05:54:34.118,18,0,0,16.364,34.181570,-118.130748,0.00,0.00,0.00,0.00,0.00,-23.00,0,1,0,90,100,-7288,3157,16364,3021.50,11,Sport,1,0,0,0,0,14,0,1654692874118,4118,4115,4108,4089,0,0,27,,,,,,,0,0,0,-0.00,0.00,-230.00,-24.00,0.00,-294.00,31,21.00,0.00,3.92,0.00,0.00,0.00,0,,,100,100,0,1,0,0,0,0,6,,,,,3.1,4.3,0.0,0.0,0.0,0.0,0
34.181573,-118.130749,2.10,2.20,0.00,0.39,2.10,2.10,0.50,0.39,12410,2022-06-08 12:54:34.218,2022-06-08 05:54:34.218,18,0,0,16.364,34.181570,-118.130748,0.00,0.00,0.00,-0.10,-0.10,-22.70,0,1,0,90,100,-7288,3157,16364,3021.50,11,Sport,1,0,0,0,0,400,0,1654692874217,4118,4115,4108,4089,0,0,27,,,,,,,0,0,0,1.00,-1.00,-227.00,-24.00,0.00,-292.00,31,21.00,0.00,3.88,0.00,0.00,0.00,0,,,100,100,0,1,0,0,0,0,6,,,,,3.1,4.3,0.0,0.0,0.0,0.0,0
34.181573,-118.130749,2.10,2.20,0.00,0.39,2.10,2.10,0.50,0.39,12509,2022-06-08 12:54:34.316,2022-06-08 05:54:34.316,18,0,0,16.364,34.181570,-118.130748,0.00,0.00,0.00,0.00,-0.50,-18.40,0,1,0,90,100,-7288,3157,16364,3021.50,11,Sport,1,0,0,0,0,192,0,1654692874316,4118,4115,4108,4089,0,0,27,,,,,,,0,0,0,-0.00,-5.00,-184.00,-24.00,0.00,-248.00,31,21.00,0.00,3.94,0.00,0.00,0.00,0,,,100,100,0,1,0,0,0,0,6,,,,,3.5,4.4,0.0,0.0,0.0,0.0,0
34.181573,-118.130749,2.10,2.20,0.00,0.41,2.10,2.10,0.50,0.41,12609,2022-06-08 12:54:34.416,2022-06-08 05:54:34.416,18,0,0,16.364,34.181570,-118.130748,0.00,0.00,0.00,-0.10,-0.10,-14.70,0,1,0,90,100,-7288,3157,16364,3021.50,11,Sport,1,0,0,0,0,0,0,1654692874416,4118,4115,4108,4089,0,0,27,,,,,,,0,0,0,1.00,-1.00,-147.00,-24.00,0.00,-193.00,31,21.00,0.00,4.06,0.00,0.00,0.00,0,,,100,100,0,1,0,0,0,0,6,,,,,3.5,4.4,0.0,0.0,0.0,0.0,0
34.181573,-118.130749,2.10,2.20,0.00,0.41,2.10,2.10,0.50,0.41,12710,2022-06-08 12:54:34.517,2022-06-08 05:54:34.517,18,0,0,16.364,34.181570,-118.130748,0.00,0.00,0.00,-0.10,-0.20,-13.60,0,1,0,90,100,-7288,3157,16364,3021.50,11,Sport,1,0,0,0,0,0,0,1654692874517,4118,4115,4108,4089,0,0,27,,,,,,,0,0,0,1.00,-2.00,-136.00,-24.00,0.00,-189.00,31,21.00,0.00,4.14,0.00,0.00,0.00,0,,,100,100,0,1,0,0,0,0,6,,,,,3.7,4.1,0.0,0.0,0.0,0.0,0
34.181573,-118.130749,2.10,2.20,0.00,0.42,2.10,2.10,0.50,0.42,12809,2022-06-08 12:54:34.617,2022-06-08 05:54:34.617,18,0,0,16.364,34.181570,-118.130748,0.00,0.00,0.00,0.00,-0.50,-13.20,0,1,0,90,100,-7288,3157,16364,3021.50,11,Sport,1,0,0,0,0,0,0,1654692874616,4118,4115,4108,4089,0,0,27,,,,,,,0,0,0,-0.00,-5.00,-132.00,-24.00,0.00,-189.00,31,21.00,0.00,4.18,0.00,0.00,0.00,0,,,100,100,0,1,0,0,0,0,6,,,,,3.7,4.1,0.0,0.0,0.0,0.0,0
34.181573,-118.130749,2.10,2.20,0.00,0.43,2.10,2.10,0.50,0.43,12909,2022-06-08 12:54:34.716,2022-06-08 05:54:34.716,18,0,0,16.364,34.181570,-118.130748,0.00,0.00,0.00,0.00,-0.80,-13.10,0,1,0,90,100,-7288,3157,16364,3021.50,11,Sport,1,0,0,0,0,0,0,1654692874716,4118,4115,4108,4089,0,0,27,,,,,,,0,0,0,-0.00,-8.00,-131.00,-24.00,0.00,-189.00,31,21.00,0.00,4.26,0.00,0.00,0.00,0,,,100,100,0,1,0,0,0,0,6,,,,,3.7,4.0,0.0,0.0,0.0,0.0,0
34.181574,-118.130749,2.10,2.20,0.00,0.44,2.10,2.10,0.50,0.44,13008,2022-06-08 12:54:34.816,2022-06-08 05:54:34.816,18,0,0,16.364,34.181570,-118.130748,0.00,0.00,0.00,0.10,-0.90,-13.00,0,1,0,90,100,-7288,3157,16364,3021.50,11,Sport,1,0,0,0,0,0,0,1654692874815,4118,4115,4108,4089,0,0,27,,,,,,,0,0,0,-1.00,-9.00,-130.00,-24.00,0.00,-189.00,31,21.00,0.00,4.40,0.00,0.00,0.00,0,,,100,100,0,1,0,0,0,0,6,,,,,3.7,4.0,0.0,0.0,0.0,0.0,0
34.181574,-118.130749,2.10,2.20,0.00,0.45,2.10,2.10,0.50,0.45,13109,2022-06-08 12:54:34.917,2022-06-08 05:54:34.917,18,0,0,16.364,34.181570,-118.130748,0.00,0.00,0.00,0.20,-0.90,-12.90,0,1,0,90,100,-7288,3157,16364,3021.50,11,Sport,1,0,0,0,0,-309,0,1654692874916,4118,4115,4108,4089,0,0,27,,,,,,,0,0,0,-2.00,-9.00,-129.00,-24.00,0.00,-189.00,31,21.00,0.00,4.49,0.00,0.00,0.00,0,,,100,100,0,1,0,0,0,0,6,,,,,3.3,4.0,0.0,0.0,0.0,0.0,0
34.181574,-118.130749,2.10,2.20,0.00,0.44,2.10,2.10,0.50,0.45,13208,2022-06-08 12:54:35.016,2022-06-08 05:54:35.016,18,0,0,16.364,34.181570,-118.130748,0.00,0.00,0.00,0.10,-0.50,-15.60,0,1,0,90,100,-7288,3157,16364,3021.50,11,Sport,1,0,0,0,0,-660,0,1654692875015,4118,4115,4108,4089,0,0,27,,,,,,,0,0,0,-1.00,-5.00,-156.00,-24.00,0.00,-207.00,31,21.00,0.00,4.45,0.00,0.00,0.00,0,,,100,100,0,1,0,0,0,0,6,,,,,3.3,4.0,0.0,0.0,0.0,0.0,0
34.181574,-118.130749,2.10,2.20,0.00,0.45,2.10,2.10,0.50,0.45,13310,2022-06-08 12:54:35.117,2022-06-08 05:54:35.117,18,0,0,16.364,34.181570,-118.130748,0.00,0.00,0.00,0.00,-0.40,-25.80,0,1,0,90,100,-7288,3157,16364,3021.50,11,Sport,1,0,0,0,0,0,0,1654692875117,4118,4115,4108,4089,0,0,27,,,,,,,0,0,0,-0.00,-4.00,-258.00,-24.00,0.00,-327.00,31,21.00,0.00,4.54,0.00,0.00,0.00,0,,,100,100,0,1,0,0,0,0,6,,,,,3.3,4.0,0.0,0.0,0.0,0.0,0
34.181574,-118.130749,2.10,2.20,0.00,0.45,2.10,2.10,0.50,0.45,13411,2022-06-08 12:54:35.218,2022-06-08 05:54:35.218,18,0,0,16.364,34.181570,-118.130748,0.00,0.00,0.00,0.30,-1.40,-29.80,0,1,0,90,100,-7288,3157,16364,3021.50,11,Sport,1,0,0,0,0,0,0,1654692875218,4118,4115,4108,4089,0,0,27,,,,,,,0,0,0,-3.00,-14.00,-298.00,-24.00,0.00,-382.00,31,21.00,0.00,4.50,0.00,0.00,0.00,0,,,100,100,0,1,0,0,0,0,6,,,,,3.3,4.0,0.0,0.0,0.0,0.0,0
34.181574,-118.130749,2.10,2.20,0.00,0.46,2.10,2.10,0.50,0.46,13509,2022-06-08 12:54:35.317,2022-06-08 05:54:35.317,18,0,0,16.364,34.181570,-118.130748,0.00,0.00,0.00,0.30,-1.30,-31.10,0,1,0,90,100,-7288,3157,16364,3021.50,11,Sport,1,0,0,0,0,0,0,1654692875316,4118,4115,4108,4089,0,0,27,,,,,,,0,0,0,-3.00,-13.00,-311.00,-24.00,0.00,-383.00,31,21.00,0.00,4.57,0.00,0.00,0.00,0,,,100,100,0,1,0,0,0,0,6,,,,,3.3,4.0,0.0,0.0,0.0,0.0,0
