latitude,longitude,altitude(feet),ultrasonicHeight(feet),speed(mph),distance(feet),max_altitude(feet),max_ascent(feet),max_speed(mph),max_distance(feet),time(millisecond),datetime(utc),datetime(local),satellites,pressure(Pa),temperature(F),voltage(v),home_latitude,home_longitude,velocityX(mph),velocityY(mph),velocityZ(mph),pitch(deg),roll(deg),yaw(deg),powerlevel,isflying,istakingphoto,remainPowerPercent,remainLifePercent,currentCurrent,currentElectricity,currentVoltage,batteryTemperature,dischargeCount,flightmode,isMotorsOn,isTakingVideo,Rc_elevator,Rc_aileron,Rc_throttle,Rc_rudder,Rc_gyro,timestamp,Battery_Cell1,Battery_Cell2,Battery_Cell3,Battery_Cell4,Battery_Cell5,Battery_Cell6,Dronetype,AppVersion,Planename,FlyControllerSerialNumber,RemoteSerialNumber,BatterySerialNumber,CENTER_BATTERY.productDate,CENTER_BATTERY.serialNo,CENTER_BATTERY.fullCapacity,CENTER_BATTERY.productDateRaw,pitchRaw,rollRaw,yawRaw,gimbalPitchRaw,gimbalRollRaw,gimbalYawRaw,flyState,altitudeRaw,speedRaw,distanceRaw,velocityXRaw,velocityYRaw,velocityZRaw,data_reuse,App_Tip,App_Warning,downlinkSignalQuality,uplinkSignalQuality,transmissionChannel,rcModeSwitch,rcHome,rcPause,rcTransform,rcJoystickMode,appMode,FlyControllerSerialNumber_legacy,RemoteSerialNumber_legacy,BatterySerialNumber_legacy,Battery2SerialNumber,frontAvoidDist,backAvoidDist,rightAvoidDist,leftAvoidDist,upAvoidDist,downAvoidDist,isBrakingToAvoid
34.182605,-118.129085,0.98,0.98,0.89,0.55,0.98,0.98,0.89,0.55,1,2022-06-07 23:43:32.541,2022-06-07 16:43:32.541,14,0,0,16.620,34.182604,-118.129084,0.00,0.00,-0.89,1.80,0.60,-4.90,0,1,0,81,100,-1529,2816,16620,3131.50,10,TakeOff,1,0,0,0,0,0,0,1654645412541,4116,4111,4104,4092,0,0,27,Litchi_iOS_2.14.0,Brian-MAVIC 2,163DFCK001S13F,1DUCFB800104PR,0P2AFBV5340045,,0,3507,0,-18.00,6.00,-49.00,0.00,0.00,-97.00,11,3.00,4.00,1.67,0.00,0.00,-4.00,0,,,100,100,0,2,0,0,0,1,0,(null),(null),(null),(null),0.0,0.0,0.0,0.0,0.0,0.0,0
34.182605,-118.129085,1.31,1.31,0.89,0.51,1.31,1.31,0.89,0.55,100,2022-06-07 23:43:32.641,2022-06-07 16:43:32.641,14,0,0,16.620,34.182604,-118.129084,0.00,0.00,-0.89,1.70,0.80,-4.80,0,1,0,81,100,-1529,2816,16620,3131.50,10,TakeOff,1,0,0,0,0,0,0,1654645412640,4116,4111,4104,4092,0,0,27,,,,,,,0,0,0,-17.00,8.00,-48.00,0.00,0.00,-97.00,11,4.00,4.00,1.55,0.00,0.00,-4.00,0,,,100,100,0,2,0,0,0,1,0,,,,,0.0,0.0,0.0,0.0,0.0,0.0,0
34.182605,-118.129085,1.31,1.31,0.89,0.54,1.31,1.31,0.89,0.55,200,2022-06-07 23:43:32.741,2022-06-07 16:43:32.741,14,0,0,16.620,34.182604,-118.129084,0.00,0.00,-0.89,1.50,0.70,-4.90,0,1,0,81,100,-1529,2816,16620,3131.50,10,TakeOff,1,0,0,0,0,0,0,1654645412740,4116,4111,4104,4092,0,0,27,,,,,,,0,0,0,-15.00,7.00,-49.00,0.00,0.00,-97.00,11,4.00,4.00,1.64,0.00,0.00,-4.00,0,,,100,100,0,2,0,0,0,1,0,,,,,0.0,0.0,0.0,0.0,0.0,0.0,0
34.182606,-118.129085,1.31,1.64,0.89,0.61,1.31,1.31,0.89,0.61,300,2022-06-07 23:43:32.841,2022-06-07 16:43:32.841,14,0,0,16.423,34.182604,-118.129084,0.00,0.00,-0.89,1.40,0.60,-5.00,0,1,0,81,100,-4700,2814,16423,3131.50,10,TakeOff,1,0,0,0,0,0,0,1654645412840,4116,4111,4104,4092,0,0,27,,,,,,,0,0,0,-14.00,6.00,-50.00,0.00,0.00,-97.00,11,4.00,4.00,1.85,0.00,0.00,-4.00,0,,,100,100,0,2,0,0,0,1,0,,,,,0.0,0.0,0.0,0.0,0.0,0.0,0
34.182606,-118.129085,1.64,1.64,1.12,0.64,1.64,1.64,1.12,0.64,400,2022-06-07 23:43:32.940,2022-06-07 16:43:32.940,14,0,0,16.423,34.182604,-118.129084,0.00,0.00,-1.12,1.50,0.80,-5.00,0,1,0,81,100,-4700,2814,16423,3131.50,10,TakeOff,1,0,0,0,0,0,0,1654645412940,4116,4111,4104,4092,0,0,27,,,,,,,0,0,0,-15.00,8.00,-50.00,0.00,0.00,-97.00,11,5.00,5.00,1.94,0.00,0.00,-5.00,0,,,100,100,0,2,0,0,0,1,0,,,,,0.0,0.0,0.0,0.0,0.0,0.0,0
34.182606,-118.129085,1.64,1.97,1.12,0.73,1.64,1.64,1.12,0.73,501,2022-06-07 23:43:33.041,2022-06-07 16:43:33.041,14,0,0,16.423,34.182604,-118.129084,0.00,0.00,-1.12,1.60,0.80,-5.00,0,1,0,81,100,-4700,2814,16423,3131.50,10,TakeOff,1,0,0,0,0,0,0,1654645413041,4116,4111,4104,4092,0,0,27,,,,,,,0,0,0,-16.00,8.00,-50.00,0.00,0.00,-97.00,11,5.00,5.00,2.21,0.00,0.00,-5.00,0,,,100,100,0,2,0,0,0,1,0,,,,,0.0,0.0,0.0,0.0,0.0,0.0,0
34.182606,-118.129085,1.97,1.97,1.12,0.76,1.97,1.97,1.12,0.76,601,2022-06-07 23:43:33.141,2022-06-07 16:43:33.141,14,0,0,16.423,34.182604,-118.129084,0.00,0.00,-1.12,2.10,0.50,-5.00,0,1,0,81,100,-4700,2814,16423,3131.50,10,TakeOff,1,0,0,0,0,0,0,1654645413141,4116,4111,4104,4092,0,0,27,,,,,,,0,0,0,-21.00,5.00,-50.00,0.00,0.00,-97.00,11,6.00,5.00,2.31,0.00,0.00,-5.00,0,,,100,100,0,2,0,0,0,1,0,,,,,0.0,0.0,0.0,0.0,0.0,0.0,0
34.182606,-118.129085,1.97,2.30,1.12,0.75,1.97,1.97,1.12,0.76,701,2022-06-07 23:43:33.241,2022-06-07 16:43:33.241,14,0,0,16.423,34.182604,-118.129084,0.00,0.00,-1.12,2.30,0.30,-4.90,0,1,0,81,100,-4700,2814,16423,3131.50,10,TakeOff,1,0,0,0,0,0,0,1654645413241,4116,4111,4104,4092,0,0,27,,,,,,,0,0,0,-23.00,3.00,-49.00,0.00,0.00,-97.00,11,6.00,5.00,2.29,0.00,0.00,-5.00,0,,,100,100,0,2,0,0,0,1,0,,,,,0.0,0.0,0.0,0.0,0.0,0.0,0
34.182606,-118.129085,2.30,2.30,1.12,0.78,2.30,2.30,1.12,0.78,801,2022-06-07 23:43:33.341,2022-06-07 16:43:33.341,14,0,0,16.423,34.182604,-118.129084,0.00,0.00,-1.12,2.30,0.30,-4.90,0,1,0,81,100,-4700,2814,16423,3131.50,10,TakeOff,1,0,0,0,0,0,0,1654645413341,4116,4111,4104,4092,0,0,27,,,,,,,0,0,0,-23.00,3.00,-49.00,0.00,0.00,-97.00,11,7.00,5.00,2.37,0.00,0.00,-5.00,0,,,100,100,0,2,0,0,0,1,0,,,,,0.0,0.0,0.0,0.0,0.0,0.0,0
34.182606,-118.129085,2.62,2.62,1.12,0.81,2.62,2.62,1.12,0.81,902,2022-06-07 23:43:33.442,2022-06-07 16:43:33.442,14,0,0,16.423,34.182604,-118.129084,0.00,0.00,-1.12,2.20,0.20,-5.00,0,1,0,81,100,-4700,2814,16423,3131.50,10,TakeOff,1,0,0,0,0,0,0,1654645413442,4116,4111,4104,4092,0,0,27,,,,,,,0,0,0,-22.00,2.00,-50.00,0.00,0.00,-97.00,11,8.00,5.00,2.48,0.00,0.00,-5.00,0,,,100,100,0,2,0,0,0,1,0,,,,,0.0,0.0,0.0,0.0,0.0,0.0,0
34.182606,-118.129085,2.62,2.95,1.12,0.84,2.62,2.62,1.12,0.84,1001,2022-06-07 23:43:33.542,2022-06-07 16:43:33.542,14,0,0,16.423,34.182604,-118.129084,0.00,0.00,-1.12,2.30,0.00,-5.00,0,1,0,81,100,-4700,2814,16423,3131.50,10,TakeOff,1,0,0,0,0,0,0,1654645413541,4116,4111,4104,4092,0,0,27,,,,,,,0,0,0,-23.00,0.00,-50.00,0.00,0.00,-97.00,11,8.00,5.00,2.55,0.00,0.00,-5.00,0,,,100,100,0,2,0,0,0,1,0,,,,,0.0,0.0,0.0,0.0,0.0,0.0,0
34.182606,-118.129085,2.95,2.95,1.12,0.87,2.95,2.95,1.12,0.87,1101,2022-06-07 23:43:33.642,2022-06-07 16:43:33.642,14,0,0,16.423,34.182604,-118.129084,0.00,0.00,-1.12,2.40,0.00,-5.00,0,1,0,81,100,-4700,2814,16423,3131.50,10,TakeOff,1,0,0,0,0,0,0,1654645413641,4116,4111,4104,4092,0,0,27,,,,,,,0,0,0,-24.00,0.00,-50.00,0.00,0.00,-97.00,11,9.00,5.00,2.66,0.00,0.00,-5.00,0,,,100,100,0,2,0,0,0,1,0,,,,,0.0,0.0,0.0,0.0,0.0,0.0,0
34.182606,-118.129085,2.95,3.28,1.12,0.89,2.95,2.95,1.12,0.89,1201,2022-06-07 23:43:33.742,2022-06-07 16:43:33.742,14,0,0,16.423,34.182604,-118.129084,0.00,0.00,-1.12,2.50,-0.10,-4.90,0,1,0,81,100,-4700,2814,16423,3131.50,10,TakeOff,1,0,0,0,0,0,0,1654645413741,4116,4111,4104,4092,0,0,27,,,,,,,0,0,0,-25.00,-1.00,-49.00,0.00,0.00,-97.00,11,9.00,5.00,2.71,0.00,0.00,-5.00,0,,,100,100,0,2,0,0,0,1,0,,,,,0.0,0.0,0.0,0.0,0.0,0.0,0
34.182606,-118.129085,3.28,3.28,1.12,0.89,3.28,3.28,1.12,0.89,1301,2022-06-07 23:43:33.842,2022-06-07 16:43:33.842,14,0,0,16.423,34.182604,-118.129084,0.00,0.00,-1.12,2.40,0.10,-4.90,0,1,0,81,100,-4700,2814,16423,3131.50,10,TakeOff,1,0,0,0,0,0,0,1654645413841,4116,4111,4104,4092,0,0,27,,,,,,,0,0,0,-24.00,1.00,-49.00,0.00,0.00,-97.00,11,10.00,5.00,2.72,0.00,0.00,-5.00,0,,,100,100,0,2,0,0,0,1,0,,,,,0.0,0.0,0.0,0.0,0.0,0.0,0
34.182606,-118.129085,3.28,3.61,1.12,0.90,3.28,3.28,1.12,0.90,1402,2022-06-07 23:43:33.943,2022-06-07 16:43:33.943,14,0,0,16.423,34.182604,-118.129084,0.00,0.00,-1.12,2.30,0.30,-4.90,0,1,0,81,100,-4700,2814,16423,3131.50,10,TakeOff,1,0,0,0,0,0,0,1654645413942,4116,4111,4104,4092,0,0,27,,,,,,,0,0,0,-23.00,3.00,-49.00,0.00,0.00,-97.00,11,10.00,5.00,2.75,0.00,0.00,-5.00,0,,,100,100,0,2,0,0,0,1,0,,,,,0.0,0.0,0.0,0.0,0.0,0.0,0
34.182606,-118.129085,3.61,3.61,0.89,0.91,3.61,3.61,1.12,0.91,1502,2022-06-07 23:43:34.043,2022-06-07 16:43:34.043,14,0,0,16.423,34.182604,-118.129084,0.00,0.00,-0.89,0.70,0.30,-5.00,0,1,0,81,100,-4700,2814,16423,3131.50,10,WP,1,0,0,0,0,0,0,1654645414042,4116,4111,4104,4092,0,0,27,,,,,,,0,0,0,-7.00,3.00,-50.00,0.00,0.00,-97.00,14,11.00,4.00,2.77,0.00,0.00,-4.00,0,,,100,100,0,2,0,0,0,1,0,,,,,0.0,0.0,0.0,0.0,0.0,0.0,0
34.182607,-118.129085,3.61,3.94,0.89,0.92,3.61,3.61,1.12,0.92,1602,2022-06-07 23:43:34.142,2022-06-07 16:43:34.142,14,0,0,16.423,34.182604,-118.129084,0.00,0.00,-0.89,0.90,0.30,-5.10,0,1,0,81,100,-4700,2814,16423,3131.50,10,WP,1,0,0,0,0,0,0,1654645414142,4116,4111,4104,4092,0,0,27,,,,,,,0,0,0,-9.00,3.00,-51.00,0.00,0.00,-97.00,14,11.00,4.00,2.81,0.00,0.00,-4.00,0,,,100,100,0,2,0,0,0,1,0,,,,,0.0,0.0,0.0,0.0,0.0,0.0,0
34.182607,-118.129085,3.94,3.94,1.12,0.95,3.94,3.94,1.12,0.95,1701,2022-06-07 23:43:34.242,2022-06-07 16:43:34.242,14,0,0,16.423,34.182604,-118.129084,0.00,0.00,-1.12,1.50,0.30,-5.30,0,1,0,81,100,-4700,2814,16423,3131.50,10,WP,1,0,0,0,0,0,0,1654645414241,4116,4111,4104,4092,0,0,27,,,,,,,0,0,0,-15.00,3.00,-53.00,0.00,0.00,-97.00,14,12.00,5.00,2.89,0.00,0.00,-5.00,0,,,100,100,0,2,0,0,0,1,0,,,,,0.0,0.0,0.0,0.0,0.0,0.0,0
34.182607,-118.129085,3.94,4.27,1.12,0.97,3.94,3.94,1.12,0.97,1802,2022-06-07 23:43:34.342,2022-06-07 16:43:34.342,14,0,0,16.423,34.182604,-118.129084,0.00,0.00,-1.12,2.00,0.40,-5.30,0,1,0,81,100,-4700,2814,16423,3131.50,10,WP,1,0,0,0,0,0,0,1654645414342,4116,4111,4104,4092,0,0,27,,,,,,,0,0,0,-20.00,4.00,-53.00,0.00,0.00,-97.00,14,12.00,5.00,2.96,0.00,0.00,-5.00,0,,,100,100,0,2,0,0,0,1,0,,,,,0.0,0.0,0.0,0.0,0.0,0.0,0
34.182607,-118.129085,4.27,4.27,1.12,0.97,4.27,4.27,1.12,0.97,1903,2022-06-07 23:43:34.444,2022-06-07 16:43:34.444,14,0,0,16.423,34.182604,-118.129084,0.00,0.00,-1.12,2.10,0.50,-5.50,0,1,0,81,100,-4700,2814,16423,3131.50,10,WP,1,0,0,0,0,0,0,1654645414443,4116,4111,4104,4092,0,0,27,,,,,,,0,0,0,-21.00,5.00,-55.00,0.00,0.00,-97.00,14,13.00,5.00,2.95,0.00,0.00,-5.00,0,,,100,100,0,2,0,0,0,1,0,,,,,0.0,0.0,0.0,0.0,0.0,0.0,0
34.182607,-118.129085,4.27,4.59,1.12,0.99,4.27,4.27,1.12,0.99,2002,2022-06-07 23:43:34.543,2022-06-07 16:43:34.543,14,0,0,16.423,34.182604,-118.129084,0.00,0.00,-1.12,2.30,0.40,-5.50,0,1,0,81,100,-4700,2814,16423,3131.50,10,WP,1,0,0,0,0,0,0,1654645414542,4116,4111,4104,4092,0,0,27,,,,,,,0,0,0,-23.00,4.00,-55.00,0.00,0.00,-97.00,14,13.00,5.00,3.01,0.00,0.00,-5.00,0,,,100,100,0,2,0,0,0,1,0,,,,,0.0,0.0,0.0,0.0,0.0,0.0,0
34.182607,-118.129085,4.27,4.59,0.89,1.02,4.27,4.27,1.12,1.02,2102,2022-06-07 23:43:34.642,2022-06-07 16:43:34.642,14,0,0,16.423,34.182604,-118.129084,0.00,0.00,-0.89,2.40,0.50,-5.60,0,1,0,81,100,-4700,2814,16423,3131.50,10,WP,1,0,0,0,0,0,0,1654645414642,4116,4111,4104,4092,0,0,27,,,,,,,0,0,0,-24.00,5.00,-56.00,0.00,0.00,-97.00,14,13.00,4.00,3.11,0.00,0.00,-4.00,0,,,100,100,0,2,0,0,0,1,0,,,,,0.0,0.0,0.0,0.0,0.0,0.0,0
34.182607,-118.129085,4.59,4.92,0.89,1.04,4.59,4.59,1.12,1.04,2201,2022-06-07 23:43:34.741,2022-06-07 16:43:34.741,14,0,0,16.307,34.182604,-118.129084,0.00,0.00,-0.89,2.50,0.50,-5.50,0,1,0,81,100,-7757,2810,16307,3131.50,10,WP,1,0,0,0,0,0,0,1654645414741,4116,4111,4104,4092,0,0,27,,,,,,,0,0,0,-25.00,5.00,-55.00,0.00,0.00,-97.00,14,14.00,4.00,3.16,0.00,0.00,-4.00,0,,,100,100,0,2,0,0,0,1,0,,,,,0.0,0.0,0.0,0.0,0.0,0.0,0
34.182607,-118.129085,4.59,4.92,0.89,1.04,4.59,4.59,1.12,1.04,2303,2022-06-07 23:43:34.843,2022-06-07 16:43:34.843,14,0,0,16.307,34.182604,-118.129084,0.00,0.00,-0.89,2.30,0.10,-5.50,0,1,0,81,100,-7757,2810,16307,3131.50,10,WP,1,0,0,0,0,0,0,1654645414843,4116,4111,4104,4092,0,0,27,,,,,,,0,0,0,-23.00,1.00,-55.00,0.00,0.00,-97.00,14,14.00,4.00,3.17,0.00,0.00,-4.00,0,,,100,100,0,2,0,0,0,1,0,,,,,0.0,0.0,0.0,0.0,0.0,0.0,0
34.182607,-118.129085,4.92,5.25,0.89,1.05,4.92,4.92,1.12,1.05,2403,2022-06-07 23:43:34.943,2022-06-07 16:43:34.943,14,0,0,16.307,34.182604,-118.129084,0.00,0.00,-0.89,2.30,-0.20,-5.50,0,1,0,81,100,-7757,2810,16307,3131.50,10,WP,1,0,0,0,0,0,0,1654645414943,4116,4111,4104,4092,0,0,27,,,,,,,0,0,0,-23.00,-2.00,-55.00,0.00,0.00,-97.00,14,15.00,4.00,3.20,0.00,0.00,-4.00,0,,,100,100,0,2,0,0,0,1,0,,,,,0.0,0.0,0.0,0.0,0.0,0.0,0
34.182607,-118.129085,4.92,5.25,0.89,1.11,4.92,4.92,1.12,1.11,2503,2022-06-07 23:43:35.043,2022-06-07 16:43:35.043,14,0,0,16.307,34.182604,-118.129084,0.00,0.00,-0.89,2.70,-0.40,-5.60,0,1,0,81,100,-7757,2810,16307,3131.50,10,WP,1,0,0,0,0,0,0,1654645415043,4116,4111,4104,4092,0,0,27,,,,,,,0,0,0,-27.00,-4.00,-56.00,0.00,0.00,-98.00,14,15.00,4.00,3.38,0.00,0.00,-4.00,0,,,100,100,0,2,0,0,0,1,0,,,,,0.0,0.0,0.0,0.0,0.0,0.0,0
34.182607,-118.129085,5.25,5.58,0.89,1.12,5.25,5.25,1.12,1.12,2604,2022-06-07 23:43:35.145,2022-06-07 16:43:35.145,14,0,0,16.307,34.182604,-118.129084,0.00,0.00,-0.89,2.70,-0.50,-5.50,0,1,0,81,100,-7757,2810,16307,3131.50,10,WP,1,0,0,0,0,0,0,1654645415144,4116,4111,4104,4092,0,0,27,,,,,,,0,0,0,-27.00,-5.00,-55.00,0.00,0.00,-98.00,14,16.00,4.00,3.41,0.00,0.00,-4.00,0,,,100,100,0,2,0,0,0,1,0,,,,,0.0,0.0,0.0,0.0,0.0,0.0,0
34.182607,-118.129085,5.25,5.58,0.67,1.11,5.25,5.25,1.12,1.12,2704,2022-06-07 23:43:35.244,2022-06-07 16:43:35.244,14,0,0,16.307,34.182604,-118.129084,0.00,0.00,-0.67,2.50,-0.90,-5.30,0,1,0,81,100,-7757,2810,16307,3131.50,10,WP,1,0,0,0,0,0,0,1654645415244,4116,4111,4104,4092,0,0,27,,,,,,,0,0,0,-25.00,-9.00,-53.00,0.00,0.00,-98.00,14,16.00,3.00,3.40,0.00,0.00,-3.00,0,,,100,100,0,2,0,0,0,1,0,,,,,0.0,0.0,0.0,0.0,0.0,0.0,0
34.182607,-118.129085,5.58,5.58,0.89,1.12,5.58,5.58,1.12,1.12,2801,2022-06-07 23:43:35.342,2022-06-07 16:43:35.342,14,0,0,16.307,34.182604,-118.129084,0.00,0.00,-0.89,2.40,-1.20,-5.30,0,1,0,81,100,-7757,2810,16307,3131.50,10,WP,1,0,0,0,0,0,0,1654645415341,4116,4111,4104,4092,0,0,27,,,,,,,0,0,0,-24.00,-12.00,-53.00,0.00,0.00,-98.00,14,17.00,4.00,3.40,0.00,0.00,-4.00,0,,,100,100,0,2,0,0,0,1,0,,,,,0.0,0.0,0.0,0.0,0.0,0.0,0
34.182607,-118.129085,5.58,5.91,0.89,1.07,5.58,5.58,1.12,1.12,2902,2022-06-07 23:43:35.442,2022-06-07 16:43:35.442,14,0,0,16.307,34.182604,-118.129084,0.00,0.00,-0.89,1.90,-1.20,-5.40,0,1,0,81,100,-7757,2810,16307,3131.50,10,WP,1,0,0,0,0,0,0,1654645415442,4116,4111,4104,4092,0,0,27,,,,,,,0,0,0,-19.00,-12.00,-54.00,0.00,0.00,-98.00,14,17.00,4.00,3.25,0.00,0.00,-4.00,0,,,100,100,0,2,0,0,0,1,0,,,,,0.0,0.0,0.0,0.0,0.0,0.0,0
34.182607,-118.129085,5.58,5.91,0.67,1.06,5.58,5.58,1.12,1.12,3002,2022-06-07 23:43:35.542,2022-06-07 16:43:35.542,14,0,0,16.307,34.182604,-118.129084,0.00,0.00,-0.67,0.60,-0.30,-5.60,0,1,0,81,100,-7757,2810,16307,3131.50,10,WP,1,0,0,0,0,0,0,1654645415542,4116,4111,4104,4092,0,0,27,,,,,,,0,0,0,-6.00,-3.00,-56.00,0.00,0.00,-98.00,14,17.00,3.00,3.24,0.00,0.00,-3.00,0,,,100,100,0,2,0,0,0,1,0,,,,,0.0,0.0,0.0,0.0,0.0,0.0,0
34.182607,-118.129085,5.91,6.23,0.45,1.10,5.91,5.91,1.12,1.12,3101,2022-06-07 23:43:35.642,2022-06-07 16:43:35.642,14,0,0,16.307,34.182604,-118.129084,0.00,0.00,-0.45,1.00,-0.50,-6.20,0,1,0,81,100,-7757,2810,16307,3131.50,10,WP,1,0,0,0,0,0,0,1654645415641,4116,4111,4104,4092,0,0,27,,,,,,,0,0,0,-10.00,-5.00,-62.00,0.00,0.00,-98.00,14,18.00,2.00,3.37,0.00,0.00,-2.00,0,,,100,100,0,2,0,0,0,1,0,,,,,0.0,0.0,0.0,0.0,0.0,0.0,0
34.182607,-118.129085,5.91,6.23,0.22,1.12,5.91,5.91,1.12,1.12,3202,2022-06-07 23:43:35.742,2022-06-07 16:43:35.742,14,0,0,16.307,34.182604,-118.129084,0.00,0.00,-0.22,1.30,-1.00,-7.50,0,1,0,81,100,-7757,2810,16307,3131.50,10,WP,1,0,0,0,0,0,0,1654645415742,4116,4111,4104,4092,0,0,27,,,,,,,0,0,0,-13.00,-10.00,-75.00,0.00,0.00,-99.00,14,18.00,1.00,3.40,0.00,0.00,-1.00,0,,,100,100,0,2,0,0,0,1,0,,,,,0.0,0.0,0.0,0.0,0.0,0.0,0
34.182607,-118.129085,5.91,6.23,0.22,1.13,5.91,5.91,1.12,1.13,3302,2022-06-07 23:43:35.843,2022-06-07 16:43:35.843,14,0,0,16.307,34.182604,-118.129084,0.00,0.00,-0.22,1.40,-1.50,-9.40,0,1,0,81,100,-7757,2810,16307,3131.50,10,WP,1,0,0,0,0,0,0,1654645415842,4116,4111,4104,4092,0,0,27,,,,,,,0,0,0,-14.00,-15.00,-94.00,0.00,0.00,-100.00,14,18.00,1.00,3.44,0.00,0.00,-1.00,0,,,100,100,0,2,0,0,0,1,0,,,,,0.0,0.0,0.0,0.0,0.0,0.0,0
34.182607,-118.129085,5.91,6.23,0.00,1.14,5.91,5.91,1.12,1.14,3401,2022-06-07 23:43:35.941,2022-06-07 16:43:35.941,14,0,0,16.307,34.182604,-118.129084,0.00,0.00,0.00,1.40,-1.10,-11.90,0,1,0,81,100,-7757,2810,16307,3131.50,10,WP,1,0,0,0,0,0,0,1654645415941,4116,4111,4104,4092,0,0,27,,,,,,,0,0,0,-14.00,-11.00,-119.00,0.00,0.00,-105.00,14,18.00,0.00,3.48,0.00,0.00,0.00,0,,,100,100,0,2,0,0,0,1,0,,,,,0.0,0.0,0.0,0.0,0.0,0.0,0
34.182607,-118.129085,5.91,6.23,0.00,1.14,5.91,5.91,1.12,1.14,3501,2022-06-07 23:43:36.042,2022-06-07 16:43:36.042,14,0,0,16.307,34.182604,-118.129084,0.00,0.00,0.00,1.50,-0.20,-15.00,0,1,0,81,100,-7757,2810,16307,3131.50,10,WP,1,0,0,0,0,0,0,1654645416041,4116,4111,4104,4092,0,0,27,,,,,,,0,0,0,-15.00,-2.00,-150.00,0.00,0.00,-117.00,14,18.00,0.00,3.48,0.00,0.00,0.00,0,,,100,100,0,2,0,0,0,1,0,,,,,0.0,0.0,0.0,0.0,0.0,0.0,0
34.182607,-118.129085,5.91,6.23,0.00,1.16,5.91,5.91,1.12,1.16,3601,2022-06-07 23:43:36.142,2022-06-07 16:43:36.142,14,0,0,16.307,34.182604,-118.129084,0.00,0.00,0.00,1.60,0.30,-18.70,0,1,0,81,100,-7757,2810,16307,3131.50,10,WP,1,0,0,0,0,0,0,1654645416141,4116,4111,4104,4092,0,0,27,,,,,,,0,0,0,-16.00,3.00,-187.00,0.00,0.00,-139.00,14,18.00,0.00,3.52,0.00,0.00,0.00,0,,,100,100,0,2,0,0,0,1,0,,,,,0.0,0.0,0.0,0.0,0.0,0.0,0
34.182607,-118.129085,5.91,6.23,0.00,1.13,5.91,5.91,1.12,1.16,3701,2022-06-07 23:43:36.242,2022-06-07 16:43:36.242,14,0,0,16.307,34.182604,-118.129084,0.00,0.00,0.00,1.80,0.10,-22.90,0,1,0,81,100,-7757,2810,16307,3131.50,10,WP,1,0,0,0,0,0,0,1654645416241,4116,4111,4104,4092,0,0,27,,,,,,,0,0,0,-18.00,1.00,-229.00,0.00,0.00,-171.00,14,18.00,0.00,3.45,0.00,0.00,0.00,0,,,100,100,0,2,0,0,0,1,0,,,,,0.0,0.0,0.0,0.0,0.0,0.0,0
34.182607,-118.129085,6.23,6.23,0.00,1.15,6.23,6.23,1.12,1.16,3801,2022-06-07 23:43:36.342,2022-06-07 16:43:36.342,14,0,0,16.307,34.182604,-118.129084,0.00,0.00,0.00,1.80,-0.60,-27.70,0,1,0,81,100,-7757,2810,16307,3131.50,10,WP,1,0,0,0,0,0,0,1654645416341,4116,4111,4104,4092,0,0,27,,,,,,,0,0,0,-18.00,-6.00,-277.00,0.00,0.00,-212.00,14,19.00,0.00,3.49,0.00,0.00,0.00,0,,,100,100,0,2,0,0,0,1,0,,,,,0.0,0.0,0.0,0.0,0.0,0.0,0
34.182607,-118.129085,6.23,6.56,0.00,1.14,6.23,6.23,1.12,1.16,3902,2022-06-07 23:43:36.443,2022-06-07 16:43:36.443,14,0,0,16.307,34.182604,-118.129084,0.00,0.00,0.00,1.70,-1.30,-33.10,0,1,0,81,100,-7757,2810,16307,3131.50,10,WP,1,0,0,0,0,0,0,1654645416442,4116,4111,4104,4092,0,0,27,,,,,,,0,0,0,-17.00,-13.00,-331.00,0.00,0.00,-257.00,14,19.00,0.00,3.46,0.00,0.00,0.00,0,,,100,100,0,2,0,0,0,1,0,,,,,0.0,0.0,0.0,0.0,0.0,0.0,0
34.182607,-118.129085,6.23,6.56,0.00,1.15,6.23,6.23,1.12,1.16,4001,2022-06-07 23:43:36.542,2022-06-07 16:43:36.542,14,0,0,16.307,34.182604,-118.129084,0.00,0.00,0.00,1.60,-1.80,-39.00,0,1,0,81,100,-7757,2810,16307,3131.50,10,WP,1,0,0,0,0,0,0,1654645416541,4116,4111,4104,4092,0,0,27,,,,,,,0,0,0,-16.00,-18.00,-390.00,0.00,0.00,-308.00,14,19.00,0.00,3.51,0.00,0.00,0.00,0,,,100,100,0,2,0,0,0,1,0,,,,,0.0,0.0,0.0,0.0,0.0,0.0,0
34.182607,-118.129085,6.23,6.56,0.00,1.20,6.23,6.23,1.12,1.20,4101,2022-06-07 23:43:36.642,2022-06-07 16:43:36.642,14,0,0,16.307,34.182604,-118.129084,0.00,0.00,0.00,1.50,-2.10,-45.60,0,1,0,81,100,-7757,2810,16307,3131.50,10,WP,1,0,0,0,0,0,0,1654645416641,4116,4111,4104,4092,0,0,27,,,,,,,0,0,0,-15.00,-21.00,-456.00,0.00,0.00,-365.00,14,19.00,0.00,3.66,0.00,0.00,0.00,0,,,100,100,0,2,0,0,0,1,0,,,,,0.0,0.0,0.0,0.0,0.0,0.0,0
34.182607,-118.129085,6.23,6.56,0.00,1.22,6.23,6.23,1.12,1.22,4201,2022-06-07 23:43:36.742,2022-06-07 16:43:36.742,14,0,0,16.307,34.182604,-118.129084,0.00,0.00,0.00,1.10,-2.30,-52.70,0,1,0,81,100,-7757,2810,16307,3131.50,10,WP,1,0,0,0,0,0,0,1654645416741,4116,4111,4104,4092,0,0,27,,,,,,,0,0,0,-11.00,-23.00,-527.00,0.00,0.00,-428.00,14,19.00,0.00,3.72,0.00,0.00,0.00,0,,,100,100,0,2,0,0,0,1,0,,,,,0.0,0.0,0.0,0.0,0.0,0.0,0
34.182608,-118.129085,6.23,6.56,0.00,1.27,6.23,6.23,1.12,1.27,4302,2022-06-07 23:43:36.842,2022-06-07 16:43:36.842,14,0,0,16.301,34.182604,-118.129084,0.00,0.00,0.00,1.00,-2.60,-60.20,0,1,0,80,100,-7065,2806,16301,3131.50,10,WP,1,0,0,0,0,0,0,1654645416842,4116,4111,4104,4092,0,0,27,,,,,,,0,0,0,-10.00,-26.00,-602.00,0.00,0.00,-497.00,14,19.00,0.00,3.86,0.00,0.00,0.00,0,,,100,100,0,2,0,0,0,1,0,,,,,0.0,0.0,0.0,0.0,0.0,0.0,0
34.182608,-118.129085,6.23,6.56,0.00,1.29,6.23,6.23,1.12,1.29,4402,2022-06-07 23:43:36.943,2022-06-07 16:43:36.943,14,0,0,16.301,34.182604,-118.129084,0.00,0.00,0.00,1.10,-2.70,-67.70,0,1,0,80,100,-7065,2806,16301,3131.50,10,WP,1,0,0,0,0,0,0,1654645416942,4116,4111,4104,4092,0,0,27,,,,,,,0,0,0,-11.00,-27.00,-677.00,0.00,0.00,-572.00,14,19.00,0.00,3.92,0.00,0.00,0.00,0,,,100,100,0,2,0,0,0,1,0,,,,,0.0,0.0,0.0,0.0,0.0,0.0,0
34.182608,-118.129085,6.23,6.56,0.00,1.27,6.23,6.23,1.12,1.29,4502,2022-06-07 23:43:37.042,2022-06-07 16:43:37.043,14,0,0,16.301,34.182604,-118.129084,0.00,0.00,0.00,1.20,-2.60,-75.20,0,1,0,80,100,-7065,2806,16301,3131.50,10,WP,1,0,0,0,0,0,0,1654645417042,4116,4111,4104,4092,0,0,27,,,,,,,0,0,0,-12.00,-26.00,-752.00,0.00,0.00,-649.00,14,19.00,0.00,3.88,0.00,0.00,0.00,0,,,100,100,0,2,0,0,0,1,0,,,,,0.0,0.0,0.0,0.0,0.0,0.0,0
34.182608,-118.129085,6.23,6.56,0.00,1.29,6.23,6.23,1.12,1.29,4602,2022-06-07 23:43:37.143,2022-06-07 16:43:37.143,14,0,0,16.301,34.182604,-118.129084,0.00,0.00,0.00,0.80,-2.80,-82.60,0,1,0,80,100,-7065,2806,16301,3131.50,10,WP,1,0,0,0,0,0,0,1654645417142,4116,4111,4104,4092,0,0,27,,,,,,,0,0,0,-8.00,-28.00,-826.00,0.00,0.00,-726.00,14,19.00,0.00,3.93,0.00,0.00,0.00,0,,,100,100,0,2,0,0,0,1,0,,,,,0.0,0.0,0.0,0.0,0.0,0.0,0
34.182608,-118.129085,6.23,6.56,0.00,1.29,6.23,6.23,1.12,1.29,4702,2022-06-07 23:43:37.242,2022-06-07 16:43:37.242,14,0,0,16.301,34.182604,-118.129084,0.00,0.00,0.00,0.20,-2.70,-90.10,0,1,0,80,100,-7065,2806,16301,3131.50,10,WP,1,0,0,0,0,0,0,1654645417242,4116,4111,4104,4092,0,0,27,,,,,,,0,0,0,-2.00,-27.00,-901.00,0.00,0.00,-801.00,14,19.00,0.00,3.94,0.00,0.00,0.00,0,,,100,100,0,2,0,0,0,1,0,,,,,0.0,0.0,0.0,0.0,0.0,0.0,0
34.182608,-118.129085,6.23,6.56,0.00,1.30,6.23,6.23,1.12,1.30,4802,2022-06-07 23:43:37.343,2022-06-07 16:43:37.343,14,0,0,16.301,34.182604,-118.129084,0.00,0.00,0.00,0.00,-2.60,-97.50,0,1,0,80,100,-7065,2806,16301,3131.50,10,WP,1,0,0,0,0,0,0,1654645417342,4116,4111,4104,4092,0,0,27,,,,,,,0,0,0,-0.00,-26.00,-975.00,0.00,0.00,-877.00,14,19.00,0.00,3.97,0.00,0.00,0.00,0,,,100,100,0,2,0,0,0,1,0,,,,,0.0,0.0,0.0,0.0,0.0,0.0,0
34.182608,-118.129084,6.23,6.56,0.00,1.26,6.23,6.23,1.12,1.30,4902,2022-06-07 23:43:37.442,2022-06-07 16:43:37.442,14,0,0,16.301,34.182604,-118.129084,0.00,0.00,0.00,-0.40,-2.50,-104.90,0,1,0,80,100,-7065,2806,16301,3131.50,10,WP,1,0,0,0,0,0,0,1654645417442,4116,4111,4104,4092,0,0,27,,,,,,,0,0,0,4.00,-25.00,-1049.00,0.00,0.00,-952.00,14,19.00,0.00,3.84,0.00,0.00,0.00,0,,,100,100,0,2,0,0,0,1,0,,,,,0.0,0.0,0.0,0.0,0.0,0.0,0
34.182608,-118.129084,6.23,6.56,0.00,1.26,6.23,6.23,1.12,1.30,5002,2022-06-07 23:43:37.542,2022-06-07 16:43:37.542,14,0,0,16.301,34.182604,-118.129084,0.00,0.00,0.00,-0.80,-2.70,-112.40,0,1,0,80,100,-7065,2806,16301,3131.50,10,WP,1,0,0,0,0,0,0,1654645417542,4116,4111,4104,4092,0,0,27,,,,,,,0,0,0,8.00,-27.00,-1124.00,0.00,0.00,-1028.00,14,19.00,0.00,3.85,0.00,0.00,0.00,0,,,100,100,0,2,0,0,0,1,0,,,,,0.0,0.0,0.0,0.0,0.0,0.0,0
34.182608,-118.129084,6.23,6.56,0.00,1.29,6.23,6.23,1.12,1.30,5102,2022-06-07 23:43:37.642,2022-06-07 16:43:37.642,14,0,0,16.301,34.182604,-118.129084,0.00,0.00,0.00,-1.30,-2.20,-119.70,0,1,0,80,100,-7065,2806,16301,3131.50,10,WP,1,0,0,0,0,0,0,1654645417642,4116,4111,4104,4092,0,0,27,,,,,,,0,0,0,13.00,-22.00,-1197.00,0.00,0.00,-1103.00,14,19.00,0.00,3.94,0.00,0.00,0.00,0,,,100,100,0,2,0,0,0,1,0,,,,,0.0,0.0,0.0,0.0,0.0,0.0,0
34.182608,-118.129084,6.23,6.56,0.00,1.29,6.23,6.23,1.12,1.30,5202,2022-06-07 23:43:37.742,2022-06-07 16:43:37.742,14,0,0,16.301,34.182604,-118.129084,0.00,0.00,0.00,-1.70,-1.60,-127.00,0,1,0,80,100,-7065,2806,16301,3131.50,10,WP,1,0,0,0,0,0,0,1654645417742,4116,4111,4104,4092,0,0,27,,,,,,,0,0,0,17.00,-16.00,-1270.00,0.00,0.00,-1176.00,14,19.00,0.00,3.94,0.00,0.00,0.00,0,,,100,100,0,2,0,0,0,1,0,,,,,0.0,0.0,0.0,0.0,0.0,0.0,0
34.182608,-118.129084,6.23,6.56,0.00,1.32,6.23,6.23,1.12,1.32,5303,2022-06-07 23:43:37.843,2022-06-07 16:43:37.843,14,0,0,16.301,34.182604,-118.129084,0.00,0.00,0.00,-1.90,-1.10,-134.40,0,1,0,80,100,-7065,2806,16301,3131.50,10,WP,1,0,0,0,0,0,0,1654645417843,4116,4111,4104,4092,0,0,27,,,,,,,0,0,0,19.00,-11.00,-1344.00,0.00,0.00,-1250.00,14,19.00,0.00,4.04,0.00,0.00,0.00,0,,,100,100,0,2,0,0,0,1,0,,,,,0.0,0.0,0.0,0.0,0.0,0.0,0
34.182608,-118.129084,6.23,6.56,0.00,1.33,6.23,6.23,1.12,1.33,5402,2022-06-07 23:43:37.943,2022-06-07 16:43:37.943,14,0,0,16.301,34.182604,-118.129084,0.00,0.00,0.00,-2.10,-0.70,-141.80,0,1,0,80,100,-7065,2806,16301,3131.50,10,WP,1,0,0,0,0,0,0,1654645417942,4116,4111,4104,4092,0,0,27,,,,,,,0,0,0,21.00,-7.00,-1418.00,0.00,0.00,-1325.00,14,19.00,0.00,4.04,0.00,0.00,0.00,0,,,100,100,0,2,0,0,0,1,0,,,,,0.0,0.0,0.0,0.0,0.0,0.0,0
34.182608,-118.129084,6.23,6.56,0.00,1.37,6.23,6.23,1.12,1.37,5503,2022-06-07 23:43:38.043,2022-06-07 16:43:38.043,14,0,0,16.301,34.182604,-118.129084,0.00,0.00,0.00,-2.20,-0.30,-149.00,0,1,0,80,100,-7065,2806,16301,3131.50,10,WP,1,0,0,0,0,0,0,1654645418043,4116,4111,4104,4092,0,0,27,,,,,,,0,0,0,22.00,-3.00,-1490.00,0.00,0.00,-1398.00,14,19.00,0.00,4.16,0.00,0.00,0.00,0,,,100,100,0,2,0,0,0,1,0,,,,,0.0,0.0,0.0,0.0,0.0,0.0,0
34.182608,-118.129084,6.23,6.56,0.00,1.36,6.23,6.23,1.12,1.37,5602,2022-06-07 23:43:38.143,2022-06-07 16:43:38.143,14,0,0,16.301,34.182604,-118.129084,0.00,0.00,0.00,-2.20,-0.10,-156.40,0,1,0,80,100,-7065,2806,16301,3131.50,10,WP,1,0,0,0,0,0,0,1654645418142,4116,4111,4104,4092,0,0,27,,,,,,,0,0,0,22.00,-1.00,-1564.00,0.00,0.00,-1471.00,14,19.00,0.00,4.16,0.00,0.00,0.00,0,,,100,100,0,2,0,0,0,1,0,,,,,0.0,0.0,0.0,0.0,0.0,0.0,0
34.182608,-118.129083,6.23,6.56,0.00,1.33,6.23,6.23,1.12,1.37,5703,2022-06-07 23:43:38.244,2022-06-07 16:43:38.244,14,0,0,16.301,34.182604,-118.129084,0.00,0.00,0.00,-2.00,0.00,-162.50,0,1,0,80,100,-7065,2806,16301,3131.50,10,WP,1,0,0,0,0,0,0,1654645418243,4116,4111,4104,4092,0,0,27,,,,,,,0,0,0,20.00,0.00,-1625.00,0.00,0.00,-1545.00,14,19.00,0.00,4.06,0.00,0.00,0.00,0,,,100,100,0,2,0,0,0,1,0,,,,,0.0,0.0,0.0,0.0,0.0,0.0,0
34.182608,-118.129083,6.23,6.56,0.00,1.32,6.23,6.23,1.12,1.37,5803,2022-06-07 23:43:38.343,2022-06-07 16:43:38.343,14,0,0,16.301,34.182604,-118.129084,0.00,0.00,0.00,-1.60,0.00,-166.80,0,1,0,80,100,-7065,2806,16301,3131.50,10,WP,1,0,0,0,0,0,0,1654645418343,4116,4111,4104,4092,0,0,27,,,,,,,0,0,0,16.00,0.00,-1668.00,0.00,0.00,-1616.00,14,19.00,0.00,4.02,0.00,0.00,0.00,0,,,100,100,0,2,0,0,0,1,0,,,,,0.0,0.0,0.0,0.0,0.0,0.0,0
34.182608,-118.129083,6.23,6.56,0.00,1.34,6.23,6.23,1.12,1.37,5904,2022-06-07 23:43:38.445,2022-06-07 16:43:38.445,14,0,0,16.301,34.182604,-118.129084,0.00,0.00,0.00,-1.40,0.20,-169.60,0,1,0,80,100,-7065,2806,16301,3131.50,10,WP,1,0,0,0,0,0,0,1654645418444,4116,4111,4104,4092,0,0,27,,,,,,,0,0,0,14.00,2.00,-1696.00,0.00,0.00,-1672.00,14,19.00,0.00,4.09,0.00,0.00,0.00,0,,,100,100,0,2,0,0,0,1,0,,,,,0.0,0.0,0.0,0.0,0.0,0.0,0
34.182608,-118.129083,6.23,6.56,0.00,1.33,6.23,6.23,1.12,1.37,6003,2022-06-07 23:43:38.544,2022-06-07 16:43:38.544,14,0,0,16.301,34.182604,-118.129084,0.00,0.00,0.00,-1.40,0.30,-171.30,0,1,0,80,100,-7065,2806,16301,3131.50,10,WP,1,0,0,0,0,0,0,1654645418543,4116,4111,4104,4092,0,0,27,,,,,,,0,0,0,14.00,3.00,-1713.00,0.00,0.00,-1712.00,14,19.00,0.00,4.04,0.00,0.00,0.00,0,,,100,100,0,2,0,0,0,1,0,,,,,0.0,0.0,0.0,0.0,0.0,0.0,0
34.182608,-118.129083,6.23,6.56,0.00,1.36,6.23,6.23,1.12,1.37,6103,2022-06-07 23:43:38.643,2022-06-07 16:43:38.643,14,0,0,16.301,34.182604,-118.129084,0.00,0.00,0.00,-1.40,0.60,-172.20,0,1,0,80,100,-7065,2806,16301,3131.50,10,WP,1,0,0,0,0,0,0,1654645418643,4116,4111,4104,4092,0,0,27,,,,,,,0,0,0,14.00,6.00,-1722.00,0.00,0.00,-1738.00,14,19.00,0.00,4.14,0.00,0.00,0.00,0,,,100,100,0,2,0,0,0,1,0,,,,,0.0,0.0,0.0,0.0,0.0,0.0,0
34.182608,-118.129083,6.23,6.56,0.00,1.34,6.23,6.23,1.12,1.37,6203,2022-06-07 23:43:38.743,2022-06-07 16:43:38.743,14,0,0,16.262,34.182604,-118.129084,0.00,0.00,0.00,-1.50,0.50,-172.70,0,1,0,80,100,-7490,2800,16262,3131.50,10,WP,1,0,0,0,0,0,0,1654645418743,4116,4111,4104,4092,0,0,27,,,,,,,0,0,0,15.00,5.00,-1727.00,0.00,0.00,-1755.00,14,19.00,0.00,4.08,0.00,0.00,0.00,0,,,100,100,0,2,0,0,0,1,0,,,,,0.0,0.0,0.0,0.0,0.0,0.0,0
34.182608,-118.129083,6.23,6.56,0.00,1.42,6.23,6.23,1.12,1.42,6303,2022-06-07 23:43:38.844,2022-06-07 16:43:38.844,14,0,0,16.262,34.182604,-118.129084,0.00,0.00,0.00,-1.60,0.70,-172.40,0,1,0,80,100,-7490,2800,16262,3131.50,10,WP,1,0,0,0,0,0,0,1654645418843,4116,4111,4104,4092,0,0,27,,,,,,,0,0,0,16.00,7.00,-1724.00,0.00,0.00,-1764.00,14,19.00,0.00,4.34,0.00,0.00,0.00,0,,,100,100,0,2,0,0,0,1,0,,,,,0.0,0.0,0.0,0.0,0.0,0.0,0
34.182608,-118.129083,6.23,6.56,0.00,1.41,6.23,6.23,1.12,1.42,6404,2022-06-07 23:43:38.944,2022-06-07 16:43:38.944,14,0,0,16.262,34.182604,-118.129084,0.00,0.00,0.00,-1.60,0.50,-172.20,0,1,0,80,100,-7490,2800,16262,3131.50,10,WP,1,0,0,0,0,0,0,1654645418944,4116,4111,4104,4092,0,0,27,,,,,,,0,0,0,16.00,5.00,-1722.00,0.00,0.00,-1769.00,14,19.00,0.00,4.31,0.00,0.00,0.00,0,,,100,100,0,2,0,0,0,1,0,,,,,0.0,0.0,0.0,0.0,0.0,0.0,0
34.182608,-118.129083,6.23,6.56,0.00,1.42,6.23,6.23,1.12,1.42,6504,2022-06-07 23:43:39.045,2022-06-07 16:43:39.045,14,0,0,16.262,34.182604,-118.129084,0.00,0.00,0.00,-1.40,0.70,-172.10,0,1,0,80,100,-7490,2800,16262,3131.50,10,WP,1,0,0,0,0,0,0,1654645419044,4116,4111,4104,4092,0,0,27,,,,,,,0,0,0,14.00,7.00,-1721.00,0.00,0.00,-1771.00,14,19.00,0.00,4.32,0.00,0.00,0.00,0,,,100,100,0,2,0,0,0,1,0,,,,,0.0,0.0,0.0,0.0,0.0,0.0,0
34.182608,-118.129083,6.23,6.56,0.00,1.40,6.23,6.23,1.12,1.42,6605,2022-06-07 23:43:39.145,2022-06-07 16:43:39.145,14,0,0,16.262,34.182604,-118.129084,0.00,0.00,0.00,-2.80,-0.60,-172.10,0,1,0,80,100,-7490,2800,16262,3131.50,10,WP,1,0,0,0,0,0,0,1654645419145,4116,4111,4104,4092,0,0,27,,,,,,,0,0,0,28.00,-6.00,-1721.00,0.00,0.00,-1771.00,14,19.00,0.00,4.28,0.00,0.00,0.00,0,,,100,100,0,2,0,0,0,1,0,,,,,0.0,0.0,0.0,0.0,0.0,0.0,0
34.182608,-118.129083,6.23,6.56,0.00,1.41,6.23,6.23,1.12,1.42,6703,2022-06-07 23:43:39.243,2022-06-07 16:43:39.244,14,0,0,16.262,34.182604,-118.129084,0.00,0.00,0.00,-8.30,-0.70,-172.20,0,1,0,80,100,-7490,2800,16262,3131.50,10,WP,1,0,0,0,0,0,0,1654645419243,4116,4111,4104,4092,0,0,27,,,,,,,0,0,0,83.00,-7.00,-1722.00,0.00,0.00,-1771.00,14,19.00,0.00,4.30,0.00,0.00,0.00,0,,,100,100,0,2,0,0,0,1,0,,,,,0.0,0.0,0.0,0.0,0.0,0.0,0
34.182608,-118.129083,6.23,6.56,0.45,1.36,6.23,6.23,1.12,1.42,6803,2022-06-07 23:43:39.343,2022-06-07 16:43:39.343,14,0,0,16.262,34.182604,-118.129084,-0.45,0.00,0.00,-12.90,-0.70,-172.20,0,1,0,80,100,-7490,2800,16262,3131.50,10,WP,1,0,0,0,0,0,0,1654645419343,4116,4111,4104,4092,0,0,27,,,,,,,0,0,0,129.00,-7.00,-1722.00,0.00,0.00,-1771.00,14,19.00,2.00,4.15,-2.00,0.00,0.00,0,,,100,100,0,2,0,0,0,1,0,,,,,0.0,0.0,0.0,0.0,0.0,0.0,0
34.182608,-118.129083,6.23,6.56,0.89,1.34,6.23,6.23,1.12,1.42,6902,2022-06-07 23:43:39.443,2022-06-07 16:43:39.443,14,0,0,16.262,34.182604,-118.129084,-0.89,0.00,0.00,-16.40,0.10,-172.20,0,1,0,80,100,-7490,2800,16262,3131.50,10,WP,1,0,0,0,0,0,0,1654645419442,4116,4111,4104,4092,0,0,27,,,,,,,0,0,0,164.00,1.00,-1722.00,0.00,0.00,-1771.00,14,19.00,4.00,4.07,-4.00,0.00,0.00,0,,,100,100,0,2,0,0,0,1,0,,,,,0.0,0.0,0.0,0.0,0.0,0.0,0
34.182607,-118.129083,6.23,6.56,1.34,1.16,6.23,6.23,1.34,1.42,7003,2022-06-07 23:43:39.543,2022-06-07 16:43:39.543,14,0,0,16.262,34.182604,-118.129084,-1.34,0.00,0.00,-17.80,0.90,-172.20,0,1,0,80,100,-7490,2800,16262,3131.50,10,WP,1,0,0,0,0,0,0,1654645419543,4116,4111,4104,4092,0,0,27,,,,,,,0,0,0,178.00,9.00,-1722.00,0.00,0.00,-1771.00,14,19.00,6.00,3.54,-6.00,0.00,0.00,0,,,100,100,0,2,0,0,0,1,0,,,,,0.0,0.0,0.0,0.0,0.0,0.0,0
34.182606,-118.129083,6.23,6.56,2.03,0.89,6.23,6.23,2.03,1.42,7104,2022-06-07 23:43:39.644,2022-06-07 16:43:39.644,14,0,0,16.262,34.182604,-118.129084,-2.01,-0.22,0.00,-18.40,0.60,-172.00,0,1,0,80,100,-7490,2800,16262,3131.50,10,WP,1,0,0,0,0,0,0,1654645419644,4116,4111,4104,4092,0,0,27,,,,,,,0,0,0,184.00,6.00,-1720.00,0.00,0.00,-1771.00,14,19.00,9.06,2.71,-9.00,-1.00,0.00,0,,,100,100,0,2,0,0,0,1,0,,,,,0.0,0.0,0.0,0.0,0.0,0.0,0
34.182605,-118.129083,6.23,6.56,2.72,0.55,6.23,6.23,2.72,1.42,7204,2022-06-07 23:43:39.744,2022-06-07 16:43:39.744,14,0,0,16.262,34.182604,-118.129084,-2.68,-0.45,0.00,-18.10,0.80,-172.00,0,1,0,80,100,-7490,2800,16262,3131.50,10,WP,1,0,0,0,0,0,0,1654645419744,4116,4111,4104,4092,0,0,27,,,,,,,0,0,0,181.00,8.00,-1720.00,0.00,0.00,-1771.00,14,19.00,12.17,1.67,-12.00,-2.00,0.00,0,,,100,100,0,2,0,0,0,1,0,,,,,0.0,0.0,0.0,0.0,0.0,0.0,0
34.182604,-118.129084,6.23,6.56,3.16,0.21,6.23,6.23,3.16,1.42,7304,2022-06-07 23:43:39.844,2022-06-07 16:43:39.844,14,0,0,16.262,34.182604,-118.129084,-3.13,-0.45,0.00,-18.40,-0.30,-172.00,0,1,0,80,100,-7490,2800,16262,3131.50,10,WP,1,0,0,0,0,0,0,1654645419844,4116,4111,4104,4092,0,0,27,,,,,,,0,0,0,184.00,-3.00,-1720.00,0.00,0.00,-1771.00,14,19.00,14.14,0.64,-14.00,-2.00,0.00,0,,,100,100,0,2,0,0,0,1,0,,,,,0.0,0.0,0.0,0.0,0.0,0.0,0
34.182603,-118.129084,6.23,6.56,3.86,0.46,6.23,6.23,3.86,1.42,7404,2022-06-07 23:43:39.944,2022-06-07 16:43:39.944,14,0,0,16.262,34.182604,-118.129084,-3.80,-0.67,0.00,-18.20,-1.30,-171.90,0,1,0,80,100,-7490,2800,16262,3131.50,10,WP,1,0,0,0,0,0,0,1654645419944,4116,4111,4104,4092,0,0,27,,,,,,,0,0,0,182.00,-13.00,-1719.00,0.00,0.00,-1771.00,14,19.00,17.26,1.42,-17.00,-3.00,0.00,0,,,100,100,0,2,0,0,0,1,0,,,,,0.0,0.0,0.0,0.0,0.0,0.0,0
34.182601,-118.129085,6.23,6.56,4.30,0.95,6.23,6.23,4.30,1.42,7504,2022-06-07 23:43:40.044,2022-06-07 16:43:40.044,14,0,0,16.262,34.182604,-118.129084,-4.25,-0.67,0.00,-17.00,-1.80,-171.80,0,1,0,80,100,-7490,2800,16262,3131.50,10,WP,1,0,0,0,0,0,0,1654645420044,4116,4111,4104,4092,0,0,27,,,,,,,0,0,0,170.00,-18.00,-1718.00,0.00,0.00,-1771.00,14,19.00,19.24,2.89,-19.00,-3.00,0.00,0,,,100,100,0,2,0,0,0,1,0,,,,,0.0,0.0,0.0,0.0,0.0,0.0,0
34.182600,-118.129085,6.23,6.56,4.75,1.63,6.23,6.23,4.75,1.63,7604,2022-06-07 23:43:40.145,2022-06-07 16:43:40.145,14,0,0,16.262,34.182604,-118.129084,-4.70,-0.67,0.00,-14.70,-1.50,-171.80,0,1,0,80,100,-7490,2800,16262,3131.50,10,WP,1,0,0,0,0,0,0,1654645420144,4116,4111,4104,4092,0,0,27,,,,,,,0,0,0,147.00,-15.00,-1718.00,0.00,0.00,-1771.00,14,19.00,21.21,4.98,-21.00,-3.00,0.00,0,,,100,100,0,2,0,0,0,1,0,,,,,0.0,0.0,0.0,0.0,0.0,0.0,0
34.182598,-118.129086,6.23,6.56,5.19,2.37,6.23,6.23,5.19,2.37,7703,2022-06-07 23:43:40.244,2022-06-07 16:43:40.244,14,0,0,16.262,34.182604,-118.129084,-5.14,-0.67,0.00,-10.30,-1.60,-171.90,0,1,0,80,100,-7490,2800,16262,3131.50,10,WP,1,0,0,0,0,0,0,1654645420243,4116,4111,4104,4092,0,0,27,,,,,,,0,0,0,103.00,-16.00,-1719.00,0.00,0.00,-1771.00,14,19.00,23.19,7.24,-23.00,-3.00,0.00,0,,,100,100,0,2,0,0,0,1,0,,,,,0.0,0.0,0.0,0.0,0.0,0.0,0
34.182596,-118.129086,6.23,6.89,5.44,3.16,6.23,6.23,5.44,3.16,7804,2022-06-07 23:43:40.344,2022-06-07 16:43:40.344,14,0,0,16.262,34.182604,-118.129084,-5.37,-0.89,0.00,-5.70,-1.40,-171.80,0,1,0,80,100,-7490,2800,16262,3131.50,10,WP,1,0,0,0,0,0,0,1654645420344,4116,4111,4104,4092,0,0,27,,,,,,,0,0,0,57.00,-14.00,-1718.00,0.00,0.00,-1771.00,14,19.00,24.33,9.63,-24.00,-4.00,0.00,0,,,100,100,0,2,0,0,0,1,0,,,,,0.0,0.0,0.0,0.0,0.0,0.0,0
34.182593,-118.129087,6.23,6.89,5.44,3.96,6.23,6.23,5.44,3.96,7903,2022-06-07 23:43:40.444,2022-06-07 16:43:40.444,14,0,0,16.262,34.182604,-118.129084,-5.37,-0.89,0.00,-2.30,-1.90,-172.10,0,1,0,80,100,-7490,2800,16262,3131.50,10,WP,1,0,0,0,0,0,0,1654645420443,4116,4111,4104,4092,0,0,27,,,,,,,0,0,0,23.00,-19.00,-1721.00,0.00,0.00,-1771.00,14,19.00,24.33,12.08,-24.00,-4.00,0.00,0,,,100,100,0,2,0,0,0,1,0,,,,,0.0,0.0,0.0,0.0,0.0,0.0,0
34.182591,-118.129088,6.23,6.89,5.44,4.76,6.23,6.23,5.44,4.76,8003,2022-06-07 23:43:40.544,2022-06-07 16:43:40.544,14,0,0,16.262,34.182604,-118.129084,-5.37,-0.89,0.00,0.00,-2.50,-172.00,0,1,0,80,100,-7490,2800,16262,3131.50,10,WP,1,0,0,0,0,0,0,1654645420543,4116,4111,4104,4092,0,0,27,,,,,,,0,0,0,-0.00,-25.00,-1720.00,0.00,0.00,-1771.00,14,19.00,24.33,14.50,-24.00,-4.00,0.00,0,,,100,100,0,2,0,0,0,1,0,,,,,0.0,0.0,0.0,0.0,0.0,0.0,0
34.182589,-118.129088,6.23,6.89,5.19,5.57,6.23,6.23,5.44,5.57,8103,2022-06-07 23:43:40.644,2022-06-07 16:43:40.644,14,0,0,16.262,34.182604,-118.129084,-5.14,-0.67,0.00,1.50,-3.30,-172.20,0,1,0,80,100,-7490,2800,16262,3131.50,10,WP,1,0,0,0,0,0,0,1654645420643,4116,4111,4104,4092,0,0,27,,,,,,,0,0,0,-15.00,-33.00,-1722.00,0.00,0.00,-1771.00,14,19.00,23.19,16.97,-23.00,-3.00,0.00,0,,,100,100,0,2,0,0,0,1,0,,,,,0.0,0.0,0.0,0.0,0.0,0.0,0
34.182587,-118.129089,6.23,6.56,4.97,6.31,6.23,6.23,5.44,6.31,8203,2022-06-07 23:43:40.744,2022-06-07 16:43:40.744,14,0,0,16.209,34.182604,-118.129084,-4.92,-0.67,0.00,2.10,-3.70,-172.00,0,1,0,80,100,-7954,2796,16209,3131.50,10,WP,1,0,0,0,0,0,0,1654645420743,4116,4111,4104,4092,0,0,27,,,,,,,0,0,0,-21.00,-37.00,-1720.00,0.00,0.00,-1771.00,14,19.00,22.20,19.23,-22.00,-3.00,0.00,0,,,100,100,0,2,0,0,0,1,0,,,,,0.0,0.0,0.0,0.0,0.0,0.0,0
34.182585,-118.129090,6.23,6.56,4.75,7.04,6.23,6.23,5.44,7.04,8304,2022-06-07 23:43:40.845,2022-06-07 16:43:40.845,14,0,0,16.209,34.182604,-118.129084,-4.70,-0.67,0.00,2.40,-4.50,-172.20,0,1,0,80,100,-7954,2796,16209,3131.50,10,WP,1,0,0,0,0,0,0,1654645420844,4116,4111,4104,4092,0,0,27,,,,,,,0,0,0,-24.00,-45.00,-1722.00,0.00,0.00,-1771.00,14,19.00,21.21,21.47,-21.00,-3.00,0.00,0,,,100,100,0,2,0,0,0,1,0,,,,,0.0,0.0,0.0,0.0,0.0,0.0,0
34.182583,-118.129090,6.23,6.56,4.50,7.71,6.23,6.23,5.44,7.71,8404,2022-06-07 23:43:40.945,2022-06-07 16:43:40.945,14,0,0,16.209,34.182604,-118.129084,-4.47,-0.45,0.00,2.40,-3.90,-172.10,0,1,0,80,100,-7954,2796,16209,3131.50,10,WP,1,0,0,0,0,0,0,1654645420944,4116,4111,4104,4092,0,0,27,,,,,,,0,0,0,-24.00,-39.00,-1721.00,0.00,0.00,-1771.00,14,19.00,20.10,23.51,-20.00,-2.00,0.00,0,,,100,100,0,2,0,0,0,1,0,,,,,0.0,0.0,0.0,0.0,0.0,0.0,0
34.182582,-118.129091,6.23,6.56,4.27,8.32,6.23,6.23,5.44,8.32,8505,2022-06-07 23:43:41.045,2022-06-07 16:43:41.045,14,0,0,16.209,34.182604,-118.129084,-4.25,-0.45,0.00,2.50,-3.50,-172.20,0,1,0,80,100,-7954,2796,16209,3131.50,10,WP,1,0,0,0,0,0,0,1654645421045,4116,4111,4104,4092,0,0,27,,,,,,,0,0,0,-25.00,-35.00,-1722.00,0.00,0.00,-1771.00,14,19.00,19.10,25.36,-19.00,-2.00,0.00,0,,,100,100,0,2,0,0,0,1,0,,,,,0.0,0.0,0.0,0.0,0.0,0.0,0
34.182580,-118.129091,6.23,6.89,4.03,8.91,6.23,6.23,5.44,8.91,8605,2022-06-07 23:43:41.145,2022-06-07 16:43:41.145,14,0,0,16.209,34.182604,-118.129084,-4.03,-0.22,0.00,3.40,-3.60,-172.30,0,1,0,80,100,-7954,2796,16209,3131.50,10,WP,1,0,0,0,0,0,0,1654645421145,4116,4111,4104,4092,0,0,27,,,,,,,0,0,0,-34.00,-36.00,-1723.00,0.00,0.00,-1771.00,14,19.00,18.03,27.17,-18.00,-1.00,0.00,0,,,100,100,0,2,0,0,0,1,0,,,,,0.0,0.0,0.0,0.0,0.0,0.0,0
34.182578,-118.129091,6.23,6.89,3.81,9.58,6.23,6.23,5.44,9.58,8704,2022-06-07 23:43:41.245,2022-06-07 16:43:41.245,14,0,0,16.209,34.182604,-118.129084,-3.80,-0.22,0.00,4.70,-3.90,-172.40,0,1,0,80,100,-7954,2796,16209,3131.50,10,WP,1,0,0,0,0,0,0,1654645421244,4116,4111,4104,4092,0,0,27,,,,,,,0,0,0,-47.00,-39.00,-1724.00,0.00,0.00,-1771.00,14,19.00,17.03,29.19,-17.00,-1.00,0.00,0,,,100,100,0,2,0,0,0,1,0,,,,,0.0,0.0,0.0,0.0,0.0,0.0,0
34.182577,-118.129092,6.23,6.89,3.59,10.10,6.23,6.23,5.44,10.10,8805,2022-06-07 23:43:41.345,2022-06-07 16:43:41.345,14,0,0,16.209,34.182604,-118.129084,-3.58,-0.22,0.00,5.00,-4.40,-172.30,0,1,0,80,100,-7954,2796,16209,3131.50,10,WP,1,0,0,0,0,0,0,1654645421345,4116,4111,4104,4092,0,0,27,,,,,,,0,0,0,-50.00,-44.00,-1723.00,0.00,0.00,-1771.00,14,19.00,16.03,30.79,-16.00,-1.00,0.00,0,,,100,100,0,2,0,0,0,1,0,,,,,0.0,0.0,0.0,0.0,0.0,0.0,0
34.182575,-118.129092,6.23,6.56,3.13,10.70,6.23,6.23,5.44,10.70,8905,2022-06-07 23:43:41.445,2022-06-07 16:43:41.445,14,0,0,16.209,34.182604,-118.129084,-3.13,0.00,0.00,5.20,-4.30,-172.40,0,1,0,80,100,-7954,2796,16209,3131.50,10,WP,1,0,0,0,0,0,0,1654645421445,4116,4111,4104,4092,0,0,27,,,,,,,0,0,0,-52.00,-43.00,-1724.00,0.00,0.00,-1771.00,14,19.00,14.00,32.62,-14.00,0.00,0.00,0,,,100,100,0,2,0,0,0,1,0,,,,,0.0,0.0,0.0,0.0,0.0,0.0,0
34.182574,-118.129092,6.23,6.56,2.91,11.15,6.23,6.23,5.44,11.15,9005,2022-06-07 23:43:41.546,2022-06-07 16:43:41.546,14,0,0,16.209,34.182604,-118.129084,-2.91,0.00,0.00,4.50,-4.40,-172.40,0,1,0,80,100,-7954,2796,16209,3131.50,10,WP,1,0,0,0,0,0,0,1654645421545,4116,4111,4104,4092,0,0,27,,,,,,,0,0,0,-45.00,-44.00,-1724.00,0.00,0.00,-1771.00,14,19.00,13.00,33.98,-13.00,0.00,0.00,0,,,100,100,0,2,0,0,0,1,0,,,,,0.0,0.0,0.0,0.0,0.0,0.0,0
34.182573,-118.129092,6.23,6.56,2.68,11.57,6.23,6.23,5.44,11.57,9105,2022-06-07 23:43:41.645,2022-06-07 16:43:41.645,14,0,0,16.209,34.182604,-118.129084,-2.68,0.00,0.00,3.40,-3.70,-172.40,0,1,0,80,100,-7954,2796,16209,3131.50,10,WP,1,0,0,0,0,0,0,1654645421645,4116,4111,4104,4092,0,0,27,,,,,,,0,0,0,-34.00,-37.00,-1724.00,0.00,0.00,-1771.00,14,19.00,12.00,35.26,-12.00,0.00,0.00,0,,,100,100,0,2,0,0,0,1,0,,,,,0.0,0.0,0.0,0.0,0.0,0.0,0
34.182572,-118.129092,6.23,6.56,2.46,11.94,6.23,6.23,5.44,11.94,9206,2022-06-07 23:43:41.747,2022-06-07 16:43:41.747,14,0,0,16.209,34.182604,-118.129084,-2.46,0.00,0.00,2.30,-3.50,-172.30,0,1,0,80,100,-7954,2796,16209,3131.50,10,WP,1,0,0,0,0,0,0,1654645421746,4116,4111,4104,4092,0,0,27,,,,,,,0,0,0,-23.00,-35.00,-1723.00,0.00,0.00,-1771.00,14,19.00,11.00,36.38,-11.00,0.00,0.00,0,,,100,100,0,2,0,0,0,1,0,,,,,0.0,0.0,0.0,0.0,0.0,0.0,0
34.182571,-118.129092,6.23,6.56,2.24,12.31,6.23,6.23,5.44,12.31,9306,2022-06-07 23:43:41.846,2022-06-07 16:43:41.846,14,0,0,16.209,34.182604,-118.129084,-2.24,0.00,0.00,1.70,-2.90,-172.20,0,1,0,80,100,-7954,2796,16209,3131.50,10,WP,1,0,0,0,0,0,0,1654645421846,4116,4111,4104,4092,0,0,27,,,,,,,0,0,0,-17.00,-29.00,-1722.00,0.00,0.00,-1771.00,14,19.00,10.00,37.53,-10.00,0.00,0.00,0,,,100,100,0,2,0,0,0,1,0,,,,,0.0,0.0,0.0,0.0,0.0,0.0,0
34.182570,-118.129092,6.23,6.56,2.03,12.63,6.23,6.23,5.44,12.63,9405,2022-06-07 23:43:41.946,2022-06-07 16:43:41.946,14,0,0,16.209,34.182604,-118.129084,-2.01,0.22,0.00,1.20,-2.30,-172.20,0,1,0,80,100,-7954,2796,16209,3131.50,10,WP,1,0,0,0,0,0,0,1654645421945,4116,4111,4104,4092,0,0,27,,,,,,,0,0,0,-12.00,-23.00,-1722.00,0.00,0.00,-1771.00,14,19.00,9.06,38.50,-9.00,1.00,0.00,0,,,100,100,0,2,0,0,0,1,0,,,,,0.0,0.0,0.0,0.0,0.0,0.0,0
34.182569,-118.129092,6.23,6.56,2.03,12.93,6.23,6.23,5.44,12.93,9506,2022-06-07 23:43:42.046,2022-06-07 16:43:42.046,14,0,0,16.209,34.182604,-118.129084,-2.01,0.22,0.00,1.00,-1.80,-172.20,0,1,0,80,100,-7954,2796,16209,3131.50,10,WP,1,0,0,0,0,0,0,1654645422046,4116,4111,4104,4092,0,0,27,,,,,,,0,0,0,-10.00,-18.00,-1722.00,0.00,0.00,-1771.00,14,19.00,9.06,39.42,-9.00,1.00,0.00,0,,,100,100,0,2,0,0,0,1,0,,,,,0.0,0.0,0.0,0.0,0.0,0.0,0
34.182568,-118.129092,6.23,6.56,1.80,13.21,6.23,6.23,5.44,13.21,9606,2022-06-07 23:43:42.146,2022-06-07 16:43:42.146,14,0,0,16.209,34.182604,-118.129084,-1.79,0.22,0.00,1.00,-1.40,-172.20,0,1,0,80,100,-7954,2796,16209,3131.50,10,WP,1,0,0,0,0,0,0,1654645422146,4116,4111,4104,4092,0,0,27,,,,,,,0,0,0,-10.00,-14.00,-1722.00,0.00,0.00,-1771.00,14,19.00,8.06,40.28,-8.00,1.00,0.00,0,,,100,100,0,2,0,0,0,1,0,,,,,0.0,0.0,0.0,0.0,0.0,0.0,0
34.182567,-118.129092,6.23,6.56,1.80,13.50,6.23,6.23,5.44,13.50,9706,2022-06-07 23:43:42.246,2022-06-07 16:43:42.246,14,0,0,16.209,34.182604,-118.129084,-1.79,0.22,0.00,1.20,-0.80,-172.30,0,1,0,80,100,-7954,2796,16209,3131.50,10,WP,1,0,0,0,0,0,0,1654645422246,4116,4111,4104,4092,0,0,27,,,,,,,0,0,0,-12.00,-8.00,-1723.00,0.00,0.00,-1771.00,14,19.00,8.06,41.16,-8.00,1.00,0.00,0,,,100,100,0,2,0,0,0,1,0,,,,,0.0,0.0,0.0,0.0,0.0,0.0,0
34.182567,-118.129092,6.23,6.56,1.58,13.76,6.23,6.23,5.44,13.76,9806,2022-06-07 23:43:42.346,2022-06-07 16:43:42.346,14,0,0,16.209,34.182604,-118.129084,-1.57,0.22,0.00,1.70,-0.80,-172.30,0,1,0,80,100,-7954,2796,16209,3131.50,10,WP,1,0,0,0,0,0,0,1654645422346,4116,4111,4104,4092,0,0,27,,,,,,,0,0,0,-17.00,-8.00,-1723.00,0.00,0.00,-1771.00,14,19.00,7.07,41.93,-7.00,1.00,0.00,0,,,100,100,0,2,0,0,0,1,0,,,,,0.0,0.0,0.0,0.0,0.0,0.0,0
34.182566,-118.129091,6.23,6.56,1.36,13.97,6.23,6.23,5.44,13.97,9906,2022-06-07 23:43:42.446,2022-06-07 16:43:42.446,14,0,0,16.209,34.182604,-118.129084,-1.34,0.22,0.00,2.30,-0.10,-172.30,0,1,0,80,100,-7954,2796,16209,3131.50,10,WP,1,0,0,0,0,0,0,1654645422446,4116,4111,4104,4092,0,0,27,,,,,,,0,0,0,-23.00,-1.00,-1723.00,0.00,0.00,-1771.00,14,19.00,6.08,42.59,-6.00,1.00,0.00,0,,,100,100,0,2,0,0,0,1,0,,,,,0.0,0.0,0.0,0.0,0.0,0.0,0
34.182566,-118.129091,6.23,6.56,1.36,14.19,6.23,6.23,5.44,14.19,10005,2022-06-07 23:43:42.546,2022-06-07 16:43:42.546,14,0,0,16.209,34.182604,-118.129084,-1.34,0.22,0.00,2.70,0.20,-172.20,0,1,0,80,100,-7954,2796,16209,3131.50,10,WP,1,0,0,0,0,0,0,1654645422545,4116,4111,4104,4092,0,0,27,,,,,,,0,0,0,-27.00,2.00,-1722.00,0.00,0.00,-1771.00,14,19.00,6.08,43.24,-6.00,1.00,0.00,0,,,100,100,0,2,0,0,0,1,0,,,,,0.0,0.0,0.0,0.0,0.0,0.0,0
34.182565,-118.129091,6.23,6.56,1.12,14.36,6.23,6.23,5.44,14.36,10106,2022-06-07 23:43:42.646,2022-06-07 16:43:42.646,14,0,0,16.209,34.182604,-118.129084,-1.12,0.00,0.00,2.70,0.40,-172.20,0,1,0,80,100,-7954,2796,16209,3131.50,10,WP,1,0,0,0,0,0,0,1654645422646,4116,4111,4104,4092,0,0,27,,,,,,,0,0,0,-27.00,4.00,-1722.00,0.00,0.00,-1771.00,14,19.00,5.00,43.77,-5.00,0.00,0.00,0,,,100,100,0,2,0,0,0,1,0,,,,,0.0,0.0,0.0,0.0,0.0,0.0,0
34.182565,-118.129091,6.23,6.89,0.89,14.52,6.23,6.23,5.44,14.52,10205,2022-06-07 23:43:42.746,2022-06-07 16:43:42.746,14,0,0,16.231,34.182604,-118.129084,-0.89,0.00,0.00,2.60,0.30,-172.20,0,1,0,80,100,-7207,2792,16231,3131.50,10,WP,1,0,0,0,0,0,0,1654645422745,4116,4111,4104,4092,0,0,27,,,,,,,0,0,0,-26.00,3.00,-1722.00,0.00,0.00,-1771.00,14,19.00,4.00,44.27,-4.00,0.00,0.00,0,,,100,100,0,2,0,0,0,1,0,,,,,0.0,0.0,0.0,0.0,0.0,0.0,0
34.182564,-118.129091,6.23,6.89,0.89,14.65,6.23,6.23,5.44,14.65,10306,2022-06-07 23:43:42.846,2022-06-07 16:43:42.846,14,0,0,16.231,34.182604,-118.129084,-0.89,0.00,0.00,2.10,0.60,-172.10,0,1,0,80,100,-7207,2792,16231,3131.50,10,WP,1,0,0,0,0,0,0,1654645422846,4116,4111,4104,4092,0,0,27,,,,,,,0,0,0,-21.00,6.00,-1721.00,0.00,0.00,-1771.00,14,19.00,4.00,44.64,-4.00,0.00,0.00,0,,,100,100,0,2,0,0,0,1,0,,,,,0.0,0.0,0.0,0.0,0.0,0.0,0
34.182564,-118.129091,6.23,6.89,0.67,14.76,6.23,6.23,5.44,14.76,10406,2022-06-07 23:43:42.946,2022-06-07 16:43:42.946,14,0,0,16.231,34.182604,-118.129084,-0.67,0.00,0.00,4.90,1.40,-172.10,0,1,0,80,100,-7207,2792,16231,3131.50,10,WP,1,0,0,0,0,0,0,1654645422946,4116,4111,4104,4092,0,0,27,,,,,,,0,0,0,-49.00,14.00,-1721.00,0.00,0.00,-1771.00,14,19.00,3.00,45.00,-3.00,0.00,0.00,0,,,100,100,0,2,0,0,0,1,0,,,,,0.0,0.0,0.0,0.0,0.0,0.0,0
34.182564,-118.129091,6.23,6.89,0.45,14.81,6.23,6.23,5.44,14.81,10506,2022-06-07 23:43:43.046,2022-06-07 16:43:43.046,14,0,0,16.231,34.182604,-118.129084,-0.45,0.00,0.00,3.50,0.20,-172.30,0,1,0,80,100,-7207,2792,16231,3131.50,10,WP,1,0,0,0,0,0,0,1654645423046,4116,4111,4104,4092,0,0,27,,,,,,,0,0,0,-35.00,2.00,-1723.00,0.00,0.00,-1771.00,14,19.00,2.00,45.13,-2.00,0.00,0.00,0,,,100,100,0,2,0,0,0,1,0,,,,,0.0,0.0,0.0,0.0,0.0,0.0,0
34.182564,-118.129091,6.23,6.89,0.22,14.87,6.23,6.23,5.44,14.87,10605,2022-06-07 23:43:43.146,2022-06-07 16:43:43.146,14,0,0,16.231,34.182604,-118.129084,-0.22,0.00,0.00,2.00,-0.30,-172.40,0,1,0,80,100,-7207,2792,16231,3131.50,10,WP,1,0,0,0,0,0,0,1654645423145,4116,4111,4104,4092,0,0,27,,,,,,,0,0,0,-20.00,-3.00,-1724.00,0.00,0.00,-1771.00,14,19.00,1.00,45.31,-1.00,0.00,0.00,0,,,100,100,0,2,0,0,0,1,0,,,,,0.0,0.0,0.0,0.0,0.0,0.0,0
34.182563,-118.129090,6.23,6.89,0.22,14.92,6.23,6.23,5.44,14.92,10705,2022-06-07 23:43:43.246,2022-06-07 16:43:43.246,14,0,0,16.231,34.182604,-118.129084,-0.22,0.00,0.00,1.10,-0.70,-168.10,0,1,0,80,100,-7207,2792,16231,3131.50,10,WP,1,0,0,0,0,0,0,1654645423245,4116,4111,4104,4092,0,0,27,,,,,,,0,0,0,-11.00,-7.00,-1681.00,0.00,0.00,-1771.00,14,19.00,1.00,45.46,-1.00,0.00,0.00,0,,,100,100,0,2,0,0,0,1,0,,,,,0.0,0.0,0.0,0.0,0.0,0.0,0
34.182563,-118.129090,6.23,6.56,0.00,14.95,6.23,6.23,5.44,14.95,10806,2022-06-07 23:43:43.346,2022-06-07 16:43:43.346,14,0,0,16.231,34.182604,-118.129084,0.00,0.00,0.00,0.30,-0.20,-160.40,0,1,0,80,100,-7207,2792,16231,3131.50,10,WP,1,0,0,0,0,0,0,1654645423346,4116,4111,4104,4092,0,0,27,,,,,,,0,0,0,-3.00,-2.00,-1604.00,0.00,0.00,-1771.00,14,19.00,0.00,45.56,0.00,0.00,0.00,0,,,100,100,0,2,0,0,0,1,0,,,,,0.0,0.0,0.0,0.0,0.0,0.0,0
34.182564,-118.129090,6.23,6.56,0.00,14.87,6.23,6.23,5.44,14.95,10906,2022-06-07 23:43:43.447,2022-06-07 16:43:43.447,14,0,0,16.231,34.182604,-118.129084,0.00,0.00,0.00,0.00,0.60,-152.70,0,1,0,80,100,-7207,2792,16231,3131.50,10,WP,1,0,0,0,0,0,0,1654645423446,4065,4060,4024,4025,0,0,27,,,,,,,0,0,0,-0.00,6.00,-1527.00,0.00,0.00,-1756.00,14,19.00,0.00,45.31,0.00,0.00,0.00,0,,,100,100,0,2,0,0,0,1,0,,,,,0.0,0.0,0.0,0.0,0.0,0.0,0
34.182563,-118.129090,6.23,6.56,0.00,14.88,6.23,6.23,5.44,14.95,11006,2022-06-07 23:43:43.547,2022-06-07 16:43:43.547,14,0,0,16.231,34.182604,-118.129084,0.00,0.00,0.00,-0.10,1.30,-145.10,0,1,0,80,100,-7207,2792,16231,3131.50,10,WP,1,0,0,0,0,0,0,1654645423546,4065,4060,4024,4025,0,0,27,,,,,,,0,0,0,1.00,13.00,-1451.00,0.00,0.00,-1687.00,14,19.00,0.00,45.35,0.00,0.00,0.00,0,,,100,100,0,2,0,0,0,1,0,,,,,0.0,0.0,0.0,0.0,0.0,0.0,0
34.182563,-118.129090,6.23,6.56,0.00,14.93,6.23,6.23,5.44,14.95,11106,2022-06-07 23:43:43.646,2022-06-07 16:43:43.646,14,0,0,16.231,34.182604,-118.129084,0.00,0.00,0.00,-0.30,1.10,-137.50,0,1,0,80,100,-7207,2792,16231,3131.50,10,WP,1,0,0,0,0,0,0,1654645423646,4065,4060,4024,4025,0,0,27,,,,,,,0,0,0,3.00,11.00,-1375.00,0.00,0.00,-1599.00,14,19.00,0.00,45.50,0.00,0.00,0.00,0,,,100,100,0,2,0,0,0,1,0,,,,,0.0,0.0,0.0,0.0,0.0,0.0,0
34.182563,-118.129090,6.23,6.56,0.00,14.93,6.23,6.23,5.44,14.95,11207,2022-06-07 23:43:43.747,2022-06-07 16:43:43.747,14,0,0,16.231,34.182604,-118.129084,0.00,0.00,0.00,-0.50,0.50,-130.00,0,1,0,80,100,-7207,2792,16231,3131.50,10,WP,1,0,0,0,0,0,0,1654645423747,4065,4060,4024,4025,0,0,27,,,,,,,0,0,0,5.00,5.00,-1300.00,0.00,0.00,-1515.00,14,19.00,0.00,45.50,0.00,0.00,0.00,0,,,100,100,0,2,0,0,0,1,0,,,,,0.0,0.0,0.0,0.0,0.0,0.0,0
34.182563,-118.129090,6.23,6.56,0.00,14.87,6.23,6.23,5.44,14.95,11307,2022-06-07 23:43:43.847,2022-06-07 16:43:43.847,14,0,0,16.231,34.182604,-118.129084,0.00,0.00,0.00,-0.60,-0.30,-122.70,0,1,0,80,100,-7207,2792,16231,3131.50,10,WP,1,0,0,0,0,0,0,1654645423847,4065,4060,4024,4025,0,0,27,,,,,,,0,0,0,6.00,-3.00,-1227.00,0.00,0.00,-1434.00,14,19.00,0.00,45.32,0.00,0.00,0.00,0,,,100,100,0,2,0,0,0,1,0,,,,,0.0,0.0,0.0,0.0,0.0,0.0,0
34.182563,-118.129090,6.23,6.56,0.00,14.86,6.23,6.23,5.44,14.95,11407,2022-06-07 23:43:43.947,2022-06-07 16:43:43.947,14,0,0,16.231,34.182604,-118.129084,0.00,0.00,0.00,-0.70,-0.60,-115.40,0,1,0,80,100,-7207,2792,16231,3131.50,10,WP,1,0,0,0,0,0,0,1654645423947,4065,4060,4024,4025,0,0,27,,,,,,,0,0,0,7.00,-6.00,-1154.00,0.00,0.00,-1356.00,14,19.00,0.00,45.28,0.00,0.00,0.00,0,,,100,100,0,2,0,0,0,1,0,,,,,0.0,0.0,0.0,0.0,0.0,0.0,0
34.182564,-118.129089,6.23,6.56,0.00,14.84,6.23,6.23,5.44,14.95,11507,2022-06-07 23:43:44.047,2022-06-07 16:43:44.047,14,0,0,16.231,34.182604,-118.129084,0.00,0.00,0.00,-0.70,-0.70,-107.90,0,1,0,80,100,-7207,2792,16231,3131.50,10,WP,1,0,0,0,0,0,0,1654645424047,4065,4060,4024,4025,0,0,27,,,,,,,0,0,0,7.00,-7.00,-1079.00,0.00,0.00,-1280.00,14,19.00,0.00,45.24,0.00,0.00,0.00,0,,,100,100,0,2,0,0,0,1,0,,,,,0.0,0.0,0.0,0.0,0.0,0.0,0
34.182564,-118.129089,6.23,6.56,0.00,14.83,6.23,6.23,5.44,14.95,11607,2022-06-07 23:43:44.148,2022-06-07 16:43:44.148,14,0,0,16.231,34.182604,-118.129084,0.00,0.00,0.00,-0.50,-0.70,-100.50,0,1,0,80,100,-7207,2792,16231,3131.50,10,WP,1,0,0,0,0,0,0,1654645424147,4065,4060,4024,4025,0,0,27,,,,,,,0,0,0,5.00,-7.00,-1005.00,0.00,0.00,-1203.00,14,19.00,0.00,45.19,0.00,0.00,0.00,0,,,100,100,0,2,0,0,0,1,0,,,,,0.0,0.0,0.0,0.0,0.0,0.0,0
34.182564,-118.129089,6.23,6.56,0.00,14.76,6.23,6.23,5.44,14.95,11707,2022-06-07 23:43:44.247,2022-06-07 16:43:44.247,14,0,0,16.231,34.182604,-118.129084,0.00,0.00,0.00,-0.20,-0.50,-93.00,0,1,0,80,100,-7207,2792,16231,3131.50,10,WP,1,0,0,0,0,0,0,1654645424247,4065,4060,4024,4025,0,0,27,,,,,,,0,0,0,2.00,-5.00,-930.00,0.00,0.00,-1129.00,14,19.00,0.00,44.98,0.00,0.00,0.00,0,,,100,100,0,2,0,0,0,1,0,,,,,0.0,0.0,0.0,0.0,0.0,0.0,0
34.182564,-118.129089,6.23,6.56,0.00,14.73,6.23,6.23,5.44,14.95,11806,2022-06-07 23:43:44.347,2022-06-07 16:43:44.347,14,0,0,16.231,34.182604,-118.129084,0.00,0.00,0.00,0.10,-0.80,-85.60,0,1,0,80,100,-7207,2792,16231,3131.50,10,WP,1,0,0,0,0,0,0,1654645424346,4065,4060,4024,4025,0,0,27,,,,,,,0,0,0,-1.00,-8.00,-856.00,0.00,0.00,-1054.00,14,19.00,0.00,44.90,0.00,0.00,0.00,0,,,100,100,0,2,0,0,0,1,0,,,,,0.0,0.0,0.0,0.0,0.0,0.0,0
34.182564,-118.129089,5.91,6.56,0.00,14.69,6.23,6.23,5.44,14.95,11907,2022-06-07 23:43:44.447,2022-06-07 16:43:44.447,14,0,0,16.231,34.182604,-118.129084,0.00,0.00,0.00,0.20,-1.10,-78.00,0,1,0,80,100,-7207,2792,16231,3131.50,10,WP,1,0,0,0,0,0,0,1654645424447,4065,4060,4024,4025,0,0,27,,,,,,,0,0,0,-2.00,-11.00,-780.00,0.00,0.00,-979.00,14,18.00,0.00,44.78,0.00,0.00,0.00,0,,,100,100,0,2,0,0,0,1,0,,,,,0.0,0.0,0.0,0.0,0.0,0.0,0
34.182564,-118.129089,5.91,6.56,0.00,14.66,6.23,6.23,5.44,14.95,12007,2022-06-07 23:43:44.548,2022-06-07 16:43:44.548,14,0,0,16.231,34.182604,-118.129084,0.00,0.00,0.00,0.00,-1.60,-70.50,0,1,0,80,100,-7207,2792,16231,3131.50,10,WP,1,0,0,0,0,0,0,1654645424547,4065,4060,4024,4025,0,0,27,,,,,,,0,0,0,-0.00,-16.00,-705.00,0.00,0.00,-903.00,14,18.00,0.00,44.68,0.00,0.00,0.00,0,,,100,100,0,2,0,0,0,1,0,,,,,0.0,0.0,0.0,0.0,0.0,0.0,0
34.182564,-118.129089,5.91,6.23,0.00,14.64,6.23,6.23,5.44,14.95,12107,2022-06-07 23:43:44.647,2022-06-07 16:43:44.647,14,0,0,16.231,34.182604,-118.129084,0.00,0.00,0.00,0.10,-1.50,-63.10,0,1,0,80,100,-7207,2792,16231,3131.50,10,WP,1,0,0,0,0,0,0,1654645424647,4065,4060,4024,4025,0,0,27,,,,,,,0,0,0,-1.00,-15.00,-631.00,0.00,0.00,-827.00,14,18.00,0.00,44.63,0.00,0.00,0.00,0,,,100,100,0,2,0,0,0,1,0,,,,,0.0,0.0,0.0,0.0,0.0,0.0,0
34.182564,-118.129089,5.91,6.23,0.00,14.61,6.23,6.23,5.44,14.95,12207,2022-06-07 23:43:44.747,2022-06-07 16:43:44.747,14,0,0,16.212,34.182604,-118.129084,0.00,0.00,0.00,0.20,-1.40,-55.70,0,1,0,80,100,-7506,2788,16212,3131.50,10,WP,1,0,0,0,0,0,0,1654645424747,4065,4060,4024,4025,0,0,27,,,,,,,0,0,0,-2.00,-14.00,-557.00,0.00,0.00,-751.00,14,18.00,0.00,44.55,0.00,0.00,0.00,0,,,100,100,0,2,0,0,0,1,0,,,,,0.0,0.0,0.0,0.0,0.0,0.0,0
34.182564,-118.129089,5.91,6.23,0.00,14.61,6.23,6.23,5.44,14.95,12307,2022-06-07 23:43:44.847,2022-06-07 16:43:44.847,14,0,0,16.212,34.182604,-118.129084,0.00,0.00,0.00,0.60,-1.10,-48.20,0,1,0,80,100,-7506,2788,16212,3131.50,10,WP,1,0,0,0,0,0,0,1654645424847,4065,4060,4024,4025,0,0,27,,,,,,,0,0,0,-6.00,-11.00,-482.00,0.00,0.00,-675.00,14,18.00,0.00,44.54,0.00,0.00,0.00,0,,,100,100,0,2,0,0,0,1,0,,,,,0.0,0.0,0.0,0.0,0.0,0.0,0
34.182564,-118.129089,5.91,6.23,0.00,14.59,6.23,6.23,5.44,14.95,12407,2022-06-07 23:43:44.947,2022-06-07 16:43:44.947,14,0,0,16.212,34.182604,-118.129084,0.00,0.00,0.00,1.10,-0.90,-40.70,0,1,0,80,100,-7506,2788,16212,3131.50,10,WP,1,0,0,0,0,0,0,1654645424947,4065,4060,4024,4025,0,0,27,,,,,,,0,0,0,-11.00,-9.00,-407.00,0.00,0.00,-601.00,14,18.00,0.00,44.46,0.00,0.00,0.00,0,,,100,100,0,2,0,0,0,1,0,,,,,0.0,0.0,0.0,0.0,0.0,0.0,0
34.182564,-118.129089,5.91,6.23,0.00,14.58,6.23,6.23,5.44,14.95,12507,2022-06-07 23:43:45.047,2022-06-07 16:43:45.047,14,0,0,16.212,34.182604,-118.129084,0.00,0.00,0.00,1.30,-0.60,-33.50,0,1,0,80,100,-7506,2788,16212,3131.50,10,WP,1,0,0,0,0,0,0,1654645425047,4065,4060,4024,4025,0,0,27,,,,,,,0,0,0,-13.00,-6.00,-335.00,0.00,0.00,-527.00,14,18.00,0.00,44.43,0.00,0.00,0.00,0,,,100,100,0,2,0,0,0,1,0,,,,,0.0,0.0,0.0,0.0,0.0,0.0,0
34.182564,-118.129089,5.91,6.23,0.00,14.55,6.23,6.23,5.44,14.95,12607,2022-06-07 23:43:45.147,2022-06-07 16:43:45.147,14,0,0,16.212,34.182604,-118.129084,0.00,0.00,0.00,1.30,-0.30,-27.00,0,1,0,80,100,-7506,2788,16212,3131.50,10,WP,1,0,0,0,0,0,0,1654645425147,4065,4060,4024,4025,0,0,27,,,,,,,0,0,0,-13.00,-3.00,-270.00,0.00,0.00,-454.00,14,18.00,0.00,44.34,0.00,0.00,0.00,0,,,100,100,0,2,0,0,0,1,0,,,,,0.0,0.0,0.0,0.0,0.0,0.0,0
34.182564,-118.129089,5.91,6.56,0.00,14.58,6.23,6.23,5.44,14.95,12707,2022-06-07 23:43:45.247,2022-06-07 16:43:45.247,14,0,0,16.212,34.182604,-118.129084,0.00,0.00,0.00,1.40,-0.40,-21.80,0,1,0,80,100,-7506,2788,16212,3131.50,10,WP,1,0,0,0,0,0,0,1654645425247,4065,4060,4024,4025,0,0,27,,,,,,,0,0,0,-14.00,-4.00,-218.00,0.00,0.00,-381.00,14,18.00,0.00,44.43,0.00,0.00,0.00,0,,,100,100,0,2,0,0,0,1,0,,,,,0.0,0.0,0.0,0.0,0.0,0.0,0
34.182564,-118.129089,5.91,6.56,0.00,14.55,6.23,6.23,5.44,14.95,12806,2022-06-07 23:43:45.347,2022-06-07 16:43:45.347,14,0,0,16.212,34.182604,-118.129084,0.00,0.00,0.00,1.50,-0.80,-17.50,0,1,0,80,100,-7506,2788,16212,3131.50,10,WP,1,0,0,0,0,0,0,1654645425346,4065,4060,4024,4025,0,0,27,,,,,,,0,0,0,-15.00,-8.00,-175.00,0.00,0.00,-320.00,14,18.00,0.00,44.34,0.00,0.00,0.00,0,,,100,100,0,2,0,0,0,1,0,,,,,0.0,0.0,0.0,0.0,0.0,0.0,0
34.182564,-118.129089,5.91,6.56,0.00,14.56,6.23,6.23,5.44,14.95,12906,2022-06-07 23:43:45.447,2022-06-07 16:43:45.447,14,0,0,16.212,34.182604,-118.129084,0.00,0.00,0.00,1.60,-1.30,-14.00,0,1,0,80,100,-7506,2788,16212,3131.50,10,WP,1,0,0,0,0,0,0,1654645425446,4065,4060,4024,4025,0,0,27,,,,,,,0,0,0,-16.00,-13.00,-140.00,0.00,0.00,-270.00,14,18.00,0.00,44.38,0.00,0.00,0.00,0,,,100,100,0,2,0,0,0,1,0,,,,,0.0,0.0,0.0,0.0,0.0,0.0,0
34.182564,-118.129089,5.91,6.23,0.00,14.53,6.23,6.23,5.44,14.95,13006,2022-06-07 23:43:45.547,2022-06-07 16:43:45.547,14,0,0,16.212,34.182604,-118.129084,0.00,0.00,0.00,1.90,-1.70,-11.20,0,1,0,80,100,-7506,2788,16212,3131.50,10,WP,1,0,0,0,0,0,0,1654645425546,4065,4060,4024,4025,0,0,27,,,,,,,0,0,0,-19.00,-17.00,-112.00,0.00,0.00,-230.00,14,18.00,0.00,44.30,0.00,0.00,0.00,0,,,100,100,0,2,0,0,0,1,0,,,,,0.0,0.0,0.0,0.0,0.0,0.0,0
34.182564,-118.129089,5.91,6.23,0.00,14.59,6.23,6.23,5.44,14.95,13107,2022-06-07 23:43:45.647,2022-06-07 16:43:45.647,14,0,0,16.212,34.182604,-118.129084,0.00,0.00,0.00,1.90,-1.50,-9.00,0,1,0,80,100,-7506,2788,16212,3131.50,10,WP,1,0,0,0,0,0,0,1654645425647,4065,4060,4024,4025,0,0,27,,,,,,,0,0,0,-19.00,-15.00,-90.00,0.00,0.00,-197.00,14,18.00,0.00,44.48,0.00,0.00,0.00,0,,,100,100,0,2,0,0,0,1,0,,,,,0.0,0.0,0.0,0.0,0.0,0.0,0
34.182564,-118.129088,5.91,6.56,0.00,14.58,6.23,6.23,5.44,14.95,13207,2022-06-07 23:43:45.747,2022-06-07 16:43:45.747,14,0,0,16.212,34.182604,-118.129084,0.00,0.00,0.00,1.90,-0.70,-7.10,0,1,0,80,100,-7506,2788,16212,3131.50,10,WP,1,0,0,0,0,0,0,1654645425747,4065,4060,4024,4025,0,0,27,,,,,,,0,0,0,-19.00,-7.00,-71.00,0.00,0.00,-170.00,14,18.00,0.00,44.44,0.00,0.00,0.00,0,,,100,100,0,2,0,0,0,1,0,,,,,0.0,0.0,0.0,0.0,0.0,0.0,0
34.182564,-118.129088,5.91,6.23,0.00,14.57,6.23,6.23,5.44,14.95,13307,2022-06-07 23:43:45.848,2022-06-07 16:43:45.848,14,0,0,16.212,34.182604,-118.129084,0.00,0.00,0.00,2.10,-0.60,-5.60,0,1,0,80,100,-7506,2788,16212,3131.50,10,WP,1,0,0,0,0,0,0,1654645425847,4065,4060,4024,4025,0,0,27,,,,,,,0,0,0,-21.00,-6.00,-56.00,0.00,0.00,-148.00,14,18.00,0.00,44.42,0.00,0.00,0.00,0,,,100,100,0,2,0,0,0,1,0,,,,,0.0,0.0,0.0,0.0,0.0,0.0,0
34.182564,-118.129088,5.91,6.23,0.00,14.56,6.23,6.23,5.44,14.95,13408,2022-06-07 23:43:45.949,2022-06-07 16:43:45.949,14,0,0,16.212,34.182604,-118.129084,0.00,0.00,0.00,2.00,-0.60,-4.60,0,1,0,80,100,-7506,2788,16212,3131.50,10,WP,1,0,0,0,0,0,0,1654645425948,4065,4060,4024,4025,0,0,27,,,,,,,0,0,0,-20.00,-6.00,-46.00,0.00,0.00,-130.00,14,18.00,0.00,44.39,0.00,0.00,0.00,0,,,100,100,0,2,0,0,0,1,0,,,,,0.0,0.0,0.0,0.0,0.0,0.0,0
34.182564,-118.129089,5.91,6.56,0.00,14.61,6.23,6.23,5.44,14.95,13508,2022-06-07 23:43:46.048,2022-06-07 16:43:46.048,14,0,0,16.212,34.182604,-118.129084,0.00,0.00,0.00,1.20,-0.20,-4.60,0,1,0,80,100,-7506,2788,16212,3131.50,10,WP,1,0,0,0,0,0,0,1654645426048,4065,4060,4024,4025,0,0,27,,,,,,,0,0,0,-12.00,-2.00,-46.00,0.00,0.00,-115.00,14,18.00,0.00,44.52,0.00,0.00,0.00,0,,,100,100,0,2,0,0,0,1,0,,,,,0.0,0.0,0.0,0.0,0.0,0.0,0
