latitude,longitude,altitude(m),ultrasonicHeight(m),speed(mps),distance(m),max_altitude(m),max_ascent(m),max_speed(mps),max_distance(m),time(millisecond),datetime(utc),datetime(local),satellites,pressure(Pa),temperature(F),voltage(v),home_latitude,home_longitude,velocityX(mps),velocityY(mps),velocityZ(mps),pitch(deg),roll(deg),yaw(deg),powerlevel,isflying,istakingphoto,remainPowerPercent,remainLifePercent,currentCurrent,currentElectricity,currentVoltage,batteryTemperature,dischargeCount,flightmode,isMotorsOn,isTakingVideo,Rc_elevator,Rc_aileron,Rc_throttle,Rc_rudder,Rc_gyro,timestamp,Battery_Cell1,Battery_Cell2,Battery_Cell3,Battery_Cell4,Battery_Cell5,Battery_Cell6,Dronetype,AppVersion,Planename,FlyControllerSerialNumber,RemoteSerialNumber,BatterySerialNumber,CENTER_BATTERY.productDate,CENTER_BATTERY.serialNo,CENTER_BATTERY.fullCapacity,CENTER_BATTERY.productDateRaw,pitchRaw,rollRaw,yawRaw,gimbalPitchRaw,gimbalRollRaw,gimbalYawRaw,flyState,altitudeRaw,speedRaw,distanceRaw,velocityXRaw,velocityYRaw,velocityZRaw,data_reuse,App_Tip,App_Warning,downlinkSignalQuality,uplinkSignalQuality,transmissionChannel,rcModeSwitch,rcHome,rcPause,rcTransform,rcJoystickMode,appMode,FlyControllerSerialNumber_legacy,RemoteSerialNumber_legacy,BatterySerialNumber_legacy,Battery2SerialNumber,frontAvoidDist,backAvoidDist,rightAvoidDist,leftAvoidDist,upAvoidDist,downAvoidDist,isBrakingToAvoid
33.737639,-118.104796,0.40,0.70,0.49,0.31,0.40,0.40,0.49,0.31,2,2022-06-09 00:40:07.412,2022-06-08 17:40:07.412,18,0,0,15.402,33.737638,-118.104799,0.20,0.20,-0.40,-6.40,-1.30,-127.40,0,1,0,54,100,-3295,1883,15402,3071.50,11,TakeOff,1,0,0,0,0,0,0,1654735207411,3889,3892,3891,3879,0,0,27,Litchi_iOS_2.14.0,Brian-MAVIC 2,163DFCK001S13F,1DUCFB800104PR,0P2AFBV5340045,,0,3535,0,64.00,-13.00,-1274.00,18.00,0.00,-1395.00,11,4.00,4.90,3.13,2.00,2.00,-4.00,0,,,100,100,0,2,0,0,0,1,0,(null),(null),(null),(null),0.0,0.0,0.0,0.0,0.0,0.0,0
33.737640,-118.104796,0.40,0.70,0.49,0.35,0.40,0.40,0.49,0.35,98,2022-06-09 00:40:07.507,2022-06-08 17:40:07.507,18,0,0,15.402,33.737638,-118.104799,0.20,0.20,-0.40,-6.80,-1.20,-127.40,0,1,0,54,100,-3295,1883,15402,3071.50,11,TakeOff,1,0,0,0,0,0,0,1654735207507,3889,3892,3891,3879,0,0,27,,,,,,,0,0,0,68.00,-12.00,-1274.00,13.00,0.00,-1395.00,11,4.00,4.90,3.51,2.00,2.00,-4.00,0,,,100,100,0,2,0,0,0,1,0,,,,,0.0,0.0,0.0,0.0,0.0,0.0,0
33.737640,-118.104796,0.50,0.80,0.49,0.38,0.50,0.50,0.49,0.38,198,2022-06-09 00:40:07.608,2022-06-08 17:40:07.608,18,0,0,15.402,33.737638,-118.104799,0.20,0.20,-0.40,-6.90,-0.90,-127.40,0,1,0,54,100,-3295,1883,15402,3071.50,11,TakeOff,1,0,0,0,0,0,0,1654735207607,3889,3892,3891,3879,0,0,27,,,,,,,0,0,0,69.00,-9.00,-1274.00,12.00,0.00,-1395.00,11,5.00,4.90,3.83,2.00,2.00,-4.00,0,,,100,100,0,2,0,0,0,1,0,,,,,0.0,0.0,0.0,0.0,0.0,0.0,0
33.737640,-118.104795,0.50,0.80,0.49,0.42,0.50,0.50,0.49,0.42,298,2022-06-09 00:40:07.708,2022-06-08 17:40:07.708,18,0,0,15.259,33.737638,-118.104799,0.20,0.20,-0.40,-6.60,-0.80,-127.40,0,1,0,54,100,-6406,1881,15259,3071.50,11,TakeOff,1,0,0,0,0,0,0,1654735207707,3889,3892,3891,3879,0,0,27,,,,,,,0,0,0,66.00,-8.00,-1274.00,14.00,0.00,-1395.00,11,5.00,4.90,4.17,2.00,2.00,-4.00,0,,,100,100,0,2,0,0,0,1,0,,,,,0.0,0.0,0.0,0.0,0.0,0.0,0
33.737640,-118.104795,0.60,0.90,0.49,0.44,0.60,0.60,0.49,0.44,400,2022-06-09 00:40:07.809,2022-06-08 17:40:07.809,18,0,0,15.259,33.737638,-118.104799,0.20,0.20,-0.40,-6.40,-0.90,-127.40,0,1,0,54,100,-6406,1881,15259,3071.50,11,TakeOff,1,0,0,0,0,0,0,1654735207809,3819,3822,3815,3800,0,0,27,,,,,,,0,0,0,64.00,-9.00,-1274.00,17.00,0.00,-1395.00,11,6.00,4.90,4.43,2.00,2.00,-4.00,0,,,100,100,0,2,0,0,0,1,0,,,,,0.0,0.0,0.0,0.0,0.0,0.0,0
33.737640,-118.104795,0.60,0.90,0.57,0.47,0.60,0.60,0.57,0.47,500,2022-06-09 00:40:07.910,2022-06-08 17:40:07.910,18,0,0,15.259,33.737638,-118.104799,0.20,0.20,-0.50,-6.50,-0.90,-127.40,0,1,0,54,100,-6406,1881,15259,3071.50,11,TakeOff,1,0,0,0,0,0,0,1654735207909,3819,3822,3815,3800,0,0,27,,,,,,,0,0,0,65.00,-9.00,-1274.00,17.00,0.00,-1395.00,11,6.00,5.74,4.74,2.00,2.00,-5.00,0,,,100,100,0,2,0,0,0,1,0,,,,,0.0,0.0,0.0,0.0,0.0,0.0,0
33.737640,-118.104795,0.70,1.00,0.55,0.51,0.70,0.70,0.57,0.51,600,2022-06-09 00:40:08.010,2022-06-08 17:40:08.010,18,0,0,15.259,33.737638,-118.104799,0.10,0.20,-0.50,-6.70,-0.70,-127.40,0,1,0,54,100,-6406,1881,15259,3071.50,11,TakeOff,1,0,0,0,0,0,0,1654735208009,3819,3822,3815,3800,0,0,27,,,,,,,0,0,0,67.00,-7.00,-1274.00,15.00,0.00,-1395.00,11,7.00,5.48,5.11,1.00,2.00,-5.00,0,,,100,100,0,2,0,0,0,1,0,,,,,0.0,0.0,0.0,0.0,0.0,0.0,0
33.737640,-118.104794,0.70,1.00,0.55,0.54,0.70,0.70,0.57,0.54,702,2022-06-09 00:40:08.112,2022-06-08 17:40:08.112,18,0,0,15.259,33.737638,-118.104799,0.10,0.20,-0.50,-6.70,-0.50,-127.40,0,1,0,54,100,-6406,1881,15259,3071.50,11,TakeOff,1,0,0,0,0,0,0,1654735208111,3819,3822,3815,3800,0,0,27,,,,,,,0,0,0,67.00,-5.00,-1274.00,14.00,0.00,-1395.00,11,7.00,5.48,5.43,1.00,2.00,-5.00,0,,,100,100,0,2,0,0,0,1,0,,,,,0.0,0.0,0.0,0.0,0.0,0.0,0
33.737641,-118.104794,0.80,1.10,0.57,0.57,0.80,0.80,0.57,0.57,799,2022-06-09 00:40:08.208,2022-06-08 17:40:08.208,18,0,0,15.259,33.737638,-118.104799,0.20,0.20,-0.50,-6.80,-0.40,-127.40,0,1,0,54,100,-6406,1881,15259,3071.50,11,TakeOff,1,0,0,0,0,0,0,1654735208208,3819,3822,3815,3800,0,0,27,,,,,,,0,0,0,68.00,-4.00,-1274.00,14.00,0.00,-1395.00,11,8.00,5.74,5.72,2.00,2.00,-5.00,0,,,100,100,0,2,0,0,0,1,0,,,,,0.0,0.0,0.0,0.0,0.0,0.0,0
33.737641,-118.104794,0.80,1.10,0.49,0.60,0.80,0.80,0.57,0.60,900,2022-06-09 00:40:08.310,2022-06-08 17:40:08.310,18,0,0,15.259,33.737638,-118.104799,0.20,0.20,-0.40,-7.00,-0.50,-127.40,0,1,0,54,100,-6406,1881,15259,3071.50,11,WP,1,0,0,0,0,0,0,1654735208309,3819,3822,3815,3800,0,0,27,,,,,,,0,0,0,70.00,-5.00,-1274.00,12.00,0.00,-1395.00,14,8.00,4.90,6.02,2.00,2.00,-4.00,0,,,100,100,0,2,0,0,0,1,0,,,,,0.0,0.0,0.0,0.0,0.0,0.0,0
33.737641,-118.104794,0.90,1.20,0.42,0.61,0.90,0.90,0.57,0.61,1000,2022-06-09 00:40:08.410,2022-06-08 17:40:08.410,18,0,0,15.259,33.737638,-118.104799,0.10,0.10,-0.40,-6.90,-0.90,-127.30,0,1,0,54,100,-6406,1881,15259,3071.50,11,WP,1,0,0,0,0,0,0,1654735208409,3819,3822,3815,3800,0,0,27,,,,,,,0,0,0,69.00,-9.00,-1273.00,12.00,0.00,-1395.00,14,9.00,4.24,6.12,1.00,1.00,-4.00,0,,,100,100,0,2,0,0,0,1,0,,,,,0.0,0.0,0.0,0.0,0.0,0.0,0
33.737641,-118.104794,0.90,1.20,0.42,0.64,0.90,0.90,0.57,0.64,1098,2022-06-09 00:40:08.508,2022-06-08 17:40:08.508,18,0,0,15.259,33.737638,-118.104799,0.10,0.10,-0.40,-6.70,-1.20,-127.30,0,1,0,54,100,-6406,1881,15259,3071.50,11,WP,1,0,0,0,0,0,0,1654735208507,3819,3822,3815,3800,0,0,27,,,,,,,0,0,0,67.00,-12.00,-1273.00,14.00,0.00,-1395.00,14,9.00,4.24,6.38,1.00,1.00,-4.00,0,,,100,100,0,2,0,0,0,1,0,,,,,0.0,0.0,0.0,0.0,0.0,0.0,0
33.737641,-118.104793,0.90,1.30,0.42,0.66,0.90,0.90,0.57,0.66,1199,2022-06-09 00:40:08.608,2022-06-08 17:40:08.608,18,0,0,15.259,33.737638,-118.104799,0.10,0.10,-0.40,-7.90,-1.50,-127.30,0,1,0,54,100,-6406,1881,15259,3071.50,11,WP,1,0,0,0,0,0,0,1654735208608,3819,3822,3815,3800,0,0,27,,,,,,,0,0,0,79.00,-15.00,-1273.00,8.00,0.00,-1395.00,14,9.00,4.24,6.63,1.00,1.00,-4.00,0,,,100,100,0,2,0,0,0,1,0,,,,,0.0,0.0,0.0,0.0,0.0,0.0,0
33.737641,-118.104793,1.00,1.30,0.42,0.69,1.00,1.00,0.57,0.69,1301,2022-06-09 00:40:08.711,2022-06-08 17:40:08.711,18,0,0,15.259,33.737638,-118.104799,0.10,0.10,-0.40,-8.40,-1.60,-127.30,0,1,0,54,100,-6406,1881,15259,3071.50,11,WP,1,0,0,0,0,0,0,1654735208710,3819,3822,3815,3800,0,0,27,,,,,,,0,0,0,84.00,-16.00,-1273.00,0.00,0.00,-1395.00,14,10.00,4.24,6.86,1.00,1.00,-4.00,0,,,100,100,0,2,0,0,0,1,0,,,,,0.0,0.0,0.0,0.0,0.0,0.0,0
33.737642,-118.104793,1.00,1.40,0.42,0.70,1.00,1.00,0.57,0.70,1400,2022-06-09 00:40:08.810,2022-06-08 17:40:08.810,18,0,0,15.259,33.737638,-118.104799,0.10,0.10,-0.40,-8.20,-1.60,-127.30,0,1,0,54,100,-6406,1881,15259,3071.50,11,WP,1,0,0,0,0,0,0,1654735208809,3819,3822,3815,3800,0,0,27,,,,,,,0,0,0,82.00,-16.00,-1273.00,0.00,0.00,-1395.00,14,10.00,4.24,6.99,1.00,1.00,-4.00,0,,,100,100,0,2,0,0,0,1,0,,,,,0.0,0.0,0.0,0.0,0.0,0.0,0
33.737642,-118.104793,1.10,1.40,0.41,0.71,1.10,1.10,0.57,0.71,1501,2022-06-09 00:40:08.910,2022-06-08 17:40:08.910,18,0,0,15.259,33.737638,-118.104799,0.10,0.00,-0.40,-8.10,-1.40,-127.30,0,1,0,54,100,-6406,1881,15259,3071.50,11,WP,1,0,0,0,0,0,0,1654735208910,3819,3822,3815,3800,0,0,27,,,,,,,0,0,0,81.00,-14.00,-1273.00,1.00,0.00,-1395.00,14,11.00,4.12,7.15,1.00,0.00,-4.00,0,,,100,100,0,2,0,0,0,1,0,,,,,0.0,0.0,0.0,0.0,0.0,0.0,0
33.737642,-118.104793,1.10,1.50,0.40,0.72,1.10,1.10,0.57,0.72,1601,2022-06-09 00:40:09.011,2022-06-08 17:40:09.011,18,0,0,15.259,33.737638,-118.104799,0.00,0.00,-0.40,-7.60,-1.40,-127.30,0,1,0,54,100,-6406,1881,15259,3071.50,11,WP,1,0,0,0,0,0,0,1654735209010,3819,3822,3815,3800,0,0,27,,,,,,,0,0,0,76.00,-14.00,-1273.00,5.00,0.00,-1395.00,14,11.00,4.00,7.22,0.00,0.00,-4.00,0,,,100,100,0,2,0,0,0,1,0,,,,,0.0,0.0,0.0,0.0,0.0,0.0,0
33.737642,-118.104793,1.20,1.50,0.40,0.73,1.20,1.20,0.57,0.73,1703,2022-06-09 00:40:09.112,2022-06-08 17:40:09.112,18,0,0,15.259,33.737638,-118.104799,0.00,0.00,-0.40,-7.20,-1.20,-127.40,0,1,0,54,100,-6406,1881,15259,3071.50,11,WP,1,0,0,0,0,0,0,1654735209112,3819,3822,3815,3800,0,0,27,,,,,,,0,0,0,72.00,-12.00,-1274.00,10.00,0.00,-1395.00,14,12.00,4.00,7.31,0.00,0.00,-4.00,0,,,100,100,0,2,0,0,0,1,0,,,,,0.0,0.0,0.0,0.0,0.0,0.0,0
33.737642,-118.104793,1.20,1.60,0.40,0.73,1.20,1.20,0.57,0.73,1801,2022-06-09 00:40:09.211,2022-06-08 17:40:09.211,18,0,0,15.259,33.737638,-118.104799,0.00,0.00,-0.40,-7.10,-1.00,-127.30,0,1,0,54,100,-6406,1881,15259,3071.50,11,WP,1,0,0,0,0,0,0,1654735209210,3819,3822,3815,3800,0,0,27,,,,,,,0,0,0,71.00,-10.00,-1273.00,11.00,0.00,-1395.00,14,12.00,4.00,7.33,0.00,0.00,-4.00,0,,,100,100,0,2,0,0,0,1,0,,,,,0.0,0.0,0.0,0.0,0.0,0.0,0
33.737642,-118.104793,1.30,1.60,0.40,0.74,1.30,1.30,0.57,0.74,1900,2022-06-09 00:40:09.310,2022-06-08 17:40:09.310,18,0,0,15.259,33.737638,-118.104799,0.00,0.00,-0.40,-7.10,-0.60,-127.30,0,1,0,54,100,-6406,1881,15259,3071.50,11,WP,1,0,0,0,0,0,0,1654735209309,3819,3822,3815,3800,0,0,27,,,,,,,0,0,0,71.00,-6.00,-1273.00,11.00,0.00,-1395.00,14,13.00,4.00,7.39,0.00,0.00,-4.00,0,,,100,100,0,2,0,0,0,1,0,,,,,0.0,0.0,0.0,0.0,0.0,0.0,0
33.737642,-118.104793,1.30,1.70,0.40,0.74,1.30,1.30,0.57,0.74,2001,2022-06-09 00:40:09.410,2022-06-08 17:40:09.410,18,0,0,15.259,33.737638,-118.104799,0.00,0.00,-0.40,-7.20,-0.50,-127.30,0,1,0,54,100,-6406,1881,15259,3071.50,11,WP,1,0,0,0,0,0,0,1654735209410,3819,3822,3815,3800,0,0,27,,,,,,,0,0,0,72.00,-5.00,-1273.00,11.00,0.00,-1395.00,14,13.00,4.00,7.44,0.00,0.00,-4.00,0,,,100,100,0,2,0,0,0,1,0,,,,,0.0,0.0,0.0,0.0,0.0,0.0,0
33.737642,-118.104793,1.40,1.70,0.50,0.75,1.40,1.40,0.57,0.75,2101,2022-06-09 00:40:09.510,2022-06-08 17:40:09.510,18,0,0,15.259,33.737638,-118.104799,0.00,0.00,-0.50,-6.80,-1.40,-127.40,0,1,0,54,100,-6406,1881,15259,3071.50,11,WP,1,0,0,0,0,0,0,1654735209510,3819,3822,3815,3800,0,0,27,,,,,,,0,0,0,68.00,-14.00,-1274.00,13.00,0.00,-1394.00,14,14.00,5.00,7.47,0.00,0.00,-5.00,0,,,100,100,0,2,0,0,0,1,0,,,,,0.0,0.0,0.0,0.0,0.0,0.0,0
33.737642,-118.104793,1.40,1.80,0.60,0.73,1.40,1.40,0.60,0.75,2200,2022-06-09 00:40:09.610,2022-06-08 17:40:09.610,18,0,0,15.259,33.737638,-118.104799,0.00,0.00,-0.60,-6.70,-1.30,-127.30,0,1,0,54,100,-6406,1881,15259,3071.50,11,WP,1,0,0,0,0,0,0,1654735209609,3819,3822,3815,3800,0,0,27,,,,,,,0,0,0,67.00,-13.00,-1273.00,15.00,0.00,-1395.00,14,14.00,6.00,7.30,0.00,0.00,-6.00,0,,,100,100,0,2,0,0,0,1,0,,,,,0.0,0.0,0.0,0.0,0.0,0.0,0
33.737642,-118.104793,1.50,1.90,0.60,0.73,1.50,1.50,0.60,0.75,2301,2022-06-09 00:40:09.710,2022-06-08 17:40:09.710,18,0,0,15.259,33.737638,-118.104799,0.00,0.00,-0.60,-6.40,-1.10,-127.30,0,1,0,54,100,-6406,1881,15259,3071.50,11,WP,1,0,0,0,0,0,0,1654735209710,3819,3822,3815,3800,0,0,27,,,,,,,0,0,0,64.00,-11.00,-1273.00,18.00,0.00,-1394.00,14,15.00,6.00,7.28,0.00,0.00,-6.00,0,,,100,100,0,2,0,0,0,1,0,,,,,0.0,0.0,0.0,0.0,0.0,0.0,0
33.737642,-118.104793,1.60,1.90,0.60,0.72,1.60,1.60,0.60,0.75,2401,2022-06-09 00:40:09.810,2022-06-08 17:40:09.811,18,0,0,15.229,33.737638,-118.104799,0.00,0.00,-0.60,-6.30,-1.00,-127.40,0,1,0,54,100,-7429,1876,15229,3071.50,11,WP,1,0,0,0,0,0,0,1654735209810,3819,3822,3815,3800,0,0,27,,,,,,,0,0,0,63.00,-10.00,-1274.00,19.00,0.00,-1394.00,14,16.00,6.00,7.19,0.00,0.00,-6.00,0,,,100,100,0,2,0,0,0,1,0,,,,,0.0,0.0,0.0,0.0,0.0,0.0,0
33.737642,-118.104793,1.60,2.00,0.60,0.72,1.60,1.60,0.60,0.75,2501,2022-06-09 00:40:09.910,2022-06-08 17:40:09.910,18,0,0,15.229,33.737638,-118.104799,0.00,0.00,-0.60,-6.30,-0.80,-127.30,0,1,0,54,100,-7429,1876,15229,3071.50,11,WP,1,0,0,0,0,0,0,1654735209910,3819,3822,3815,3800,0,0,27,,,,,,,0,0,0,63.00,-8.00,-1273.00,20.00,0.00,-1394.00,14,16.00,6.00,7.17,0.00,0.00,-6.00,0,,,100,100,0,2,0,0,0,1,0,,,,,0.0,0.0,0.0,0.0,0.0,0.0,0
33.737642,-118.104793,1.70,2.10,0.50,0.72,1.70,1.70,0.60,0.75,2600,2022-06-09 00:40:10.010,2022-06-08 17:40:10.010,18,0,0,15.229,33.737638,-118.104799,0.00,0.00,-0.50,-6.30,-0.70,-127.40,0,1,0,54,100,-7429,1876,15229,3071.50,11,WP,1,0,0,0,0,0,0,1654735210009,3819,3822,3815,3800,0,0,27,,,,,,,0,0,0,63.00,-7.00,-1274.00,20.00,0.00,-1394.00,14,17.00,5.00,7.19,0.00,0.00,-5.00,0,,,100,100,0,2,0,0,0,1,0,,,,,0.0,0.0,0.0,0.0,0.0,0.0,0
33.737642,-118.104793,1.70,2.10,0.50,0.72,1.70,1.70,0.60,0.75,2709,2022-06-09 00:40:10.119,2022-06-08 17:40:10.119,18,0,0,15.229,33.737638,-118.104799,0.00,0.00,-0.50,-6.50,-0.70,-127.40,0,1,0,54,100,-7429,1876,15229,3071.50,11,WP,1,0,0,0,0,0,0,1654735210118,3819,3822,3815,3800,0,0,27,,,,,,,0,0,0,65.00,-7.00,-1274.00,18.00,0.00,-1394.00,14,17.00,5.00,7.18,0.00,0.00,-5.00,0,,,100,100,0,2,0,0,0,1,0,,,,,0.0,0.0,0.0,0.0,0.0,0.0,0
33.737642,-118.104793,1.80,2.10,0.40,0.71,1.80,1.80,0.60,0.75,2801,2022-06-09 00:40:10.211,2022-06-08 17:40:10.211,18,0,0,15.229,33.737638,-118.104799,0.00,0.00,-0.40,-6.50,-0.80,-127.40,0,1,0,54,100,-7429,1876,15229,3071.50,11,WP,1,0,0,0,0,0,0,1654735210210,3819,3822,3815,3800,0,0,27,,,,,,,0,0,0,65.00,-8.00,-1274.00,18.00,0.00,-1394.00,14,18.00,4.00,7.11,0.00,0.00,-4.00,0,,,100,100,0,2,0,0,0,1,0,,,,,0.0,0.0,0.0,0.0,0.0,0.0,0
33.737642,-118.104793,1.80,2.20,0.30,0.71,1.80,1.80,0.60,0.75,2903,2022-06-09 00:40:10.313,2022-06-08 17:40:10.313,18,0,0,15.229,33.737638,-118.104799,0.00,0.00,-0.30,-6.20,-1.00,-127.30,0,1,0,54,100,-7429,1876,15229,3071.50,11,WP,1,0,0,0,0,0,0,1654735210312,3819,3822,3815,3800,0,0,27,,,,,,,0,0,0,62.00,-10.00,-1273.00,21.00,0.00,-1394.00,14,18.00,3.00,7.09,0.00,0.00,-3.00,0,,,100,100,0,2,0,0,0,1,0,,,,,0.0,0.0,0.0,0.0,0.0,0.0,0
33.737642,-118.104793,1.80,2.20,0.20,0.71,1.80,1.80,0.60,0.75,3001,2022-06-09 00:40:10.410,2022-06-08 17:40:10.410,18,0,0,15.229,33.737638,-118.104799,0.00,0.00,-0.20,-3.30,0.00,-127.10,0,1,0,54,100,-7429,1876,15229,3071.50,11,WP,1,0,0,0,0,0,0,1654735210410,3819,3822,3815,3800,0,0,27,,,,,,,0,0,0,33.00,0.00,-1271.00,42.00,0.00,-1394.00,14,18.00,2.00,7.08,0.00,0.00,-2.00,0,,,100,100,0,2,0,0,0,1,0,,,,,0.0,0.0,0.0,0.0,0.0,0.0,0
33.737642,-118.104793,1.90,2.30,0.10,0.71,1.90,1.90,0.60,0.75,3101,2022-06-09 00:40:10.510,2022-06-08 17:40:10.510,18,0,0,15.229,33.737638,-118.104799,0.00,0.00,-0.10,-3.40,-0.10,-126.50,0,1,0,54,100,-7429,1876,15229,3071.50,11,WP,1,0,0,0,0,0,0,1654735210510,3819,3822,3815,3800,0,0,27,,,,,,,0,0,0,34.00,-1.00,-1265.00,50.00,0.00,-1394.00,14,19.00,1.00,7.06,0.00,0.00,-1.00,0,,,100,100,0,2,0,0,0,1,0,,,,,0.0,0.0,0.0,0.0,0.0,0.0,0
33.737641,-118.104793,1.90,2.30,0.00,0.71,1.90,1.90,0.60,0.75,3201,2022-06-09 00:40:10.610,2022-06-08 17:40:10.610,18,0,0,15.229,33.737638,-118.104799,0.00,0.00,0.00,-4.30,-0.20,-125.20,0,1,0,54,100,-7429,1876,15229,3071.50,11,WP,1,0,0,0,0,0,0,1654735210610,3819,3822,3815,3800,0,0,27,,,,,,,0,0,0,43.00,-2.00,-1252.00,42.00,0.00,-1394.00,14,19.00,0.00,7.09,0.00,0.00,0.00,0,,,100,100,0,2,0,0,0,1,0,,,,,0.0,0.0,0.0,0.0,0.0,0.0,0
33.737642,-118.104793,1.90,2.30,0.10,0.72,1.90,1.90,0.60,0.75,3301,2022-06-09 00:40:10.711,2022-06-08 17:40:10.711,18,0,0,15.229,33.737638,-118.104799,0.00,0.10,0.00,-4.90,-0.70,-123.50,0,1,0,54,100,-7429,1876,15229,3071.50,11,WP,1,0,0,0,0,0,0,1654735210710,3819,3822,3815,3800,0,0,27,,,,,,,0,0,0,49.00,-7.00,-1235.00,35.00,0.00,-1391.00,14,19.00,1.00,7.19,0.00,1.00,0.00,0,,,100,100,0,2,0,0,0,1,0,,,,,0.0,0.0,0.0,0.0,0.0,0.0,0
33.737642,-118.104793,1.90,2.30,0.10,0.73,1.90,1.90,0.60,0.75,3402,2022-06-09 00:40:10.811,2022-06-08 17:40:10.811,18,0,0,15.229,33.737638,-118.104799,0.00,0.10,0.00,-5.30,-0.90,-121.20,0,1,0,54,100,-7429,1876,15229,3071.50,11,WP,1,0,0,0,0,0,0,1654735210811,3819,3822,3815,3800,0,0,27,,,,,,,0,0,0,53.00,-9.00,-1212.00,31.00,0.00,-1384.00,14,19.00,1.00,7.31,0.00,1.00,0.00,0,,,100,100,0,2,0,0,0,1,0,,,,,0.0,0.0,0.0,0.0,0.0,0.0,0
33.737642,-118.104793,1.90,2.30,0.10,0.74,1.90,1.90,0.60,0.75,3502,2022-06-09 00:40:10.911,2022-06-08 17:40:10.911,18,0,0,15.229,33.737638,-118.104799,0.00,0.10,0.00,-5.90,-1.10,-118.30,0,1,0,54,100,-7429,1876,15229,3071.50,11,WP,1,0,0,0,0,0,0,1654735210911,3819,3822,3815,3800,0,0,27,,,,,,,0,0,0,59.00,-11.00,-1183.00,26.00,-1.00,-1369.00,14,19.00,1.00,7.44,0.00,1.00,0.00,0,,,100,100,0,2,0,0,0,1,0,,,,,0.0,0.0,0.0,0.0,0.0,0.0,0
33.737642,-118.104793,1.90,2.30,0.10,0.76,1.90,1.90,0.60,0.76,3601,2022-06-09 00:40:11.010,2022-06-08 17:40:11.010,18,0,0,15.229,33.737638,-118.104799,0.00,0.10,0.00,-6.30,-1.60,-114.80,0,1,0,54,100,-7429,1876,15229,3071.50,11,WP,1,0,0,0,0,0,0,1654735211010,3819,3822,3815,3800,0,0,27,,,,,,,0,0,0,63.00,-16.00,-1148.00,21.00,-2.00,-1345.00,14,19.00,1.00,7.59,0.00,1.00,0.00,0,,,100,100,0,2,0,0,0,1,0,,,,,0.0,0.0,0.0,0.0,0.0,0.0,0
33.737642,-118.104793,1.90,2.30,0.10,0.75,1.90,1.90,0.60,0.76,3710,2022-06-09 00:40:11.119,2022-06-08 17:40:11.119,18,0,0,15.229,33.737638,-118.104799,0.00,0.10,0.00,-6.50,-2.10,-110.80,0,1,0,54,100,-7429,1876,15229,3071.50,11,WP,1,0,0,0,0,0,0,1654735211119,3819,3822,3815,3800,0,0,27,,,,,,,0,0,0,65.00,-21.00,-1108.00,18.00,-4.00,-1312.00,14,19.00,1.00,7.52,0.00,1.00,0.00,0,,,100,100,0,2,0,0,0,1,0,,,,,0.0,0.0,0.0,0.0,0.0,0.0,0
33.737642,-118.104792,1.90,2.30,0.10,0.78,1.90,1.90,0.60,0.78,3801,2022-06-09 00:40:11.211,2022-06-08 17:40:11.211,18,0,0,15.229,33.737638,-118.104799,0.00,0.10,0.00,-6.30,-2.60,-106.20,0,1,0,54,100,-7429,1876,15229,3071.50,11,WP,1,0,0,0,0,0,0,1654735211210,3819,3822,3815,3800,0,0,27,,,,,,,0,0,0,63.00,-26.00,-1062.00,18.00,-5.00,-1273.00,14,19.00,1.00,7.83,0.00,1.00,0.00,0,,,100,100,0,2,0,0,0,1,0,,,,,0.0,0.0,0.0,0.0,0.0,0.0,0
33.737642,-118.104792,1.90,2.30,0.00,0.79,1.90,1.90,0.60,0.79,3902,2022-06-09 00:40:11.311,2022-06-08 17:40:11.311,18,0,0,15.229,33.737638,-118.104799,0.00,0.00,0.00,-6.10,-2.90,-100.90,0,1,0,54,100,-7429,1876,15229,3071.50,11,WP,1,0,0,0,0,0,0,1654735211311,3819,3822,3815,3800,0,0,27,,,,,,,0,0,0,61.00,-29.00,-1009.00,19.00,-5.00,-1227.00,14,19.00,0.00,7.93,0.00,0.00,0.00,0,,,100,100,0,2,0,0,0,1,0,,,,,0.0,0.0,0.0,0.0,0.0,0.0,0
33.737642,-118.104792,1.90,2.30,0.00,0.80,1.90,1.90,0.60,0.80,4002,2022-06-09 00:40:11.411,2022-06-08 17:40:11.411,18,0,0,15.229,33.737638,-118.104799,0.00,0.00,0.00,-5.90,-3.50,-95.10,0,1,0,54,100,-7429,1876,15229,3071.50,11,WP,1,0,0,0,0,0,0,1654735211411,3819,3822,3815,3800,0,0,27,,,,,,,0,0,0,59.00,-35.00,-951.00,21.00,-6.00,-1174.00,14,19.00,0.00,8.04,0.00,0.00,0.00,0,,,100,100,0,2,0,0,0,1,0,,,,,0.0,0.0,0.0,0.0,0.0,0.0,0
33.737642,-118.104792,1.90,2.30,0.00,0.81,1.90,1.90,0.60,0.81,4102,2022-06-09 00:40:11.511,2022-06-08 17:40:11.511,18,0,0,15.229,33.737638,-118.104799,0.00,0.00,0.00,-5.50,-4.00,-88.80,0,1,0,54,100,-7429,1876,15229,3071.50,11,WP,1,0,0,0,0,0,0,1654735211511,3819,3822,3815,3800,0,0,27,,,,,,,0,0,0,55.00,-40.00,-888.00,25.00,-7.00,-1116.00,14,19.00,0.00,8.12,0.00,0.00,0.00,0,,,100,100,0,2,0,0,0,1,0,,,,,0.0,0.0,0.0,0.0,0.0,0.0,0
33.737642,-118.104792,1.80,2.30,0.00,0.82,1.90,1.90,0.60,0.82,4202,2022-06-09 00:40:11.611,2022-06-08 17:40:11.611,18,0,0,15.229,33.737638,-118.104799,0.00,0.00,0.00,-4.80,-4.50,-82.00,0,1,0,54,100,-7429,1876,15229,3071.50,11,WP,1,0,0,0,0,0,0,1654735211611,3819,3822,3815,3800,0,0,27,,,,,,,0,0,0,48.00,-45.00,-820.00,30.00,-7.00,-1052.00,14,18.00,0.00,8.22,0.00,0.00,0.00,0,,,100,100,0,2,0,0,0,1,0,,,,,0.0,0.0,0.0,0.0,0.0,0.0,0
33.737642,-118.104792,1.80,2.30,0.00,0.83,1.90,1.90,0.60,0.83,4301,2022-06-09 00:40:11.711,2022-06-08 17:40:11.711,18,0,0,15.227,33.737638,-118.104799,0.00,0.00,0.00,-4.00,-4.80,-74.60,0,1,0,53,100,-6935,1872,15227,3071.50,11,WP,1,0,0,0,0,0,0,1654735211710,3819,3822,3815,3800,0,0,27,,,,,,,0,0,0,40.00,-48.00,-746.00,37.00,-7.00,-981.00,14,18.00,0.00,8.26,0.00,0.00,0.00,0,,,100,100,0,2,0,0,0,1,0,,,,,0.0,0.0,0.0,0.0,0.0,0.0,0
33.737642,-118.104792,1.80,2.30,0.00,0.84,1.90,1.90,0.60,0.84,4402,2022-06-09 00:40:11.811,2022-06-08 17:40:11.811,18,0,0,15.227,33.737638,-118.104799,0.00,0.00,0.00,-3.20,-4.90,-67.00,0,1,0,53,100,-6935,1872,15227,3071.50,11,WP,1,0,0,0,0,0,0,1654735211811,3819,3822,3815,3800,0,0,27,,,,,,,0,0,0,32.00,-49.00,-670.00,44.00,-8.00,-905.00,14,18.00,0.00,8.39,0.00,0.00,0.00,0,,,100,100,0,2,0,0,0,1,0,,,,,0.0,0.0,0.0,0.0,0.0,0.0,0
33.737642,-118.104792,1.80,2.30,0.00,0.84,1.90,1.90,0.60,0.84,4502,2022-06-09 00:40:11.911,2022-06-08 17:40:11.911,18,0,0,15.227,33.737638,-118.104799,0.00,0.00,0.00,-2.30,-4.90,-59.60,0,1,0,53,100,-6935,1872,15227,3071.50,11,WP,1,0,0,0,0,0,0,1654735211911,3819,3822,3815,3800,0,0,27,,,,,,,0,0,0,23.00,-49.00,-596.00,54.00,-7.00,-827.00,14,18.00,0.00,8.43,0.00,0.00,0.00,0,,,100,100,0,2,0,0,0,1,0,,,,,0.0,0.0,0.0,0.0,0.0,0.0,0
33.737642,-118.104792,1.80,2.30,0.10,0.84,1.90,1.90,0.60,0.84,4602,2022-06-09 00:40:12.011,2022-06-08 17:40:12.011,18,0,0,15.227,33.737638,-118.104799,0.10,0.00,0.00,-1.40,-5.20,-53.70,0,1,0,53,100,-6935,1872,15227,3071.50,11,WP,1,0,0,0,0,0,0,1654735212011,3819,3822,3815,3800,0,0,27,,,,,,,0,0,0,14.00,-52.00,-537.00,63.00,-7.00,-750.00,14,18.00,1.00,8.43,1.00,0.00,0.00,0,,,100,100,0,2,0,0,0,1,0,,,,,0.0,0.0,0.0,0.0,0.0,0.0,0
33.737642,-118.104792,1.80,2.30,0.10,0.85,1.90,1.90,0.60,0.85,4704,2022-06-09 00:40:12.114,2022-06-08 17:40:12.114,18,0,0,15.227,33.737638,-118.104799,0.10,0.00,0.00,-1.10,-5.60,-49.40,0,1,0,53,100,-6935,1872,15227,3071.50,11,WP,1,0,0,0,0,0,0,1654735212113,3819,3822,3815,3800,0,0,27,,,,,,,0,0,0,11.00,-56.00,-494.00,68.00,-5.00,-686.00,14,18.00,1.00,8.51,1.00,0.00,0.00,0,,,100,100,0,2,0,0,0,1,0,,,,,0.0,0.0,0.0,0.0,0.0,0.0,0
33.737643,-118.104792,1.90,2.30,0.10,0.88,1.90,1.90,0.60,0.88,4801,2022-06-09 00:40:12.211,2022-06-08 17:40:12.211,18,0,0,15.227,33.737638,-118.104799,0.10,0.00,0.00,-0.90,-6.40,-46.50,0,1,0,53,100,-6935,1872,15227,3071.50,11,WP,1,0,0,0,0,0,0,1654735212210,3819,3822,3815,3800,0,0,27,,,,,,,0,0,0,9.00,-64.00,-465.00,70.00,-3.00,-638.00,14,19.00,1.00,8.79,1.00,0.00,0.00,0,,,100,100,0,2,0,0,0,1,0,,,,,0.0,0.0,0.0,0.0,0.0,0.0,0
33.737643,-118.104792,1.80,2.30,0.10,0.89,1.90,1.90,0.60,0.89,4902,2022-06-09 00:40:12.311,2022-06-08 17:40:12.311,18,0,0,15.227,33.737638,-118.104799,0.10,0.00,0.00,-0.20,-7.20,-44.70,0,1,0,53,100,-6935,1872,15227,3071.50,11,WP,1,0,0,0,0,0,0,1654735212311,3819,3822,3815,3800,0,0,27,,,,,,,0,0,0,2.00,-72.00,-447.00,77.00,-2.00,-604.00,14,18.00,1.00,8.93,1.00,0.00,0.00,0,,,100,100,0,2,0,0,0,1,0,,,,,0.0,0.0,0.0,0.0,0.0,0.0,0
33.737643,-118.104792,1.80,2.30,0.10,0.91,1.90,1.90,0.60,0.91,5002,2022-06-09 00:40:12.412,2022-06-08 17:40:12.412,18,0,0,15.227,33.737638,-118.104799,0.10,0.00,0.00,0.40,-7.60,-43.70,0,1,0,53,100,-6935,1872,15227,3071.50,11,WP,1,0,0,0,0,0,0,1654735212411,3819,3822,3815,3800,0,0,27,,,,,,,0,0,0,-4.00,-76.00,-437.00,85.00,-1.00,-583.00,14,18.00,1.00,9.06,1.00,0.00,0.00,0,,,100,100,0,2,0,0,0,1,0,,,,,0.0,0.0,0.0,0.0,0.0,0.0,0
33.737643,-118.104792,1.80,2.30,0.10,0.91,1.90,1.90,0.60,0.91,5103,2022-06-09 00:40:12.512,2022-06-08 17:40:12.512,18,0,0,15.227,33.737638,-118.104799,0.10,0.00,0.00,0.60,-7.80,-43.40,0,1,0,53,100,-6935,1872,15227,3071.50,11,WP,1,0,0,0,0,0,0,1654735212512,3819,3822,3815,3800,0,0,27,,,,,,,0,0,0,-6.00,-78.00,-434.00,88.00,0.00,-569.00,14,18.00,1.00,9.13,1.00,0.00,0.00,0,,,100,100,0,2,0,0,0,1,0,,,,,0.0,0.0,0.0,0.0,0.0,0.0,0
33.737643,-118.104792,1.80,2.30,0.10,0.93,1.90,1.90,0.60,0.93,5203,2022-06-09 00:40:12.613,2022-06-08 17:40:12.613,18,0,0,15.227,33.737638,-118.104799,0.10,0.00,0.00,1.10,-7.70,-43.70,0,1,0,53,100,-6935,1872,15227,3071.50,11,WP,1,0,0,0,0,0,0,1654735212612,3819,3822,3815,3800,0,0,27,,,,,,,0,0,0,-11.00,-77.00,-437.00,94.00,0.00,-562.00,14,18.00,1.00,9.33,1.00,0.00,0.00,0,,,100,100,0,2,0,0,0,1,0,,,,,0.0,0.0,0.0,0.0,0.0,0.0,0
33.737643,-118.104792,1.80,2.30,0.00,0.94,1.90,1.90,0.60,0.94,5304,2022-06-09 00:40:12.713,2022-06-08 17:40:12.713,18,0,0,15.227,33.737638,-118.104799,0.00,0.00,0.00,1.40,-7.80,-44.40,0,1,0,53,100,-6935,1872,15227,3071.50,11,WP,1,0,0,0,0,0,0,1654735212713,3819,3822,3815,3800,0,0,27,,,,,,,0,0,0,-14.00,-78.00,-444.00,98.00,0.00,-559.00,14,18.00,0.00,9.42,0.00,0.00,0.00,0,,,100,100,0,2,0,0,0,1,0,,,,,0.0,0.0,0.0,0.0,0.0,0.0,0
33.737643,-118.104791,1.80,2.30,0.00,0.94,1.90,1.90,0.60,0.94,5403,2022-06-09 00:40:12.812,2022-06-08 17:40:12.813,18,0,0,15.227,33.737638,-118.104799,0.00,0.00,0.00,1.20,-7.80,-45.10,0,1,0,53,100,-6935,1872,15227,3071.50,11,WP,1,0,0,0,0,0,0,1654735212812,3819,3822,3815,3800,0,0,27,,,,,,,0,0,0,-12.00,-78.00,-451.00,100.00,0.00,-559.00,14,18.00,0.00,9.42,0.00,0.00,0.00,0,,,100,100,0,2,0,0,0,1,0,,,,,0.0,0.0,0.0,0.0,0.0,0.0,0
33.737643,-118.104791,1.80,2.30,0.00,0.95,1.90,1.90,0.60,0.95,5504,2022-06-09 00:40:12.914,2022-06-08 17:40:12.914,18,0,0,15.227,33.737638,-118.104799,0.00,0.00,0.00,-3.40,-5.80,-44.90,0,1,0,53,100,-6935,1872,15227,3071.50,11,WP,1,0,0,0,0,0,0,1654735212913,3819,3822,3815,3800,0,0,27,,,,,,,0,0,0,34.00,-58.00,-449.00,62.00,0.00,-560.00,14,18.00,0.00,9.49,0.00,0.00,0.00,0,,,100,100,0,2,0,0,0,1,0,,,,,0.0,0.0,0.0,0.0,0.0,0.0,0
33.737644,-118.104791,1.80,2.30,0.10,0.96,1.90,1.90,0.60,0.96,5607,2022-06-09 00:40:13.016,2022-06-08 17:40:13.016,18,0,0,15.227,33.737638,-118.104799,0.10,0.00,0.00,-8.70,-6.20,-44.40,0,1,0,53,100,-6935,1872,15227,3071.50,11,WP,1,0,0,0,0,0,0,1654735213016,3819,3822,3815,3800,0,0,27,,,,,,,0,0,0,87.00,-62.00,-444.00,8.00,0.00,-561.00,14,18.00,1.00,9.63,1.00,0.00,0.00,0,,,100,100,0,2,0,0,0,1,0,,,,,0.0,0.0,0.0,0.0,0.0,0.0,0
33.737644,-118.104792,1.80,2.20,0.20,0.97,1.90,1.90,0.60,0.97,5710,2022-06-09 00:40:13.120,2022-06-08 17:40:13.120,18,0,0,15.227,33.737638,-118.104799,0.20,0.00,0.00,-12.30,-7.10,-44.10,0,1,0,53,100,-6935,1872,15227,3071.50,11,WP,1,0,0,0,0,0,0,1654735213119,3819,3822,3815,3800,0,0,27,,,,,,,0,0,0,123.00,-71.00,-441.00,-32.00,0.00,-562.00,14,18.00,2.00,9.74,2.00,0.00,0.00,0,,,100,100,0,2,0,0,0,1,0,,,,,0.0,4.1,0.0,0.0,0.0,0.0,0
33.737644,-118.104792,1.80,2.20,0.36,0.98,1.90,1.90,0.60,0.98,5802,2022-06-09 00:40:13.211,2022-06-08 17:40:13.211,18,0,0,15.227,33.737638,-118.104799,0.30,-0.20,0.00,-14.90,-7.90,-43.90,0,1,0,53,100,-6935,1872,15227,3071.50,11,WP,1,0,0,0,0,0,0,1654735213211,3819,3822,3815,3800,0,0,27,,,,,,,0,0,0,149.00,-79.00,-439.00,-61.00,0.00,-563.00,14,18.00,3.61,9.76,3.00,-2.00,0.00,0,,,100,100,0,2,0,0,0,1,0,,,,,0.0,4.1,0.0,0.0,0.0,0.0,0
33.737644,-118.104792,1.80,2.20,0.58,0.99,1.90,1.90,0.60,0.99,5903,2022-06-09 00:40:13.312,2022-06-08 17:40:13.312,18,0,0,15.227,33.737638,-118.104799,0.50,-0.30,0.00,-16.30,-8.30,-43.80,0,1,0,53,100,-6935,1872,15227,3071.50,11,WP,1,0,0,0,0,0,0,1654735213312,3819,3822,3815,3800,0,0,27,,,,,,,0,0,0,163.00,-83.00,-438.00,-78.00,0.00,-563.00,14,18.00,5.83,9.89,5.00,-3.00,0.00,0,,,100,100,0,2,0,0,0,1,0,,,,,0.0,4.1,0.0,0.0,0.0,0.0,0
33.737645,-118.104792,1.80,2.20,0.86,1.00,1.90,1.90,0.86,1.00,6003,2022-06-09 00:40:13.413,2022-06-08 17:40:13.413,18,0,0,15.227,33.737638,-118.104799,0.70,-0.50,0.00,-17.30,-8.70,-43.70,0,1,0,53,100,-6935,1872,15227,3071.50,11,WP,1,0,0,0,0,0,0,1654735213412,3819,3822,3815,3800,0,0,27,,,,,,,0,0,0,173.00,-87.00,-437.00,-90.00,0.00,-563.00,14,18.00,8.60,9.99,7.00,-5.00,0.00,0,,,100,100,0,2,0,0,0,1,0,,,,,0.0,4.1,0.0,0.0,0.0,0.0,0
33.737646,-118.104793,1.80,2.20,1.06,1.03,1.90,1.90,1.06,1.03,6103,2022-06-09 00:40:13.513,2022-06-08 17:40:13.513,18,0,0,15.227,33.737638,-118.104799,0.80,-0.70,0.00,-18.00,-9.10,-43.80,0,1,0,53,100,-6935,1872,15227,3071.50,11,WP,1,0,0,0,0,0,0,1654735213512,3819,3822,3815,3800,0,0,27,,,,,,,0,0,0,180.00,-91.00,-438.00,-99.00,0.00,-564.00,14,18.00,10.63,10.27,8.00,-7.00,0.00,0,,,100,100,0,2,0,0,0,1,0,,,,,0.0,4.1,0.0,0.0,0.0,0.0,0
33.737647,-118.104794,1.80,2.20,1.35,1.09,1.90,1.90,1.35,1.09,6203,2022-06-09 00:40:13.612,2022-06-08 17:40:13.612,18,0,0,15.227,33.737638,-118.104799,1.00,-0.90,0.00,-18.10,-9.70,-43.70,0,1,0,53,100,-6935,1872,15227,3071.50,11,WP,1,0,0,0,0,0,0,1654735213612,3819,3822,3815,3800,0,0,27,,,,,,,0,0,0,181.00,-97.00,-437.00,-102.00,0.00,-564.00,14,18.00,13.45,10.94,10.00,-9.00,0.00,0,,,100,100,0,2,0,0,0,1,0,,,,,0.0,4.1,0.0,0.0,0.0,0.0,0
33.737648,-118.104795,1.80,2.30,1.63,1.16,1.90,1.90,1.63,1.16,6303,2022-06-09 00:40:13.713,2022-06-08 17:40:13.713,18,0,0,15.179,33.737638,-118.104799,1.20,-1.10,0.00,-17.50,-9.90,-43.70,0,1,0,53,100,-7580,1868,15179,3071.50,11,WP,1,0,0,0,0,0,0,1654735213712,3819,3822,3815,3800,0,0,27,,,,,,,0,0,0,175.00,-99.00,-437.00,-97.00,0.00,-564.00,14,18.00,16.28,11.62,12.00,-11.00,0.00,0,,,100,100,0,2,0,0,0,1,0,,,,,0.0,4.5,0.0,0.0,0.0,0.0,0
33.737649,-118.104796,1.80,2.30,1.84,1.26,1.90,1.90,1.84,1.26,6404,2022-06-09 00:40:13.813,2022-06-08 17:40:13.813,18,0,0,15.179,33.737638,-118.104799,1.30,-1.30,0.00,-15.80,-9.80,-43.70,0,1,0,53,100,-7580,1868,15179,3071.50,11,WP,1,0,0,0,0,0,0,1654735213813,3819,3822,3815,3800,0,0,27,,,,,,,0,0,0,158.00,-98.00,-437.00,-82.00,0.00,-564.00,14,18.00,18.38,12.63,13.00,-13.00,0.00,0,,,100,100,0,2,0,0,0,1,0,,,,,0.0,4.5,0.0,0.0,0.0,0.0,0
33.737650,-118.104798,1.80,2.30,2.05,1.38,1.90,1.90,2.05,1.38,6503,2022-06-09 00:40:13.912,2022-06-08 17:40:13.912,18,0,0,15.179,33.737638,-118.104799,1.40,-1.50,0.00,-12.90,-10.00,-43.90,0,1,0,53,100,-7580,1868,15179,3071.50,11,WP,1,0,0,0,0,0,0,1654735213912,3819,3822,3815,3800,0,0,27,,,,,,,0,0,0,129.00,-100.00,-439.00,-60.00,0.00,-564.00,14,18.00,20.52,13.83,14.00,-15.00,0.00,0,,,100,100,0,2,0,0,0,1,0,,,,,0.0,4.6,0.0,0.0,0.0,0.0,0
33.737652,-118.104799,1.90,2.30,2.19,1.57,1.90,1.90,2.19,1.57,6606,2022-06-09 00:40:14.015,2022-06-08 17:40:14.015,18,0,0,15.179,33.737638,-118.104799,1.50,-1.60,0.00,-8.00,-9.60,-44.40,0,1,0,53,100,-7580,1868,15179,3071.50,11,WP,1,0,0,0,0,0,0,1654735214015,3819,3822,3815,3800,0,0,27,,,,,,,0,0,0,80.00,-96.00,-444.00,-10.00,0.00,-564.00,14,19.00,21.93,15.70,15.00,-16.00,0.00,0,,,100,100,0,2,0,0,0,1,0,,,,,0.0,4.6,0.0,0.0,0.0,0.0,0
33.737653,-118.104801,1.90,2.30,2.27,1.74,1.90,1.90,2.27,1.74,6708,2022-06-09 00:40:14.117,2022-06-08 17:40:14.117,18,0,0,15.179,33.737638,-118.104799,1.50,-1.70,0.00,-4.10,-9.90,-44.70,0,1,0,53,100,-7580,1868,15179,3071.50,11,WP,1,0,0,0,0,0,0,1654735214117,3819,3822,3815,3800,0,0,27,,,,,,,0,0,0,41.00,-99.00,-447.00,32.00,0.00,-564.00,14,19.00,22.67,17.37,15.00,-17.00,0.00,0,,,100,100,0,2,0,0,0,1,0,,,,,0.0,4.8,0.0,0.0,0.0,0.0,0
33.737655,-118.104802,1.90,2.30,2.27,1.94,1.90,1.90,2.27,1.94,6804,2022-06-09 00:40:14.214,2022-06-08 17:40:14.214,18,0,0,15.179,33.737638,-118.104799,1.50,-1.70,0.00,-1.40,-9.40,-44.90,0,1,0,53,100,-7580,1868,15179,3071.50,11,WP,1,0,0,0,0,0,0,1654735214213,3819,3822,3815,3800,0,0,27,,,,,,,0,0,0,14.00,-94.00,-449.00,62.00,0.00,-565.00,14,19.00,22.67,19.43,15.00,-17.00,0.00,0,,,100,100,0,2,0,0,0,1,0,,,,,0.0,4.8,0.0,0.0,0.0,0.0,0
33.737657,-118.104803,1.90,2.30,2.20,2.13,1.90,1.90,2.27,2.13,6905,2022-06-09 00:40:14.314,2022-06-08 17:40:14.314,18,0,0,15.179,33.737638,-118.104799,1.40,-1.70,0.00,0.00,-10.00,-45.10,0,1,0,53,100,-7580,1868,15179,3071.50,11,WP,1,0,0,0,0,0,0,1654735214314,3819,3822,3815,3800,0,0,27,,,,,,,0,0,0,-0.00,-100.00,-451.00,80.00,0.00,-565.00,14,19.00,22.02,21.25,14.00,-17.00,0.00,0,,,100,100,0,2,0,0,0,1,0,,,,,0.0,12.4,0.0,0.0,0.0,0.0,0
33.737658,-118.104805,1.90,2.30,2.13,2.31,1.90,1.90,2.27,2.31,7003,2022-06-09 00:40:14.412,2022-06-08 17:40:14.412,18,0,0,15.179,33.737638,-118.104799,1.40,-1.60,0.00,1.00,-9.40,-45.00,0,1,0,53,100,-7580,1868,15179,3071.50,11,WP,1,0,0,0,0,0,0,1654735214412,3819,3822,3815,3800,0,0,27,,,,,,,0,0,0,-10.00,-94.00,-450.00,92.00,0.00,-565.00,14,19.00,21.26,23.08,14.00,-16.00,0.00,0,,,100,100,0,2,0,0,0,1,0,,,,,0.0,12.4,0.0,0.0,0.0,0.0,0
33.737660,-118.104806,1.90,2.30,2.06,2.52,1.90,1.90,2.27,2.52,7103,2022-06-09 00:40:14.513,2022-06-08 17:40:14.513,18,0,0,15.179,33.737638,-118.104799,1.30,-1.60,0.00,1.80,-9.90,-45.10,0,1,0,53,100,-7580,1868,15179,3071.50,11,WP,1,0,0,0,0,0,0,1654735214512,3819,3822,3815,3800,0,0,27,,,,,,,0,0,0,-18.00,-99.00,-451.00,102.00,0.00,-565.00,14,19.00,20.62,25.20,13.00,-16.00,0.00,0,,,100,100,0,2,0,0,0,1,0,,,,,0.0,13.0,0.0,0.0,0.0,0.0,0
33.737661,-118.104808,1.90,2.30,2.00,2.76,1.90,1.90,2.27,2.76,7203,2022-06-09 00:40:14.612,2022-06-08 17:40:14.612,18,0,0,15.179,33.737638,-118.104799,1.20,-1.60,0.00,2.50,-9.60,-45.20,0,1,0,53,100,-7580,1868,15179,3071.50,11,WP,1,0,0,0,0,0,0,1654735214612,3819,3822,3815,3800,0,0,27,,,,,,,0,0,0,-25.00,-96.00,-452.00,109.00,0.00,-565.00,14,19.00,20.00,27.60,12.00,-16.00,0.00,0,,,100,100,0,2,0,0,0,1,0,,,,,0.0,13.0,0.0,0.0,0.0,0.0,0
33.737663,-118.104809,1.90,2.30,1.94,2.94,1.90,1.90,2.27,2.94,7304,2022-06-09 00:40:14.713,2022-06-08 17:40:14.713,18,0,0,15.179,33.737638,-118.104799,1.10,-1.60,0.00,3.60,-9.70,-45.20,0,1,0,53,100,-7580,1868,15179,3071.50,11,WP,1,0,0,0,0,0,0,1654735214713,3819,3822,3815,3800,0,0,27,,,,,,,0,0,0,-36.00,-97.00,-452.00,123.00,0.00,-565.00,14,19.00,19.42,29.36,11.00,-16.00,0.00,0,,,100,100,0,2,0,0,0,1,0,,,,,0.0,0.0,0.0,0.0,0.0,0.0,0
33.737664,-118.104811,1.90,2.30,1.80,3.13,1.90,1.90,2.27,3.13,7403,2022-06-09 00:40:14.813,2022-06-08 17:40:14.813,18,0,0,15.179,33.737638,-118.104799,1.00,-1.50,0.00,4.20,-9.40,-45.20,0,1,0,53,100,-7580,1868,15179,3071.50,11,WP,1,0,0,0,0,0,0,1654735214812,3819,3822,3815,3800,0,0,27,,,,,,,0,0,0,-42.00,-94.00,-452.00,127.00,0.00,-565.00,14,19.00,18.03,31.26,10.00,-15.00,0.00,0,,,100,100,0,2,0,0,0,1,0,,,,,0.0,0.0,0.0,0.0,0.0,0.0,0
33.737665,-118.104812,1.90,2.30,1.66,3.29,1.90,1.90,2.27,3.29,7504,2022-06-09 00:40:14.914,2022-06-08 17:40:14.914,18,0,0,15.179,33.737638,-118.104799,0.90,-1.40,0.00,4.90,-9.50,-45.30,0,1,0,53,100,-7580,1868,15179,3071.50,11,WP,1,0,0,0,0,0,0,1654735214913,3819,3822,3815,3800,0,0,27,,,,,,,0,0,0,-49.00,-95.00,-453.00,135.00,0.00,-565.00,14,19.00,16.64,32.86,9.00,-14.00,0.00,0,,,100,100,0,2,0,0,0,1,0,,,,,0.0,0.0,0.0,0.0,0.0,0.0,0
33.737666,-118.104814,1.90,2.30,1.61,3.46,1.90,1.90,2.27,3.46,7604,2022-06-09 00:40:15.013,2022-06-08 17:40:15.013,18,0,0,15.179,33.737638,-118.104799,0.80,-1.40,0.00,4.90,-8.80,-45.30,0,1,0,53,100,-7580,1868,15179,3071.50,11,WP,1,0,0,0,0,0,0,1654735215013,3819,3822,3815,3800,0,0,27,,,,,,,0,0,0,-49.00,-88.00,-453.00,137.00,0.00,-565.00,14,19.00,16.12,34.57,8.00,-14.00,0.00,0,,,100,100,0,2,0,0,0,1,0,,,,,0.0,0.0,0.0,0.0,0.0,0.0,0
33.737667,-118.104815,1.90,2.30,1.48,3.60,1.90,1.90,2.27,3.60,7717,2022-06-09 00:40:15.126,2022-06-08 17:40:15.126,18,0,0,15.179,33.737638,-118.104799,0.70,-1.30,0.00,5.20,-8.50,-45.30,0,1,0,53,100,-7580,1868,15179,3071.50,11,WP,1,0,0,0,0,0,0,1654735215126,3819,3822,3815,3800,0,0,27,,,,,,,0,0,0,-52.00,-85.00,-453.00,140.00,0.00,-565.00,14,19.00,14.76,36.00,7.00,-13.00,0.00,0,,,100,100,0,2,0,0,0,1,0,,,,,0.0,0.0,0.0,0.0,0.0,0.0,0
33.737668,-118.104817,1.90,2.40,1.34,3.75,1.90,1.90,2.27,3.75,7804,2022-06-09 00:40:15.214,2022-06-08 17:40:15.214,18,0,0,15.179,33.737638,-118.104799,0.60,-1.20,0.00,4.90,-8.60,-45.20,0,1,0,53,100,-7580,1868,15179,3071.50,11,WP,1,0,0,0,0,0,0,1654735215213,3819,3822,3815,3800,0,0,27,,,,,,,0,0,0,-49.00,-86.00,-452.00,136.00,0.00,-565.00,14,19.00,13.42,37.46,6.00,-12.00,0.00,0,,,100,100,0,2,0,0,0,1,0,,,,,0.0,0.0,0.0,0.0,0.0,0.0,0
33.737669,-118.104818,1.90,2.40,1.21,3.87,1.90,1.90,2.27,3.87,7905,2022-06-09 00:40:15.315,2022-06-08 17:40:15.315,18,0,0,15.179,33.737638,-118.104799,0.50,-1.10,0.00,4.90,-8.00,-45.40,0,1,0,53,100,-7580,1868,15179,3071.50,11,WP,1,0,0,0,0,0,0,1654735215314,3819,3822,3815,3800,0,0,27,,,,,,,0,0,0,-49.00,-80.00,-454.00,138.00,0.00,-566.00,14,19.00,12.08,38.70,5.00,-11.00,0.00,0,,,100,100,0,2,0,0,0,1,0,,,,,0.0,0.0,0.0,0.0,0.0,0.0,0
33.737670,-118.104819,1.90,2.40,1.08,3.99,1.90,1.90,2.27,3.99,8004,2022-06-09 00:40:15.413,2022-06-08 17:40:15.413,18,0,0,15.179,33.737638,-118.104799,0.40,-1.00,0.00,4.20,-7.60,-45.20,0,1,0,53,100,-7580,1868,15179,3071.50,11,WP,1,0,0,0,0,0,0,1654735215413,3819,3822,3815,3800,0,0,27,,,,,,,0,0,0,-42.00,-76.00,-452.00,130.00,0.00,-566.00,14,19.00,10.77,39.88,4.00,-10.00,0.00,0,,,100,100,0,2,0,0,0,1,0,,,,,0.0,0.0,0.0,0.0,0.0,0.0,0
33.737670,-118.104820,1.90,2.40,1.04,4.09,1.90,1.90,2.27,4.09,8104,2022-06-09 00:40:15.513,2022-06-08 17:40:15.513,18,0,0,15.179,33.737638,-118.104799,0.30,-1.00,0.00,3.60,-7.10,-45.20,0,1,0,53,100,-7580,1868,15179,3071.50,11,WP,1,0,0,0,0,0,0,1654735215513,3819,3822,3815,3800,0,0,27,,,,,,,0,0,0,-36.00,-71.00,-452.00,124.00,0.00,-566.00,14,19.00,10.44,40.93,3.00,-10.00,0.00,0,,,100,100,0,2,0,0,0,1,0,,,,,0.0,0.0,0.0,0.0,0.0,0.0,0
33.737670,-118.104822,1.90,2.40,0.92,4.19,1.90,1.90,2.27,4.19,8203,2022-06-09 00:40:15.613,2022-06-08 17:40:15.613,18,0,0,15.179,33.737638,-118.104799,0.20,-0.90,0.00,2.60,-7.00,-45.20,0,1,0,53,100,-7580,1868,15179,3071.50,11,WP,1,0,0,0,0,0,0,1654735215612,3819,3822,3815,3800,0,0,27,,,,,,,0,0,0,-26.00,-70.00,-452.00,113.00,0.00,-566.00,14,19.00,9.22,41.85,2.00,-9.00,0.00,0,,,100,100,0,2,0,0,0,1,0,,,,,0.0,0.0,0.0,0.0,0.0,0.0,0
33.737671,-118.104823,1.90,2.40,0.92,4.28,1.90,1.90,2.27,4.28,8304,2022-06-09 00:40:15.713,2022-06-08 17:40:15.713,18,0,0,15.164,33.737638,-118.104799,0.20,-0.90,0.00,2.30,-5.60,-45.10,0,1,0,53,100,-7520,1862,15164,3071.50,11,WP,1,0,0,0,0,0,0,1654735215713,3819,3822,3815,3800,0,0,27,,,,,,,0,0,0,-23.00,-56.00,-451.00,110.00,0.00,-566.00,14,19.00,9.22,42.77,2.00,-9.00,0.00,0,,,100,100,0,2,0,0,0,1,0,,,,,0.0,0.0,0.0,0.0,0.0,0.0,0
33.737671,-118.104823,1.90,2.40,0.82,4.36,1.90,1.90,2.27,4.36,8355,2022-06-09 00:40:15.765,2022-06-08 17:40:15.765,18,0,0,15.164,33.737638,-118.104799,0.20,-0.80,0.00,2.10,-5.50,-45.10,0,1,0,53,100,-7520,1862,15164,3071.50,11,WP,1,0,0,0,0,0,0,1654735215764,3819,3822,3815,3800,0,0,27,,,,,,,0,0,0,-21.00,-55.00,-451.00,107.00,0.00,-566.00,14,19.00,8.25,43.64,2.00,-8.00,0.00,0,,,100,100,0,2,0,0,0,1,0,,,,,0.0,0.0,0.0,0.0,0.0,0.0,0
33.737671,-118.104824,1.90,2.40,0.73,4.42,1.90,1.90,2.27,4.42,8456,2022-06-09 00:40:15.865,2022-06-08 17:40:15.865,18,0,0,15.164,33.737638,-118.104799,0.20,-0.70,0.00,2.00,-4.50,-45.10,0,1,0,53,100,-7520,1862,15164,3071.50,11,WP,1,0,0,0,0,0,0,1654735215865,3819,3822,3815,3800,0,0,27,,,,,,,0,0,0,-20.00,-45.00,-451.00,105.00,0.00,-566.00,14,19.00,7.28,44.17,2.00,-7.00,0.00,0,,,100,100,0,2,0,0,0,1,0,,,,,0.0,0.0,0.0,0.0,0.0,0.0,0
33.737672,-118.104826,1.90,2.40,0.73,4.50,1.90,1.90,2.27,4.50,8556,2022-06-09 00:40:15.966,2022-06-08 17:40:15.966,18,0,0,15.164,33.737638,-118.104799,0.20,-0.70,0.00,2.70,-4.70,-45.00,0,1,0,53,100,-7520,1862,15164,3071.50,11,WP,1,0,0,0,0,0,0,1654735215965,3819,3822,3815,3800,0,0,27,,,,,,,0,0,0,-27.00,-47.00,-450.00,110.00,0.00,-566.00,14,19.00,7.28,44.96,2.00,-7.00,0.00,0,,,100,100,0,2,0,0,0,1,0,,,,,0.0,0.0,0.0,0.0,0.0,0.0,0
33.737672,-118.104826,1.90,2.40,0.61,4.57,1.90,1.90,2.27,4.57,8658,2022-06-09 00:40:16.067,2022-06-08 17:40:16.067,18,0,0,15.164,33.737638,-118.104799,0.10,-0.60,0.00,4.00,-4.20,-45.10,0,1,0,53,100,-7520,1862,15164,3071.50,11,WP,1,0,0,0,0,0,0,1654735216067,3819,3822,3815,3800,0,0,27,,,,,,,0,0,0,-40.00,-42.00,-451.00,123.00,0.00,-566.00,14,19.00,6.08,45.71,1.00,-6.00,0.00,0,,,100,100,0,2,0,0,0,1,0,,,,,0.0,0.0,0.0,0.0,0.0,0.0,0
33.737672,-118.104827,1.90,2.40,0.51,4.62,1.90,1.90,2.27,4.62,8755,2022-06-09 00:40:16.165,2022-06-08 17:40:16.165,18,0,0,15.164,33.737638,-118.104799,0.10,-0.50,0.00,4.60,-4.60,-45.20,0,1,0,53,100,-7520,1862,15164,3071.50,11,WP,1,0,0,0,0,0,0,1654735216164,3819,3822,3815,3800,0,0,27,,,,,,,0,0,0,-46.00,-46.00,-452.00,130.00,0.00,-566.00,14,19.00,5.10,46.23,1.00,-5.00,0.00,0,,,100,100,0,2,0,0,0,1,0,,,,,0.0,0.0,0.0,0.0,0.0,0.0,0
33.737672,-118.104828,1.90,2.40,0.41,4.68,1.90,1.90,2.27,4.68,8857,2022-06-09 00:40:16.267,2022-06-08 17:40:16.267,18,0,0,15.164,33.737638,-118.104799,0.10,-0.40,0.00,4.40,-4.00,-45.20,0,1,0,53,100,-7520,1862,15164,3071.50,11,WP,1,0,0,0,0,0,0,1654735216266,3819,3822,3815,3800,0,0,27,,,,,,,0,0,0,-44.00,-40.00,-452.00,129.00,0.00,-566.00,14,19.00,4.12,46.83,1.00,-4.00,0.00,0,,,100,100,0,2,0,0,0,1,0,,,,,0.0,0.0,0.0,0.0,0.0,0.0,0
33.737672,-118.104829,1.90,2.40,0.32,4.71,1.90,1.90,2.27,4.71,8955,2022-06-09 00:40:16.365,2022-06-08 17:40:16.365,18,0,0,15.164,33.737638,-118.104799,0.10,-0.30,0.00,4.40,-4.50,-45.20,0,1,0,53,100,-7520,1862,15164,3071.50,11,WP,1,0,0,0,0,0,0,1654735216364,3819,3822,3815,3800,0,0,27,,,,,,,0,0,0,-44.00,-45.00,-452.00,128.00,0.00,-566.00,14,19.00,3.16,47.13,1.00,-3.00,0.00,0,,,100,100,0,2,0,0,0,1,0,,,,,0.0,0.0,0.0,0.0,0.0,0.0,0
33.737673,-118.104829,1.90,2.40,0.30,4.76,1.90,1.90,2.27,4.76,9105,2022-06-09 00:40:16.515,2022-06-08 17:40:16.515,18,0,0,15.164,33.737638,-118.104799,0.00,-0.30,0.00,6.30,-2.10,-45.30,0,1,0,53,100,-7520,1862,15164,3071.50,11,WP,1,0,0,0,0,0,0,1654735216514,3819,3822,3815,3800,0,0,27,,,,,,,0,0,0,-63.00,-21.00,-453.00,149.00,0.00,-566.00,14,19.00,3.00,47.56,0.00,-3.00,0.00,0,,,100,100,0,2,0,0,0,1,0,,,,,0.0,0.0,0.0,0.0,0.0,0.0,0
33.737673,-118.104829,1.90,2.40,0.10,4.79,1.90,1.90,2.27,4.79,9156,2022-06-09 00:40:16.566,2022-06-08 17:40:16.566,18,0,0,15.164,33.737638,-118.104799,0.00,-0.10,0.00,4.30,-3.30,-45.70,0,1,0,53,100,-7520,1862,15164,3071.50,11,WP,1,0,0,0,0,0,0,1654735216565,3819,3822,3815,3800,0,0,27,,,,,,,0,0,0,-43.00,-33.00,-457.00,132.00,0.00,-566.00,14,19.00,1.00,47.86,0.00,-1.00,0.00,0,,,100,100,0,2,0,0,0,1,0,,,,,0.0,0.0,0.0,0.0,0.0,0.0,0
33.737673,-118.104830,1.90,2.40,0.00,4.81,1.90,1.90,2.27,4.81,9258,2022-06-09 00:40:16.667,2022-06-08 17:40:16.667,18,0,0,15.164,33.737638,-118.104799,0.00,0.00,0.00,2.50,-4.80,-46.00,0,1,0,53,100,-7520,1862,15164,3071.50,11,WP,1,0,0,0,0,0,0,1654735216667,3819,3822,3815,3800,0,0,27,,,,,,,0,0,0,-25.00,-48.00,-460.00,114.00,0.00,-566.00,14,19.00,0.00,48.12,0.00,0.00,0.00,0,,,100,100,0,2,0,0,0,1,0,,,,,0.0,0.0,0.0,0.0,0.0,0.0,0
33.737673,-118.104830,1.90,2.40,0.00,4.80,1.90,1.90,2.27,4.81,9357,2022-06-09 00:40:16.767,2022-06-08 17:40:16.767,18,0,0,15.164,33.737638,-118.104799,0.00,0.00,0.00,2.00,-5.80,-41.50,0,1,0,53,100,-7520,1862,15164,3071.50,11,WP,1,0,0,0,0,0,0,1654735216766,3819,3822,3815,3800,0,0,27,,,,,,,0,0,0,-20.00,-58.00,-415.00,103.00,0.00,-567.00,14,19.00,0.00,47.95,0.00,0.00,0.00,0,,,100,100,0,2,0,0,0,1,0,,,,,0.0,0.0,0.0,0.0,0.0,0.0,0
33.737673,-118.104830,1.90,2.40,0.00,4.81,1.90,1.90,2.27,4.81,9456,2022-06-09 00:40:16.866,2022-06-08 17:40:16.866,18,0,0,15.164,33.737638,-118.104799,0.00,0.00,0.00,1.00,-5.70,-34.20,0,1,0,53,100,-7520,1862,15164,3071.50,11,WP,1,0,0,0,0,0,0,1654735216865,3819,3822,3815,3800,0,0,27,,,,,,,0,0,0,-10.00,-57.00,-342.00,89.00,0.00,-563.00,14,19.00,0.00,48.09,0.00,0.00,0.00,0,,,100,100,0,2,0,0,0,1,0,,,,,0.0,0.0,0.0,0.0,0.0,0.0,0
33.737672,-118.104830,1.90,2.40,0.00,4.80,1.90,1.90,2.27,4.81,9559,2022-06-09 00:40:16.968,2022-06-08 17:40:16.968,18,0,0,15.164,33.737638,-118.104799,0.00,0.00,0.00,0.70,-5.60,-27.50,0,1,0,53,100,-7520,1862,15164,3071.50,11,WP,1,0,0,0,0,0,0,1654735216968,3819,3822,3815,3800,0,0,27,,,,,,,0,0,0,-7.00,-56.00,-275.00,84.00,-3.00,-520.00,14,19.00,0.00,47.96,0.00,0.00,0.00,0,,,100,100,0,2,0,0,0,1,0,,,,,0.0,0.0,0.0,0.0,0.0,0.0,0
33.737673,-118.104830,1.90,2.40,0.00,4.81,1.90,1.90,2.27,4.81,9658,2022-06-09 00:40:17.067,2022-06-08 17:40:17.067,18,0,0,15.164,33.737638,-118.104799,0.00,0.00,0.00,0.60,-5.30,-22.10,0,1,0,53,100,-7520,1862,15164,3071.50,11,WP,1,0,0,0,0,0,0,1654735217067,3819,3822,3815,3800,0,0,27,,,,,,,0,0,0,-6.00,-53.00,-221.00,82.00,-5.00,-448.00,14,19.00,0.00,48.06,0.00,0.00,0.00,0,,,100,100,0,2,0,0,0,1,0,,,,,0.0,0.0,0.0,0.0,0.0,0.0,0
33.737672,-118.104830,1.90,2.40,0.00,4.77,1.90,1.90,2.27,4.81,9757,2022-06-09 00:40:17.166,2022-06-08 17:40:17.166,18,0,0,15.164,33.737638,-118.104799,0.00,0.00,0.00,1.40,-5.30,-17.90,0,1,0,53,100,-7520,1862,15164,3071.50,11,WP,1,0,0,0,0,0,0,1654735217166,3819,3822,3815,3800,0,0,27,,,,,,,0,0,0,-14.00,-53.00,-179.00,90.00,-4.00,-383.00,14,19.00,0.00,47.71,0.00,0.00,0.00,0,,,100,100,0,2,0,0,0,1,0,,,,,0.0,0.0,0.0,0.0,0.0,0.0,0
33.737672,-118.104830,1.90,2.40,0.00,4.78,1.90,1.90,2.27,4.81,9858,2022-06-09 00:40:17.268,2022-06-08 17:40:17.268,18,0,0,15.164,33.737638,-118.104799,0.00,0.00,0.00,2.20,-5.30,-14.40,0,1,0,53,100,-7520,1862,15164,3071.50,11,WP,1,0,0,0,0,0,0,1654735217267,3819,3822,3815,3800,0,0,27,,,,,,,0,0,0,-22.00,-53.00,-144.00,98.00,-3.00,-332.00,14,19.00,0.00,47.81,0.00,0.00,0.00,0,,,100,100,0,2,0,0,0,1,0,,,,,0.0,0.0,0.0,0.0,0.0,0.0,0
33.737672,-118.104830,1.90,2.40,0.00,4.77,1.90,1.90,2.27,4.81,10007,2022-06-09 00:40:17.416,2022-06-08 17:40:17.416,18,0,0,15.164,33.737638,-118.104799,0.00,0.00,0.00,2.90,-4.80,-11.60,0,1,0,53,100,-7520,1862,15164,3071.50,11,WP,1,0,0,0,0,0,0,1654735217416,3819,3822,3815,3800,0,0,27,,,,,,,0,0,0,-29.00,-48.00,-116.00,108.00,-2.00,-291.00,14,19.00,0.00,47.73,0.00,0.00,0.00,0,,,100,100,0,2,0,0,0,1,0,,,,,0.0,0.0,0.0,0.0,0.0,0.0,0
33.737672,-118.104830,2.00,2.40,0.00,4.78,2.00,2.00,2.27,4.81,10088,2022-06-09 00:40:17.497,2022-06-08 17:40:17.497,18,0,0,15.164,33.737638,-118.104799,0.00,0.00,0.00,3.20,-4.20,-9.30,0,1,0,53,100,-7520,1862,15164,3071.50,11,WP,1,0,0,0,0,0,0,1654735217497,3819,3822,3815,3800,0,0,27,,,,,,,0,0,0,-32.00,-42.00,-93.00,112.00,-1.00,-260.00,14,20.00,0.00,47.83,0.00,0.00,0.00,0,,,100,100,0,2,0,0,0,1,0,,,,,0.0,0.0,0.0,0.0,0.0,0.0,0
33.737672,-118.104830,2.00,2.40,0.00,4.78,2.00,2.00,2.27,4.81,10158,2022-06-09 00:40:17.568,2022-06-08 17:40:17.568,18,0,0,15.164,33.737638,-118.104799,0.00,0.00,0.00,3.60,-4.20,-7.60,0,1,0,53,100,-7520,1862,15164,3071.50,11,WP,1,0,0,0,0,0,0,1654735217567,3819,3822,3815,3800,0,0,27,,,,,,,0,0,0,-36.00,-42.00,-76.00,117.00,-1.00,-237.00,14,20.00,0.00,47.77,0.00,0.00,0.00,0,,,100,100,0,2,0,0,0,1,0,,,,,0.0,0.0,0.0,0.0,0.0,0.0,0
33.737672,-118.104830,2.00,2.40,0.00,4.78,2.00,2.00,2.27,4.81,10256,2022-06-09 00:40:17.665,2022-06-08 17:40:17.665,18,0,0,15.133,33.737638,-118.104799,0.00,0.00,0.00,3.90,-4.10,-6.10,0,1,0,53,100,-7968,1858,15133,3071.50,11,WP,1,0,0,0,0,0,0,1654735217665,3819,3822,3815,3800,0,0,27,,,,,,,0,0,0,-39.00,-41.00,-61.00,119.00,-1.00,-219.00,14,20.00,0.00,47.85,0.00,0.00,0.00,0,,,100,100,0,2,0,0,0,1,0,,,,,0.0,0.0,0.0,0.0,0.0,0.0,0
33.737672,-118.104830,2.00,2.50,0.00,4.78,2.00,2.00,2.27,4.81,10358,2022-06-09 00:40:17.767,2022-06-08 17:40:17.768,18,0,0,15.133,33.737638,-118.104799,0.00,0.00,0.00,4.50,-3.60,-5.00,0,1,0,53,100,-7968,1858,15133,3071.50,11,WP,1,0,0,0,0,0,0,1654735217767,3819,3822,3815,3800,0,0,27,,,,,,,0,0,0,-45.00,-36.00,-50.00,126.00,0.00,-203.00,14,20.00,0.00,47.84,0.00,0.00,0.00,0,,,100,100,0,2,0,0,0,1,0,,,,,0.0,0.0,0.0,0.0,0.0,0.0,0
33.737672,-118.104830,2.00,2.50,0.00,4.79,2.00,2.00,2.27,4.81,10458,2022-06-09 00:40:17.868,2022-06-08 17:40:17.868,18,0,0,15.133,33.737638,-118.104799,0.00,0.00,0.00,4.90,-3.90,-3.20,0,1,0,53,100,-7968,1858,15133,3071.50,11,WP,1,0,0,0,0,0,0,1654735217867,3819,3822,3815,3800,0,0,27,,,,,,,0,0,0,-49.00,-39.00,-32.00,130.00,0.00,-192.00,14,20.00,0.00,47.90,0.00,0.00,0.00,0,,,100,100,0,2,0,0,0,1,0,,,,,0.0,0.0,0.0,0.0,0.0,0.0,0
33.737672,-118.104830,2.00,2.50,0.00,4.77,2.00,2.00,2.27,4.81,10607,2022-06-09 00:40:18.017,2022-06-08 17:40:18.017,18,0,0,15.133,33.737638,-118.104799,0.00,0.00,0.00,4.90,-3.70,-1.00,0,1,0,53,100,-7968,1858,15133,3071.50,11,WP,1,0,0,0,0,0,0,1654735218016,3819,3822,3815,3800,0,0,27,,,,,,,0,0,0,-49.00,-37.00,-10.00,130.00,0.00,-180.00,14,20.00,0.00,47.74,0.00,0.00,0.00,0,,,100,100,0,2,0,0,0,1,0,,,,,0.0,0.0,0.0,0.0,0.0,0.0,0
33.737672,-118.104830,2.00,2.50,0.00,4.77,2.00,2.00,2.27,4.81,10657,2022-06-09 00:40:18.067,2022-06-08 17:40:18.067,18,0,0,15.133,33.737638,-118.104799,0.00,0.00,0.00,4.60,-3.70,0.70,0,1,0,53,100,-7968,1858,15133,3071.50,11,WP,1,0,0,0,0,0,0,1654735218066,3819,3822,3815,3800,0,0,27,,,,,,,0,0,0,-46.00,-37.00,7.00,128.00,0.00,-160.00,14,20.00,0.00,47.74,0.00,0.00,0.00,0,,,100,100,0,2,0,0,0,1,0,,,,,0.0,0.0,0.0,0.0,0.0,0.0,0
33.737672,-118.104830,2.00,2.50,0.00,4.77,2.00,2.00,2.27,4.81,10806,2022-06-09 00:40:18.215,2022-06-08 17:40:18.215,18,0,0,15.133,33.737638,-118.104799,0.00,0.00,0.00,4.60,-3.30,2.00,0,1,0,53,100,-7968,1858,15133,3071.50,11,WP,1,0,0,0,0,0,0,1654735218215,3819,3822,3815,3800,0,0,27,,,,,,,0,0,0,-46.00,-33.00,20.00,128.00,0.00,-140.00,14,20.00,0.00,47.68,0.00,0.00,0.00,0,,,100,100,0,2,0,0,0,1,0,,,,,0.0,0.0,0.0,0.0,0.0,0.0,0
33.737672,-118.104830,2.00,2.50,0.00,4.77,2.00,2.00,2.27,4.81,10856,2022-06-09 00:40:18.266,2022-06-08 17:40:18.266,18,0,0,15.133,33.737638,-118.104799,0.00,0.00,0.00,4.50,-3.20,2.80,0,1,0,53,100,-7968,1858,15133,3071.50,11,WP,1,0,0,0,0,0,0,1654735218265,3819,3822,3815,3800,0,0,27,,,,,,,0,0,0,-45.00,-32.00,28.00,128.00,0.00,-125.00,14,20.00,0.00,47.66,0.00,0.00,0.00,0,,,100,100,0,2,0,0,0,1,0,,,,,0.0,0.0,0.0,0.0,0.0,0.0,0
33.737672,-118.104830,2.00,2.50,0.00,4.77,2.00,2.00,2.27,4.81,11006,2022-06-09 00:40:18.415,2022-06-08 17:40:18.415,18,0,0,15.133,33.737638,-118.104799,0.00,0.00,0.00,4.70,-3.40,3.40,0,1,0,53,100,-7968,1858,15133,3071.50,11,WP,1,0,0,0,0,0,0,1654735218415,3819,3822,3815,3800,0,0,27,,,,,,,0,0,0,-47.00,-34.00,34.00,129.00,0.00,-115.00,14,20.00,0.00,47.68,0.00,0.00,0.00,0,,,100,100,0,2,0,0,0,1,0,,,,,0.0,0.0,0.0,0.0,0.0,0.0,0
33.737672,-118.104830,2.00,2.50,0.00,4.76,2.00,2.00,2.27,4.81,11056,2022-06-09 00:40:18.466,2022-06-08 17:40:18.466,18,0,0,15.133,33.737638,-118.104799,0.00,0.00,0.00,4.80,-3.90,3.70,0,1,0,53,100,-7968,1858,15133,3071.50,11,WP,1,0,0,0,0,0,0,1654735218465,3819,3822,3815,3800,0,0,27,,,,,,,0,0,0,-48.00,-39.00,37.00,130.00,0.00,-108.00,14,20.00,0.00,47.64,0.00,0.00,0.00,0,,,100,100,0,2,0,0,0,1,0,,,,,0.0,0.0,0.0,0.0,0.0,0.0,0
33.737672,-118.104830,2.00,2.50,0.00,4.76,2.00,2.00,2.27,4.81,11158,2022-06-09 00:40:18.567,2022-06-08 17:40:18.567,18,0,0,15.133,33.737638,-118.104799,0.00,0.00,0.00,4.80,-3.80,4.00,0,1,0,53,100,-7968,1858,15133,3071.50,11,WP,1,0,0,0,0,0,0,1654735218567,3819,3822,3815,3800,0,0,27,,,,,,,0,0,0,-48.00,-38.00,40.00,130.00,0.00,-103.00,14,20.00,0.00,47.56,0.00,0.00,0.00,0,,,100,100,0,2,0,0,0,1,0,,,,,0.0,0.0,0.0,0.0,0.0,0.0,0
33.737672,-118.104830,2.00,2.50,0.00,4.75,2.00,2.00,2.27,4.81,11256,2022-06-09 00:40:18.665,2022-06-08 17:40:18.665,18,0,0,15.133,33.737638,-118.104799,0.00,0.00,0.00,4.70,-3.60,4.40,0,1,0,53,100,-7968,1858,15133,3071.50,11,WP,1,0,0,0,0,0,0,1654735218665,3819,3822,3815,3800,0,0,27,,,,,,,0,0,0,-47.00,-36.00,44.00,129.00,0.00,-98.00,14,20.00,0.00,47.51,0.00,0.00,0.00,0,,,100,100,0,2,0,0,0,1,0,,,,,0.0,0.0,0.0,0.0,0.0,0.0,0
33.737672,-118.104829,2.00,2.50,0.00,4.75,2.00,2.00,2.27,4.81,11357,2022-06-09 00:40:18.766,2022-06-08 17:40:18.766,18,0,0,15.133,33.737638,-118.104799,0.00,0.00,0.00,4.50,-3.50,4.70,0,1,0,53,100,-7968,1858,15133,3071.50,11,WP,1,0,0,0,0,0,0,1654735218766,3790,3795,3788,3773,0,0,27,,,,,,,0,0,0,-45.00,-35.00,47.00,127.00,0.00,-94.00,14,20.00,0.00,47.52,0.00,0.00,0.00,0,,,100,100,0,2,0,0,0,1,0,,,,,0.0,0.0,0.0,0.0,0.0,0.0,0
33.737672,-118.104829,2.00,2.50,0.00,4.75,2.00,2.00,2.27,4.81,11456,2022-06-09 00:40:18.865,2022-06-08 17:40:18.865,18,0,0,15.133,33.737638,-118.104799,0.00,0.00,0.00,4.30,-3.40,4.70,0,1,0,53,100,-7968,1858,15133,3071.50,11,WP,1,0,0,0,0,0,0,1654735218865,3790,3795,3788,3773,0,0,27,,,,,,,0,0,0,-43.00,-34.00,47.00,125.00,0.00,-91.00,14,20.00,0.00,47.45,0.00,0.00,0.00,0,,,100,100,0,2,0,0,0,1,0,,,,,0.0,0.0,0.0,0.0,0.0,0.0,0
33.737672,-118.104829,2.00,2.50,0.00,4.74,2.00,2.00,2.27,4.81,11556,2022-06-09 00:40:18.966,2022-06-08 17:40:18.966,18,0,0,15.133,33.737638,-118.104799,0.00,0.00,0.00,4.10,-4.00,4.70,0,1,0,53,100,-7968,1858,15133,3071.50,11,WP,1,0,0,0,0,0,0,1654735218965,3790,3795,3788,3773,0,0,27,,,,,,,0,0,0,-41.00,-40.00,47.00,122.00,0.00,-88.00,14,20.00,0.00,47.43,0.00,0.00,0.00,0,,,100,100,0,2,0,0,0,1,0,,,,,0.0,0.0,0.0,0.0,0.0,0.0,0
33.737672,-118.104829,2.00,2.50,0.00,4.74,2.00,2.00,2.27,4.81,11657,2022-06-09 00:40:19.066,2022-06-08 17:40:19.067,18,0,0,15.133,33.737638,-118.104799,0.00,0.00,0.00,4.40,-4.30,4.80,0,1,0,53,100,-7968,1858,15133,3071.50,11,WP,1,0,0,0,0,0,0,1654735219066,3790,3795,3788,3773,0,0,27,,,,,,,0,0,0,-44.00,-43.00,48.00,125.00,0.00,-86.00,14,20.00,0.00,47.36,0.00,0.00,0.00,0,,,100,100,0,2,0,0,0,1,0,,,,,0.0,0.0,0.0,0.0,0.0,0.0,0
33.737672,-118.104829,2.00,2.50,0.00,4.72,2.00,2.00,2.27,4.81,11756,2022-06-09 00:40:19.166,2022-06-08 17:40:19.166,18,0,0,15.133,33.737638,-118.104799,0.00,0.00,0.00,5.00,-4.50,4.80,0,1,0,53,100,-7968,1858,15133,3071.50,11,WP,1,0,0,0,0,0,0,1654735219165,3790,3795,3788,3773,0,0,27,,,,,,,0,0,0,-50.00,-45.00,48.00,130.00,0.00,-84.00,14,20.00,0.00,47.18,0.00,0.00,0.00,0,,,100,100,0,2,0,0,0,1,0,,,,,0.0,0.0,0.0,0.0,0.0,0.0,0
33.737672,-118.104829,2.00,2.50,0.00,4.71,2.00,2.00,2.27,4.81,11856,2022-06-09 00:40:19.266,2022-06-08 17:40:19.266,18,0,0,15.133,33.737638,-118.104799,0.00,0.00,0.00,5.30,-4.70,4.80,0,1,0,53,100,-7968,1858,15133,3071.50,11,WP,1,0,0,0,0,0,0,1654735219265,3790,3795,3788,3773,0,0,27,,,,,,,0,0,0,-53.00,-47.00,48.00,134.00,0.00,-82.00,14,20.00,0.00,47.12,0.00,0.00,0.00,0,,,100,100,0,2,0,0,0,1,0,,,,,0.0,0.0,0.0,0.0,0.0,0.0,0
33.737672,-118.104829,2.00,2.50,0.00,4.71,2.00,2.00,2.27,4.81,11957,2022-06-09 00:40:19.366,2022-06-08 17:40:19.366,18,0,0,15.133,33.737638,-118.104799,0.00,0.00,0.00,5.30,-4.60,4.90,0,1,0,53,100,-7968,1858,15133,3071.50,11,WP,1,0,0,0,0,0,0,1654735219366,3790,3795,3788,3773,0,0,27,,,,,,,0,0,0,-53.00,-46.00,49.00,135.00,0.00,-80.00,14,20.00,0.00,47.13,0.00,0.00,0.00,0,,,100,100,0,2,0,0,0,1,0,,,,,0.0,0.0,0.0,0.0,0.0,0.0,0
33.737672,-118.104829,2.00,2.50,0.00,4.71,2.00,2.00,2.27,4.81,12105,2022-06-09 00:40:19.515,2022-06-08 17:40:19.515,18,0,0,15.133,33.737638,-118.104799,0.00,0.00,0.00,5.20,-4.80,4.80,0,1,0,53,100,-7968,1858,15133,3071.50,11,WP,1,0,0,0,0,0,0,1654735219514,3790,3795,3788,3773,0,0,27,,,,,,,0,0,0,-52.00,-48.00,48.00,133.00,0.00,-79.00,14,20.00,0.00,47.07,0.00,0.00,0.00,0,,,100,100,0,2,0,0,0,1,0,,,,,0.0,0.0,0.0,0.0,0.0,0.0,0
33.737672,-118.104828,2.00,2.50,0.00,4.71,2.00,2.00,2.27,4.81,12156,2022-06-09 00:40:19.565,2022-06-08 17:40:19.565,18,0,0,15.133,33.737638,-118.104799,0.00,0.00,0.00,5.50,-5.10,4.80,0,1,0,53,100,-7968,1858,15133,3071.50,11,WP,1,0,0,0,0,0,0,1654735219565,3790,3795,3788,3773,0,0,27,,,,,,,0,0,0,-55.00,-51.00,48.00,136.00,0.00,-78.00,14,20.00,0.00,47.06,0.00,0.00,0.00,0,,,100,100,0,2,0,0,0,1,0,,,,,0.0,0.0,0.0,0.0,0.0,0.0,0
33.737672,-118.104828,2.00,2.50,0.00,4.70,2.00,2.00,2.27,4.81,12256,2022-06-09 00:40:19.665,2022-06-08 17:40:19.665,18,0,0,15.151,33.737638,-118.104799,0.00,0.00,0.00,5.40,-5.20,4.90,0,1,0,53,100,-7291,1854,15151,3071.50,11,WP,1,0,0,0,0,0,0,1654735219665,3790,3795,3788,3773,0,0,27,,,,,,,0,0,0,-54.00,-52.00,49.00,136.00,0.00,-77.00,14,20.00,0.00,47.01,0.00,0.00,0.00,0,,,100,100,0,2,0,0,0,1,0,,,,,0.0,0.0,0.0,0.0,0.0,0.0,0
33.737672,-118.104828,2.00,2.50,0.00,4.69,2.00,2.00,2.27,4.81,12357,2022-06-09 00:40:19.767,2022-06-08 17:40:19.767,18,0,0,15.151,33.737638,-118.104799,0.00,0.00,0.00,5.60,-5.20,4.80,0,1,0,53,100,-7291,1854,15151,3071.50,11,WP,1,0,0,0,0,0,0,1654735219766,3790,3795,3788,3773,0,0,27,,,,,,,0,0,0,-56.00,-52.00,48.00,137.00,0.00,-76.00,14,20.00,0.00,46.89,0.00,0.00,0.00,0,,,100,100,0,2,0,0,0,1,0,,,,,0.0,0.0,0.0,0.0,0.0,0.0,0
33.737672,-118.104828,2.00,2.50,0.00,4.68,2.00,2.00,2.27,4.81,12456,2022-06-09 00:40:19.865,2022-06-08 17:40:19.865,18,0,0,15.151,33.737638,-118.104799,0.00,0.00,0.00,5.60,-5.00,4.80,0,1,0,53,100,-7291,1854,15151,3071.50,11,WP,1,0,0,0,0,0,0,1654735219865,3790,3795,3788,3773,0,0,27,,,,,,,0,0,0,-56.00,-50.00,48.00,138.00,0.00,-76.00,14,20.00,0.00,46.84,0.00,0.00,0.00,0,,,100,100,0,2,0,0,0,1,0,,,,,0.0,0.0,0.0,0.0,0.0,0.0,0
33.737672,-118.104828,2.00,2.50,0.00,4.68,2.00,2.00,2.27,4.81,12557,2022-06-09 00:40:19.967,2022-06-08 17:40:19.967,18,0,0,15.151,33.737638,-118.104799,0.00,0.00,0.00,5.30,-5.20,4.70,0,1,0,53,100,-7291,1854,15151,3071.50,11,WP,1,0,0,0,0,0,0,1654735219966,3790,3795,3788,3773,0,0,27,,,,,,,0,0,0,-53.00,-52.00,47.00,135.00,0.00,-75.00,14,20.00,0.00,46.79,0.00,0.00,0.00,0,,,100,100,0,2,0,0,0,1,0,,,,,0.0,0.0,0.0,0.0,0.0,0.0,0
33.737672,-118.104828,2.00,2.50,0.00,4.67,2.00,2.00,2.27,4.81,12658,2022-06-09 00:40:20.067,2022-06-08 17:40:20.067,18,0,0,15.151,33.737638,-118.104799,0.00,0.00,0.00,5.50,-5.60,4.60,0,1,0,53,100,-7291,1854,15151,3071.50,11,WP,1,0,0,0,0,0,0,1654735220067,3790,3795,3788,3773,0,0,27,,,,,,,0,0,0,-55.00,-56.00,46.00,135.00,0.00,-75.00,14,20.00,0.00,46.74,0.00,0.00,0.00,0,,,100,100,0,2,0,0,0,1,0,,,,,0.0,0.0,0.0,0.0,0.0,0.0,0
33.737672,-118.104828,2.00,2.50,0.00,4.67,2.00,2.00,2.27,4.81,12758,2022-06-09 00:40:20.168,2022-06-08 17:40:20.168,18,0,0,15.151,33.737638,-118.104799,0.00,0.00,0.00,5.80,-5.50,4.60,0,1,0,53,100,-7291,1854,15151,3071.50,11,WP,1,0,0,0,0,0,0,1654735220167,3790,3795,3788,3773,0,0,27,,,,,,,0,0,0,-58.00,-55.00,46.00,140.00,0.00,-74.00,14,20.00,0.00,46.68,0.00,0.00,0.00,0,,,100,100,0,2,0,0,0,1,0,,,,,0.0,0.0,0.0,0.0,0.0,0.0,0
33.737672,-118.104828,2.00,2.50,0.00,4.66,2.00,2.00,2.27,4.81,12858,2022-06-09 00:40:20.268,2022-06-08 17:40:20.268,18,0,0,15.151,33.737638,-118.104799,0.00,0.00,0.00,5.60,-5.50,4.40,0,1,0,53,100,-7291,1854,15151,3071.50,11,WP,1,0,0,0,0,0,0,1654735220267,3790,3795,3788,3773,0,0,27,,,,,,,0,0,0,-56.00,-55.00,44.00,139.00,0.00,-74.00,14,20.00,0.00,46.62,0.00,0.00,0.00,0,,,100,100,0,2,0,0,0,1,0,,,,,0.0,0.0,0.0,0.0,0.0,0.0,0
33.737672,-118.104828,2.00,2.50,0.00,4.66,2.00,2.00,2.27,4.81,12958,2022-06-09 00:40:20.367,2022-06-08 17:40:20.367,18,0,0,15.151,33.737638,-118.104799,0.00,0.00,0.00,5.00,-5.40,4.40,0,1,0,53,100,-7291,1854,15151,3071.50,11,WP,1,0,0,0,0,0,0,1654735220367,3790,3795,3788,3773,0,0,27,,,,,,,0,0,0,-50.00,-54.00,44.00,133.00,0.00,-74.00,14,20.00,0.00,46.55,0.00,0.00,0.00,0,,,100,100,0,2,0,0,0,1,0,,,,,0.0,0.0,0.0,0.0,0.0,0.0,0
33.737672,-118.104828,2.00,2.50,0.00,4.65,2.00,2.00,2.27,4.81,13057,2022-06-09 00:40:20.467,2022-06-08 17:40:20.467,18,0,0,15.151,33.737638,-118.104799,0.00,0.00,0.00,4.40,-5.40,4.50,0,1,0,53,100,-7291,1854,15151,3071.50,11,WP,1,0,0,0,0,0,0,1654735220466,3790,3795,3788,3773,0,0,27,,,,,,,0,0,0,-44.00,-54.00,45.00,127.00,0.00,-74.00,14,20.00,0.00,46.47,0.00,0.00,0.00,0,,,100,100,0,2,0,0,0,1,0,,,,,0.0,0.0,0.0,0.0,0.0,0.0,0
33.737672,-118.104828,2.00,2.50,0.00,4.65,2.00,2.00,2.27,4.81,13157,2022-06-09 00:40:20.567,2022-06-08 17:40:20.567,18,0,0,15.151,33.737638,-118.104799,0.00,0.00,0.00,3.60,-5.60,4.60,0,1,0,53,100,-7291,1854,15151,3071.50,11,WP,1,0,0,0,0,0,0,1654735220566,3790,3795,3788,3773,0,0,27,,,,,,,0,0,0,-36.00,-56.00,46.00,118.00,0.00,-74.00,14,20.00,0.00,46.49,0.00,0.00,0.00,0,,,100,100,0,2,0,0,0,1,0,,,,,0.0,0.0,0.0,0.0,0.0,0.0,0
33.737672,-118.104828,2.00,2.50,0.00,4.64,2.00,2.00,2.27,4.81,13258,2022-06-09 00:40:20.668,2022-06-08 17:40:20.668,18,0,0,15.151,33.737638,-118.104799,0.00,0.00,0.00,3.20,-5.80,4.80,0,1,0,53,100,-7291,1854,15151,3071.50,11,WP,1,0,0,0,0,0,0,1654735220667,3790,3795,3788,3773,0,0,27,,,,,,,0,0,0,-32.00,-58.00,48.00,113.00,0.00,-74.00,14,20.00,0.00,46.43,0.00,0.00,0.00,0,,,100,100,0,2,0,0,0,1,0,,,,,0.0,0.0,0.0,0.0,0.0,0.0,0
33.737672,-118.104828,2.00,2.50,0.00,4.64,2.00,2.00,2.27,4.81,13357,2022-06-09 00:40:20.767,2022-06-08 17:40:20.767,18,0,0,15.151,33.737638,-118.104799,0.00,0.00,0.00,3.90,-5.80,4.60,0,1,0,53,100,-7291,1854,15151,3071.50,11,WP,1,0,0,0,0,0,0,1654735220766,3790,3795,3788,3773,0,0,27,,,,,,,0,0,0,-39.00,-58.00,46.00,119.00,0.00,-74.00,14,20.00,0.00,46.38,0.00,0.00,0.00,0,,,100,100,0,2,0,0,0,1,0,,,,,0.0,0.0,0.0,0.0,0.0,0.0,0
33.737672,-118.104828,2.00,2.50,0.00,4.64,2.00,2.00,2.27,4.81,13459,2022-06-09 00:40:20.868,2022-06-08 17:40:20.868,18,0,0,15.151,33.737638,-118.104799,0.00,0.00,0.00,4.40,-5.20,4.50,0,1,0,53,100,-7291,1854,15151,3071.50,11,WP,1,0,0,0,0,0,0,1654735220868,3790,3795,3788,3773,0,0,27,,,,,,,0,0,0,-44.00,-52.00,45.00,125.00,0.00,-73.00,14,20.00,0.00,46.36,0.00,0.00,0.00,0,,,100,100,0,2,0,0,0,1,0,,,,,0.0,0.0,0.0,0.0,0.0,0.0,0
