latitude,longitude,altitude(m),ultrasonicHeight(m),speed(mps),distance(m),max_altitude(m),max_ascent(m),max_speed(mps),max_distance(m),time(millisecond),datetime(utc),datetime(local),satellites,pressure(Pa),temperature(F),voltage(v),home_latitude,home_longitude,velocityX(mps),velocityY(mps),velocityZ(mps),pitch(deg),roll(deg),yaw(deg),powerlevel,isflying,istakingphoto,remainPowerPercent,remainLifePercent,currentCurrent,currentElectricity,currentVoltage,batteryTemperature,dischargeCount,flightmode,isMotorsOn,isTakingVideo,Rc_elevator,Rc_aileron,Rc_throttle,Rc_rudder,Rc_gyro,timestamp,Battery_Cell1,Battery_Cell2,Battery_Cell3,Battery_Cell4,Battery_Cell5,Battery_Cell6,Dronetype,AppVersion,Planename,FlyControllerSerialNumber,RemoteSerialNumber,BatterySerialNumber,CENTER_BATTERY.productDate,CENTER_BATTERY.serialNo,CENTER_BATTERY.fullCapacity,CENTER_BATTERY.productDateRaw,pitchRaw,rollRaw,yawRaw,gimbalPitchRaw,gimbalRollRaw,gimbalYawRaw,flyState,altitudeRaw,speedRaw,distanceRaw,velocityXRaw,velocityYRaw,velocityZRaw,data_reuse,App_Tip,App_Warning,downlinkSignalQuality,uplinkSignalQuality,transmissionChannel,rcModeSwitch,rcHome,rcPause,rcTransform,rcJoystickMode,appMode,FlyControllerSerialNumber_legacy,RemoteSerialNumber_legacy,BatterySerialNumber_legacy,Battery2SerialNumber,frontAvoidDist,backAvoidDist,rightAvoidDist,leftAvoidDist,upAvoidDist,downAvoidDist,isBrakingToAvoid
33.737625,-118.104810,0.40,0.70,0.57,0.31,0.40,0.40,0.57,0.31,1,2022-06-09 01:01:37.296,2022-06-08 18:01:37.296,16,0,0,16.796,33.737623,-118.104812,0.20,0.20,-0.50,-6.00,-1.90,-124.60,0,1,0,92,100,-4543,3287,16796,3041.50,2,TakeOff,1,0,0,0,0,0,0,1654736497296,4251,4247,4246,4244,0,0,27,Litchi_iOS_2.14.0,Brian-MAVIC 2,163DFCK001S13F,1DUCFB800104PR,0P2AG1J53400UY,,0,3601,0,60.00,-19.00,-1246.00,0.00,0.00,-1269.00,11,4.00,5.74,3.15,2.00,2.00,-5.00,0,,,100,100,0,2,0,0,0,1,0,(null),(null),,,0.0,0.0,0.0,0.0,0.0,0.0,0
33.737626,-118.104810,0.40,0.80,0.57,0.35,0.40,0.40,0.57,0.35,100,2022-06-09 01:01:37.395,2022-06-08 18:01:37.395,16,0,0,16.796,33.737623,-118.104812,0.20,0.20,-0.50,-6.00,-2.00,-124.60,0,1,0,92,100,-4543,3287,16796,3041.50,2,TakeOff,1,0,0,0,0,0,0,1654736497395,4251,4247,4246,4244,0,0,27,,,,,,,0,0,0,60.00,-20.00,-1246.00,0.00,0.00,-1270.00,11,4.00,5.74,3.51,2.00,2.00,-5.00,0,,,100,100,0,2,0,0,0,1,0,,,,,0.0,0.0,0.0,0.0,0.0,0.0,0
33.737626,-118.104810,0.50,0.80,0.57,0.38,0.50,0.50,0.57,0.38,199,2022-06-09 01:01:37.495,2022-06-08 18:01:37.495,16,0,0,16.796,33.737623,-118.104812,0.20,0.20,-0.50,-5.70,-1.90,-124.60,0,1,0,92,100,-4543,3287,16796,3041.50,2,TakeOff,1,0,0,0,0,0,0,1654736497494,4251,4247,4246,4244,0,0,27,,,,,,,0,0,0,57.00,-19.00,-1246.00,0.00,0.00,-1270.00,11,5.00,5.74,3.83,2.00,2.00,-5.00,0,,,100,100,0,2,0,0,0,1,0,,,,,0.0,0.0,0.0,0.0,0.0,0.0,0
33.737626,-118.104810,0.50,0.90,0.55,0.40,0.50,0.50,0.57,0.40,350,2022-06-09 01:01:37.645,2022-06-08 18:01:37.645,16,0,0,16.796,33.737623,-118.104812,0.10,0.20,-0.50,-5.60,-1.50,-124.60,0,1,0,92,100,-4543,3287,16796,3041.50,2,TakeOff,1,0,0,0,0,0,0,1654736497645,4251,4247,4246,4244,0,0,27,,,,,,,0,0,0,56.00,-15.00,-1246.00,0.00,0.00,-1270.00,11,5.00,5.48,4.01,1.00,2.00,-5.00,0,,,100,100,0,2,0,0,0,1,0,,,,,0.0,0.0,0.0,0.0,0.0,0.0,0
33.737626,-118.104809,0.60,0.90,0.55,0.43,0.60,0.60,0.57,0.43,400,2022-06-09 01:01:37.695,2022-06-08 18:01:37.695,16,0,0,16.796,33.737623,-118.104812,0.10,0.20,-0.50,-5.70,-1.10,-124.60,0,1,0,92,100,-4543,3287,16796,3041.50,2,TakeOff,1,0,0,0,0,0,0,1654736497695,4251,4247,4246,4244,0,0,27,,,,,,,0,0,0,57.00,-11.00,-1246.00,0.00,0.00,-1271.00,11,6.00,5.48,4.28,1.00,2.00,-5.00,0,,,100,100,0,2,0,0,0,1,0,,,,,0.0,0.0,0.0,0.0,0.0,0.0,0
33.737626,-118.104809,0.60,1.00,0.55,0.46,0.60,0.60,0.57,0.46,500,2022-06-09 01:01:37.796,2022-06-08 18:01:37.796,16,0,0,16.796,33.737623,-118.104812,0.10,0.20,-0.50,-5.80,-1.10,-124.50,0,1,0,92,100,-4543,3287,16796,3041.50,2,TakeOff,1,0,0,0,0,0,0,1654736497795,4251,4247,4246,4244,0,0,27,,,,,,,0,0,0,58.00,-11.00,-1245.00,0.00,0.00,-1271.00,11,6.00,5.48,4.56,1.00,2.00,-5.00,0,,,100,100,0,2,0,0,0,1,0,,,,,0.0,0.0,0.0,0.0,0.0,0.0,0
33.737626,-118.104809,0.70,1.00,0.55,0.48,0.70,0.70,0.57,0.48,600,2022-06-09 01:01:37.896,2022-06-08 18:01:37.896,16,0,0,16.796,33.737623,-118.104812,0.10,0.20,-0.50,-5.80,-1.00,-124.50,0,1,0,92,100,-4543,3287,16796,3041.50,2,TakeOff,1,0,0,0,0,0,0,1654736497895,4251,4247,4246,4244,0,0,27,,,,,,,0,0,0,58.00,-10.00,-1245.00,0.00,0.00,-1271.00,11,7.00,5.48,4.82,1.00,2.00,-5.00,0,,,100,100,0,2,0,0,0,1,0,,,,,0.0,0.0,0.0,0.0,0.0,0.0,0
33.737626,-118.104809,0.70,1.10,0.46,0.51,0.70,0.70,0.57,0.51,701,2022-06-09 01:01:37.997,2022-06-08 18:01:37.997,16,0,0,16.796,33.737623,-118.104812,0.10,0.20,-0.40,-5.70,-1.00,-124.50,0,1,0,92,100,-4543,3287,16796,3041.50,2,TakeOff,1,0,0,0,0,0,0,1654736497996,4251,4247,4246,4244,0,0,27,,,,,,,0,0,0,57.00,-10.00,-1245.00,0.00,0.00,-1271.00,11,7.00,4.58,5.06,1.00,2.00,-4.00,0,,,100,100,0,2,0,0,0,1,0,,,,,0.0,0.0,0.0,0.0,0.0,0.0,0
33.737627,-118.104808,0.80,1.10,0.42,0.53,0.80,0.80,0.57,0.53,800,2022-06-09 01:01:38.096,2022-06-08 18:01:38.096,16,0,0,16.796,33.737623,-118.104812,0.10,0.10,-0.40,-5.80,-0.70,-124.60,0,1,0,92,100,-4543,3287,16796,3041.50,2,WP,1,0,0,0,0,0,0,1654736498095,4251,4247,4246,4244,0,0,27,,,,,,,0,0,0,58.00,-7.00,-1246.00,0.00,0.00,-1272.00,14,8.00,4.24,5.31,1.00,1.00,-4.00,0,,,100,100,0,2,0,0,0,1,0,,,,,0.0,0.0,0.0,0.0,0.0,0.0,0
33.737627,-118.104808,0.80,1.20,0.42,0.56,0.80,0.80,0.57,0.56,900,2022-06-09 01:01:38.196,2022-06-08 18:01:38.196,16,0,0,16.796,33.737623,-118.104812,0.10,0.10,-0.40,-5.60,-0.50,-124.70,0,1,0,92,100,-4543,3287,16796,3041.50,2,WP,1,0,0,0,0,0,0,1654736498195,4251,4247,4246,4244,0,0,27,,,,,,,0,0,0,56.00,-5.00,-1247.00,0.00,0.00,-1272.00,14,8.00,4.24,5.59,1.00,1.00,-4.00,0,,,100,100,0,2,0,0,0,1,0,,,,,0.0,0.0,0.0,0.0,0.0,0.0,0
33.737627,-118.104808,0.90,1.20,0.52,0.58,0.90,0.90,0.57,0.58,1001,2022-06-09 01:01:38.296,2022-06-08 18:01:38.296,16,0,0,16.796,33.737623,-118.104812,0.10,0.10,-0.50,-5.50,-0.50,-124.60,0,1,0,92,100,-4543,3287,16796,3041.50,2,WP,1,0,0,0,0,0,0,1654736498296,4251,4247,4246,4244,0,0,27,,,,,,,0,0,0,55.00,-5.00,-1246.00,0.00,0.00,-1272.00,14,9.00,5.20,5.84,1.00,1.00,-5.00,0,,,100,100,0,2,0,0,0,1,0,,,,,0.0,0.0,0.0,0.0,0.0,0.0,0
33.737627,-118.104808,0.90,1.30,0.52,0.58,0.90,0.90,0.57,0.58,1101,2022-06-09 01:01:38.397,2022-06-08 18:01:38.397,16,0,0,16.796,33.737623,-118.104812,0.10,0.10,-0.50,-6.50,-0.60,-124.60,0,1,0,92,100,-4543,3287,16796,3041.50,2,WP,1,0,0,0,0,0,0,1654736498396,4251,4247,4246,4244,0,0,27,,,,,,,0,0,0,65.00,-6.00,-1246.00,0.00,0.00,-1273.00,14,9.00,5.20,5.84,1.00,1.00,-5.00,0,,,100,100,0,2,0,0,0,1,0,,,,,0.0,0.0,0.0,0.0,0.0,0.0,0
33.737627,-118.104808,1.00,1.30,0.52,0.60,1.00,1.00,0.57,0.60,1201,2022-06-09 01:01:38.496,2022-06-08 18:01:38.496,16,0,0,16.565,33.737623,-118.104812,0.10,0.10,-0.50,-7.10,-0.90,-124.60,0,1,0,92,100,-7122,3284,16565,3041.50,2,WP,1,0,0,0,0,0,0,1654736498496,4251,4247,4246,4244,0,0,27,,,,,,,0,0,0,71.00,-9.00,-1246.00,0.00,0.00,-1274.00,14,10.00,5.20,6.04,1.00,1.00,-5.00,0,,,100,100,0,2,0,0,0,1,0,,,,,0.0,0.0,0.0,0.0,0.0,0.0,0
33.737627,-118.104808,1.10,1.40,0.51,0.61,1.10,1.10,0.57,0.61,1301,2022-06-09 01:01:38.597,2022-06-08 18:01:38.597,16,0,0,16.565,33.737623,-118.104812,0.00,0.10,-0.50,-7.00,-0.80,-124.60,0,1,0,92,100,-7122,3284,16565,3041.50,2,WP,1,0,0,0,0,0,0,1654736498596,4251,4247,4246,4244,0,0,27,,,,,,,0,0,0,70.00,-8.00,-1246.00,0.00,0.00,-1274.00,14,11.00,5.10,6.15,0.00,1.00,-5.00,0,,,100,100,0,2,0,0,0,1,0,,,,,0.0,0.0,0.0,0.0,0.0,0.0,0
33.737627,-118.104807,1.10,1.40,0.50,0.63,1.10,1.10,0.57,0.63,1401,2022-06-09 01:01:38.697,2022-06-08 18:01:38.697,16,0,0,16.565,33.737623,-118.104812,0.00,0.00,-0.50,-6.30,-0.60,-124.60,0,1,0,92,100,-7122,3284,16565,3041.50,2,WP,1,0,0,0,0,0,0,1654736498696,4251,4247,4246,4244,0,0,27,,,,,,,0,0,0,63.00,-6.00,-1246.00,0.00,0.00,-1275.00,14,11.00,5.00,6.27,0.00,0.00,-5.00,0,,,100,100,0,2,0,0,0,1,0,,,,,0.0,0.0,0.0,0.0,0.0,0.0,0
33.737627,-118.104807,1.20,1.50,0.50,0.63,1.20,1.20,0.57,0.63,1500,2022-06-09 01:01:38.796,2022-06-08 18:01:38.796,16,0,0,16.565,33.737623,-118.104812,0.00,0.00,-0.50,-5.60,-0.20,-124.50,0,1,0,92,100,-7122,3284,16565,3041.50,2,WP,1,0,0,0,0,0,0,1654736498795,4251,4247,4246,4244,0,0,27,,,,,,,0,0,0,56.00,-2.00,-1245.00,0.00,0.00,-1276.00,14,12.00,5.00,6.30,0.00,0.00,-5.00,0,,,100,100,0,2,0,0,0,1,0,,,,,0.0,0.0,0.0,0.0,0.0,0.0,0
33.737627,-118.104807,1.20,1.50,0.50,0.64,1.20,1.20,0.57,0.64,1602,2022-06-09 01:01:38.898,2022-06-08 18:01:38.898,16,0,0,16.565,33.737623,-118.104812,0.00,0.00,-0.50,-5.50,0.10,-124.50,0,1,0,92,100,-7122,3284,16565,3041.50,2,WP,1,0,0,0,0,0,0,1654736498897,4251,4247,4246,4244,0,0,27,,,,,,,0,0,0,55.00,1.00,-1245.00,0.00,0.00,-1276.00,14,12.00,5.00,6.38,0.00,0.00,-5.00,0,,,100,100,0,2,0,0,0,1,0,,,,,0.0,0.0,0.0,0.0,0.0,0.0,0
33.737627,-118.104807,1.30,1.60,0.50,0.64,1.30,1.30,0.57,0.64,1701,2022-06-09 01:01:38.997,2022-06-08 18:01:38.997,16,0,0,16.565,33.737623,-118.104812,0.00,0.00,-0.50,-6.40,0.30,-124.50,0,1,0,92,100,-7122,3284,16565,3041.50,2,WP,1,0,0,0,0,0,0,1654736498996,4251,4247,4246,4244,0,0,27,,,,,,,0,0,0,64.00,3.00,-1245.00,0.00,0.00,-1277.00,14,13.00,5.00,6.37,0.00,0.00,-5.00,0,,,100,100,0,2,0,0,0,1,0,,,,,0.0,0.0,0.0,0.0,0.0,0.0,0
33.737627,-118.104807,1.30,1.60,0.40,0.65,1.30,1.30,0.57,0.65,1802,2022-06-09 01:01:39.098,2022-06-08 18:01:39.098,16,0,0,16.565,33.737623,-118.104812,0.00,0.00,-0.40,-6.90,0.60,-124.50,0,1,0,92,100,-7122,3284,16565,3041.50,2,WP,1,0,0,0,0,0,0,1654736499097,4251,4247,4246,4244,0,0,27,,,,,,,0,0,0,69.00,6.00,-1245.00,0.00,0.00,-1278.00,14,13.00,4.00,6.45,0.00,0.00,-4.00,0,,,100,100,0,2,0,0,0,1,0,,,,,0.0,0.0,0.0,0.0,0.0,0.0,0
33.737627,-118.104807,1.40,1.70,0.40,0.65,1.40,1.40,0.57,0.65,1901,2022-06-09 01:01:39.197,2022-06-08 18:01:39.197,16,0,0,16.565,33.737623,-118.104812,0.00,0.00,-0.40,-7.00,0.20,-124.50,0,1,0,92,100,-7122,3284,16565,3041.50,2,WP,1,0,0,0,0,0,0,1654736499196,4251,4247,4246,4244,0,0,27,,,,,,,0,0,0,70.00,2.00,-1245.00,0.00,0.00,-1279.00,14,14.00,4.00,6.50,0.00,0.00,-4.00,0,,,100,100,0,2,0,0,0,1,0,,,,,0.0,0.0,0.0,0.0,0.0,0.0,0
33.737627,-118.104807,1.40,1.70,0.40,0.65,1.40,1.40,0.57,0.65,2002,2022-06-09 01:01:39.297,2022-06-08 18:01:39.297,16,0,0,16.565,33.737623,-118.104812,0.00,0.00,-0.40,-6.30,-0.60,-124.50,0,1,0,92,100,-7122,3284,16565,3041.50,2,WP,1,0,0,0,0,0,0,1654736499297,4251,4247,4246,4244,0,0,27,,,,,,,0,0,0,63.00,-6.00,-1245.00,0.00,0.00,-1279.00,14,14.00,4.00,6.55,0.00,0.00,-4.00,0,,,100,100,0,2,0,0,0,1,0,,,,,0.0,0.0,0.0,0.0,0.0,0.0,0
33.737627,-118.104807,1.50,1.80,0.50,0.65,1.50,1.50,0.57,0.65,2102,2022-06-09 01:01:39.397,2022-06-08 18:01:39.397,16,0,0,16.565,33.737623,-118.104812,0.00,0.00,-0.50,-6.00,-0.70,-124.50,0,1,0,92,100,-7122,3284,16565,3041.50,2,WP,1,0,0,0,0,0,0,1654736499397,4251,4247,4246,4244,0,0,27,,,,,,,0,0,0,60.00,-7.00,-1245.00,0.00,0.00,-1280.00,14,15.00,5.00,6.45,0.00,0.00,-5.00,0,,,100,100,0,2,0,0,0,1,0,,,,,0.0,0.0,0.0,0.0,0.0,0.0,0
33.737627,-118.104807,1.50,1.80,0.50,0.64,1.50,1.50,0.57,0.65,2202,2022-06-09 01:01:39.498,2022-06-08 18:01:39.498,16,0,0,16.565,33.737623,-118.104812,0.00,0.00,-0.50,-5.80,-0.60,-124.60,0,1,0,92,100,-7122,3284,16565,3041.50,2,WP,1,0,0,0,0,0,0,1654736499497,4251,4247,4246,4244,0,0,27,,,,,,,0,0,0,58.00,-6.00,-1246.00,0.00,0.00,-1280.00,14,15.00,5.00,6.45,0.00,0.00,-5.00,0,,,100,100,0,2,0,0,0,1,0,,,,,0.0,0.0,0.0,0.0,0.0,0.0,0
33.737627,-118.104807,1.60,1.90,0.50,0.64,1.60,1.60,0.57,0.65,2302,2022-06-09 01:01:39.597,2022-06-08 18:01:39.597,16,0,0,16.565,33.737623,-118.104812,0.00,0.00,-0.50,-5.80,-0.80,-124.60,0,1,0,92,100,-7122,3284,16565,3041.50,2,WP,1,0,0,0,0,0,0,1654736499597,4251,4247,4246,4244,0,0,27,,,,,,,0,0,0,58.00,-8.00,-1246.00,0.00,0.00,-1280.00,14,16.00,5.00,6.41,0.00,0.00,-5.00,0,,,100,100,0,2,0,0,0,1,0,,,,,0.0,0.0,0.0,0.0,0.0,0.0,0
33.737627,-118.104807,1.60,2.00,0.50,0.64,1.60,1.60,0.57,0.65,2403,2022-06-09 01:01:39.698,2022-06-08 18:01:39.698,16,0,0,16.565,33.737623,-118.104812,0.00,0.00,-0.50,-5.70,-1.20,-124.60,0,1,0,92,100,-7122,3284,16565,3041.50,2,WP,1,0,0,0,0,0,0,1654736499698,4251,4247,4246,4244,0,0,27,,,,,,,0,0,0,57.00,-12.00,-1246.00,0.00,0.00,-1281.00,14,16.00,5.00,6.40,0.00,0.00,-5.00,0,,,100,100,0,2,0,0,0,1,0,,,,,0.0,0.0,0.0,0.0,0.0,0.0,0
33.737627,-118.104807,1.70,2.00,0.50,0.63,1.70,1.70,0.57,0.65,2501,2022-06-09 01:01:39.797,2022-06-08 18:01:39.797,16,0,0,16.565,33.737623,-118.104812,0.00,0.00,-0.50,-3.70,-1.10,-124.60,0,1,0,92,100,-7122,3284,16565,3041.50,2,WP,1,0,0,0,0,0,0,1654736499796,4251,4247,4246,4244,0,0,27,,,,,,,0,0,0,37.00,-11.00,-1246.00,0.00,0.00,-1281.00,14,17.00,5.00,6.27,0.00,0.00,-5.00,0,,,100,100,0,2,0,0,0,1,0,,,,,0.0,0.0,0.0,0.0,0.0,0.0,0
33.737627,-118.104807,1.70,2.10,0.30,0.63,1.70,1.70,0.57,0.65,2601,2022-06-09 01:01:39.897,2022-06-08 18:01:39.897,16,0,0,16.565,33.737623,-118.104812,0.00,0.00,-0.30,-3.60,-1.30,-124.00,0,1,0,92,100,-7122,3284,16565,3041.50,2,WP,1,0,0,0,0,0,0,1654736499896,4251,4247,4246,4244,0,0,27,,,,,,,0,0,0,36.00,-13.00,-1240.00,0.00,0.00,-1281.00,14,17.00,3.00,6.28,0.00,0.00,-3.00,0,,,100,100,0,2,0,0,0,1,0,,,,,0.0,0.0,0.0,0.0,0.0,0.0,0
33.737627,-118.104807,1.80,2.10,0.10,0.65,1.80,1.80,0.57,0.65,2702,2022-06-09 01:01:39.998,2022-06-08 18:01:39.998,16,0,0,16.565,33.737623,-118.104812,0.00,0.00,-0.10,-3.90,-1.20,-122.90,0,1,0,92,100,-7122,3284,16565,3041.50,2,WP,1,0,0,0,0,0,0,1654736499997,4251,4247,4246,4244,0,0,27,,,,,,,0,0,0,39.00,-12.00,-1229.00,0.00,0.00,-1281.00,14,18.00,1.00,6.50,0.00,0.00,-1.00,0,,,100,100,0,2,0,0,0,1,0,,,,,0.0,0.0,0.0,0.0,0.0,0.0,0
33.737627,-118.104807,1.80,2.10,0.10,0.66,1.80,1.80,0.57,0.66,2802,2022-06-09 01:01:40.097,2022-06-08 18:01:40.097,16,0,0,16.565,33.737623,-118.104812,0.00,0.00,-0.10,-4.20,-1.30,-121.20,0,1,0,92,100,-7122,3284,16565,3041.50,2,WP,1,0,0,0,0,0,0,1654736500097,4251,4247,4246,4244,0,0,27,,,,,,,0,0,0,42.00,-13.00,-1212.00,0.00,0.00,-1281.00,14,18.00,1.00,6.59,0.00,0.00,-1.00,0,,,100,100,0,2,0,0,0,1,0,,,,,0.0,0.0,0.0,0.0,0.0,0.0,0
33.737628,-118.104807,1.80,2.10,0.10,0.68,1.80,1.80,0.57,0.68,2902,2022-06-09 01:01:40.198,2022-06-08 18:01:40.198,16,0,0,16.565,33.737623,-118.104812,0.10,0.00,0.00,-4.50,-1.70,-118.90,0,1,0,92,100,-7122,3284,16565,3041.50,2,WP,1,0,0,0,0,0,0,1654736500197,4251,4247,4246,4244,0,0,27,,,,,,,0,0,0,45.00,-17.00,-1189.00,0.00,0.00,-1276.00,14,18.00,1.00,6.78,1.00,0.00,0.00,0,,,100,100,0,2,0,0,0,1,0,,,,,0.0,0.0,0.0,0.0,0.0,0.0,0
33.737628,-118.104807,1.80,2.10,0.10,0.69,1.80,1.80,0.57,0.69,3003,2022-06-09 01:01:40.298,2022-06-08 18:01:40.298,16,0,0,16.565,33.737623,-118.104812,0.10,0.00,0.00,-4.60,-2.00,-116.10,0,1,0,92,100,-7122,3284,16565,3041.50,2,WP,1,0,0,0,0,0,0,1654736500298,4251,4247,4246,4244,0,0,27,,,,,,,0,0,0,46.00,-20.00,-1161.00,0.00,0.00,-1262.00,14,18.00,1.00,6.91,1.00,0.00,0.00,0,,,100,100,0,2,0,0,0,1,0,,,,,0.0,0.0,0.0,0.0,0.0,0.0,0
33.737628,-118.104807,1.80,2.10,0.10,0.69,1.80,1.80,0.57,0.69,3102,2022-06-09 01:01:40.397,2022-06-08 18:01:40.397,16,0,0,16.565,33.737623,-118.104812,0.10,0.00,0.00,-4.60,-2.40,-112.80,0,1,0,92,100,-7122,3284,16565,3041.50,2,WP,1,0,0,0,0,0,0,1654736500397,4251,4247,4246,4244,0,0,27,,,,,,,0,0,0,46.00,-24.00,-1128.00,0.00,0.00,-1236.00,14,18.00,1.00,6.94,1.00,0.00,0.00,0,,,100,100,0,2,0,0,0,1,0,,,,,0.0,0.0,0.0,0.0,0.0,0.0,0
33.737628,-118.104807,1.80,2.10,0.10,0.71,1.80,1.80,0.57,0.71,3202,2022-06-09 01:01:40.498,2022-06-08 18:01:40.498,16,0,0,16.560,33.737623,-118.104812,0.10,0.00,0.00,-4.90,-2.90,-108.80,0,1,0,92,100,-6768,3282,16560,3041.50,2,WP,1,0,0,0,0,0,0,1654736500497,4251,4247,4246,4244,0,0,27,,,,,,,0,0,0,49.00,-29.00,-1088.00,0.00,0.00,-1202.00,14,18.00,1.00,7.08,1.00,0.00,0.00,0,,,100,100,0,2,0,0,0,1,0,,,,,0.0,0.0,0.0,0.0,0.0,0.0,0
33.737628,-118.104807,1.80,2.10,0.14,0.72,1.80,1.80,0.57,0.72,3303,2022-06-09 01:01:40.598,2022-06-08 18:01:40.598,16,0,0,16.560,33.737623,-118.104812,0.10,0.10,0.00,-5.60,-3.10,-104.20,0,1,0,92,100,-6768,3282,16560,3041.50,2,WP,1,0,0,0,0,0,0,1654736500598,4251,4247,4246,4244,0,0,27,,,,,,,0,0,0,56.00,-31.00,-1042.00,0.00,0.00,-1161.00,14,18.00,1.41,7.21,1.00,1.00,0.00,0,,,100,100,0,2,0,0,0,1,0,,,,,0.0,0.0,0.0,0.0,0.0,0.0,0
33.737628,-118.104807,1.80,2.10,0.10,0.74,1.80,1.80,0.57,0.74,3402,2022-06-09 01:01:40.697,2022-06-08 18:01:40.698,16,0,0,16.560,33.737623,-118.104812,0.10,0.00,0.00,-5.70,-3.50,-99.10,0,1,0,92,100,-6768,3282,16560,3041.50,2,WP,1,0,0,0,0,0,0,1654736500697,4251,4247,4246,4244,0,0,27,,,,,,,0,0,0,57.00,-35.00,-991.00,0.00,0.00,-1113.00,14,18.00,1.00,7.35,1.00,0.00,0.00,0,,,100,100,0,2,0,0,0,1,0,,,,,0.0,0.0,0.0,0.0,0.0,0.0,0
33.737628,-118.104807,1.80,2.10,0.10,0.76,1.80,1.80,0.57,0.76,3503,2022-06-09 01:01:40.798,2022-06-08 18:01:40.798,16,0,0,16.560,33.737623,-118.104812,0.10,0.00,0.00,-5.40,-4.00,-93.50,0,1,0,92,100,-6768,3282,16560,3041.50,2,WP,1,0,0,0,0,0,0,1654736500798,4251,4247,4246,4244,0,0,27,,,,,,,0,0,0,54.00,-40.00,-935.00,0.00,0.00,-1060.00,14,18.00,1.00,7.60,1.00,0.00,0.00,0,,,100,100,0,2,0,0,0,1,0,,,,,0.0,0.0,0.0,0.0,0.0,0.0,0
33.737628,-118.104807,1.80,2.10,0.10,0.77,1.80,1.80,0.57,0.77,3602,2022-06-09 01:01:40.897,2022-06-08 18:01:40.897,16,0,0,16.560,33.737623,-118.104812,0.10,0.00,0.00,-4.90,-4.60,-87.30,0,1,0,92,100,-6768,3282,16560,3041.50,2,WP,1,0,0,0,0,0,0,1654736500897,4251,4247,4246,4244,0,0,27,,,,,,,0,0,0,49.00,-46.00,-873.00,0.00,0.00,-1001.00,14,18.00,1.00,7.72,1.00,0.00,0.00,0,,,100,100,0,2,0,0,0,1,0,,,,,0.0,0.0,0.0,0.0,0.0,0.0,0
33.737628,-118.104807,1.80,2.10,0.00,0.79,1.80,1.80,0.57,0.79,3704,2022-06-09 01:01:41.000,2022-06-08 18:01:41.000,16,0,0,16.560,33.737623,-118.104812,0.00,0.00,0.00,-4.20,-5.00,-80.40,0,1,0,92,100,-6768,3282,16560,3041.50,2,WP,1,0,0,0,0,0,0,1654736500999,4251,4247,4246,4244,0,0,27,,,,,,,0,0,0,42.00,-50.00,-804.00,0.00,0.00,-936.00,14,18.00,0.00,7.88,0.00,0.00,0.00,0,,,100,100,0,2,0,0,0,1,0,,,,,0.0,0.0,0.0,0.0,0.0,0.0,0
33.737628,-118.104807,1.80,2.10,0.00,0.80,1.80,1.80,0.57,0.80,3803,2022-06-09 01:01:41.098,2022-06-08 18:01:41.098,16,0,0,16.560,33.737623,-118.104812,0.00,0.00,0.00,-3.50,-5.30,-73.00,0,1,0,92,100,-6768,3282,16560,3041.50,2,WP,1,0,0,0,0,0,0,1654736501098,4251,4247,4246,4244,0,0,27,,,,,,,0,0,0,35.00,-53.00,-730.00,0.00,0.00,-865.00,14,18.00,0.00,7.98,0.00,0.00,0.00,0,,,100,100,0,2,0,0,0,1,0,,,,,0.0,0.0,0.0,0.0,0.0,0.0,0
33.737629,-118.104806,1.80,2.10,0.10,0.81,1.80,1.80,0.57,0.81,3903,2022-06-09 01:01:41.198,2022-06-08 18:01:41.198,16,0,0,16.560,33.737623,-118.104812,0.10,0.00,0.00,-2.60,-5.50,-65.60,0,1,0,92,100,-6768,3282,16560,3041.50,2,WP,1,0,0,0,0,0,0,1654736501198,4251,4247,4246,4244,0,0,27,,,,,,,0,0,0,26.00,-55.00,-656.00,0.00,0.00,-788.00,14,18.00,1.00,8.14,1.00,0.00,0.00,0,,,100,100,0,2,0,0,0,1,0,,,,,0.0,0.0,0.0,0.0,0.0,0.0,0
33.737629,-118.104806,1.80,2.10,0.10,0.83,1.80,1.80,0.57,0.83,4003,2022-06-09 01:01:41.298,2022-06-08 18:01:41.298,16,0,0,16.560,33.737623,-118.104812,0.10,0.00,0.00,-2.10,-5.70,-57.90,0,1,0,92,100,-6768,3282,16560,3041.50,2,WP,1,0,0,0,0,0,0,1654736501298,4251,4247,4246,4244,0,0,27,,,,,,,0,0,0,21.00,-57.00,-579.00,0.00,0.00,-711.00,14,18.00,1.00,8.26,1.00,0.00,0.00,0,,,100,100,0,2,0,0,0,1,0,,,,,0.0,0.0,0.0,0.0,0.0,0.0,0
33.737629,-118.104806,1.80,2.10,0.10,0.84,1.80,1.80,0.57,0.84,4104,2022-06-09 01:01:41.399,2022-06-08 18:01:41.399,16,0,0,16.560,33.737623,-118.104812,0.10,0.00,0.00,-0.80,-6.10,-50.40,0,1,0,92,100,-6768,3282,16560,3041.50,2,WP,1,0,0,0,0,0,0,1654736501399,4251,4247,4246,4244,0,0,27,,,,,,,0,0,0,8.00,-61.00,-504.00,0.00,0.00,-634.00,14,18.00,1.00,8.40,1.00,0.00,0.00,0,,,100,100,0,2,0,0,0,1,0,,,,,0.0,0.0,0.0,0.0,0.0,0.0,0
33.737629,-118.104806,1.80,2.10,0.10,0.86,1.80,1.80,0.57,0.86,4201,2022-06-09 01:01:41.496,2022-06-08 18:01:41.496,16,0,0,16.560,33.737623,-118.104812,0.10,0.00,0.00,-0.40,-6.80,-42.90,0,1,0,92,100,-6768,3282,16560,3041.50,2,WP,1,0,0,0,0,0,0,1654736501496,4251,4247,4246,4244,0,0,27,,,,,,,0,0,0,4.00,-68.00,-429.00,0.00,0.00,-557.00,14,18.00,1.00,8.57,1.00,0.00,0.00,0,,,100,100,0,2,0,0,0,1,0,,,,,0.0,0.0,0.0,0.0,0.0,0.0,0
33.737629,-118.104806,1.80,2.20,0.10,0.88,1.80,1.80,0.57,0.88,4303,2022-06-09 01:01:41.598,2022-06-08 18:01:41.598,16,0,0,16.560,33.737623,-118.104812,0.10,0.00,0.00,0.20,-7.40,-35.60,0,1,0,92,100,-6768,3282,16560,3041.50,2,WP,1,0,0,0,0,0,0,1654736501598,4251,4247,4246,4244,0,0,27,,,,,,,0,0,0,-2.00,-74.00,-356.00,0.00,0.00,-481.00,14,18.00,1.00,8.85,1.00,0.00,0.00,0,,,100,100,0,2,0,0,0,1,0,,,,,0.0,0.0,0.0,0.0,0.0,0.0,0
33.737629,-118.104806,1.80,2.10,0.10,0.90,1.80,1.80,0.57,0.90,4403,2022-06-09 01:01:41.698,2022-06-08 18:01:41.698,16,0,0,16.560,33.737623,-118.104812,0.10,0.00,0.00,1.10,-7.60,-30.20,0,1,0,92,100,-6768,3282,16560,3041.50,2,WP,1,0,0,0,0,0,0,1654736501698,4251,4247,4246,4244,0,0,27,,,,,,,0,0,0,-11.00,-76.00,-302.00,0.00,0.00,-409.00,14,18.00,1.00,9.04,1.00,0.00,0.00,0,,,100,100,0,2,0,0,0,1,0,,,,,0.0,0.0,0.0,0.0,0.0,0.0,0
33.737630,-118.104806,1.80,2.10,0.10,0.91,1.80,1.80,0.57,0.91,4503,2022-06-09 01:01:41.799,2022-06-08 18:01:41.799,16,0,0,16.560,33.737623,-118.104812,0.10,0.00,0.00,2.20,-7.60,-26.60,0,1,0,92,100,-6768,3282,16560,3041.50,2,WP,1,0,0,0,0,0,0,1654736501798,4251,4247,4246,4244,0,0,27,,,,,,,0,0,0,-22.00,-76.00,-266.00,0.00,0.00,-355.00,14,18.00,1.00,9.15,1.00,0.00,0.00,0,,,100,100,0,2,0,0,0,1,0,,,,,0.0,0.0,0.0,0.0,0.0,0.0,0
33.737630,-118.104806,1.80,2.10,0.10,0.93,1.80,1.80,0.57,0.93,4604,2022-06-09 01:01:41.899,2022-06-08 18:01:41.899,16,0,0,16.560,33.737623,-118.104812,0.10,0.00,0.00,3.10,-7.70,-24.40,0,1,0,92,100,-6768,3282,16560,3041.50,2,WP,1,0,0,0,0,0,0,1654736501899,4251,4247,4246,4244,0,0,27,,,,,,,0,0,0,-31.00,-77.00,-244.00,0.00,0.00,-318.00,14,18.00,1.00,9.32,1.00,0.00,0.00,0,,,100,100,0,2,0,0,0,1,0,,,,,0.0,0.0,0.0,0.0,0.0,0.0,0
33.737630,-118.104806,1.80,2.10,0.10,0.96,1.80,1.80,0.57,0.96,4704,2022-06-09 01:01:41.999,2022-06-08 18:01:41.999,16,0,0,16.560,33.737623,-118.104812,0.10,0.00,0.00,3.90,-7.60,-23.00,0,1,0,92,100,-6768,3282,16560,3041.50,2,WP,1,0,0,0,0,0,0,1654736501999,4251,4247,4246,4244,0,0,27,,,,,,,0,0,0,-39.00,-76.00,-230.00,0.00,0.00,-294.00,14,18.00,1.00,9.56,1.00,0.00,0.00,0,,,100,100,0,2,0,0,0,1,0,,,,,0.0,0.0,0.0,0.0,0.0,0.0,0
33.737630,-118.104806,1.80,2.10,0.10,0.97,1.80,1.80,0.57,0.97,4803,2022-06-09 01:01:42.098,2022-06-08 18:01:42.098,16,0,0,16.560,33.737623,-118.104812,0.10,0.00,0.00,4.10,-7.60,-22.20,0,1,0,92,100,-6768,3282,16560,3041.50,2,WP,1,0,0,0,0,0,0,1654736502098,4251,4247,4246,4244,0,0,27,,,,,,,0,0,0,-41.00,-76.00,-222.00,0.00,0.00,-279.00,14,18.00,1.00,9.70,1.00,0.00,0.00,0,,,100,100,0,2,0,0,0,1,0,,,,,0.0,0.0,0.0,0.0,0.0,0.0,0
33.737630,-118.104806,1.80,2.10,0.00,0.99,1.80,1.80,0.57,0.99,4904,2022-06-09 01:01:42.199,2022-06-08 18:01:42.199,16,0,0,16.560,33.737623,-118.104812,0.00,0.00,0.00,4.00,-7.40,-21.70,0,1,0,92,100,-6768,3282,16560,3041.50,2,WP,1,0,0,0,0,0,0,1654736502199,4251,4247,4246,4244,0,0,27,,,,,,,0,0,0,-40.00,-74.00,-217.00,0.00,0.00,-270.00,14,18.00,0.00,9.89,0.00,0.00,0.00,0,,,100,100,0,2,0,0,0,1,0,,,,,0.0,0.0,0.0,0.0,0.0,0.0,0
33.737630,-118.104806,1.80,2.10,0.00,1.00,1.80,1.80,0.57,1.00,5004,2022-06-09 01:01:42.299,2022-06-08 18:01:42.299,16,0,0,16.560,33.737623,-118.104812,0.00,0.00,0.00,4.00,-7.50,-22.20,0,1,0,92,100,-6768,3282,16560,3041.50,2,WP,1,0,0,0,0,0,0,1654736502299,4251,4247,4246,4244,0,0,27,,,,,,,0,0,0,-40.00,-75.00,-222.00,0.00,0.00,-265.00,14,18.00,0.00,9.98,0.00,0.00,0.00,0,,,100,100,0,2,0,0,0,1,0,,,,,0.0,0.0,0.0,0.0,0.0,0.0,0
33.737630,-118.104806,1.80,2.10,0.00,1.01,1.80,1.80,0.57,1.01,5103,2022-06-09 01:01:42.399,2022-06-08 18:01:42.399,16,0,0,16.560,33.737623,-118.104812,0.00,0.00,0.00,4.00,-7.40,-23.00,0,1,0,92,100,-6768,3282,16560,3041.50,2,WP,1,0,0,0,0,0,0,1654736502398,4251,4247,4246,4244,0,0,27,,,,,,,0,0,0,-40.00,-74.00,-230.00,0.00,0.00,-263.00,14,18.00,0.00,10.11,0.00,0.00,0.00,0,,,100,100,0,2,0,0,0,1,0,,,,,0.0,0.0,0.0,0.0,0.0,0.0,0
33.737630,-118.104806,1.80,2.10,0.00,1.02,1.80,1.80,0.57,1.02,5204,2022-06-09 01:01:42.499,2022-06-08 18:01:42.499,16,0,0,16.523,33.737623,-118.104812,0.00,0.00,0.00,2.50,-6.20,-23.40,0,1,0,92,100,-6670,3277,16523,3041.50,2,WP,1,0,0,0,0,0,0,1654736502499,4251,4247,4246,4244,0,0,27,,,,,,,0,0,0,-25.00,-62.00,-234.00,0.00,0.00,-264.00,14,18.00,0.00,10.17,0.00,0.00,0.00,0,,,100,100,0,2,0,0,0,1,0,,,,,0.0,0.0,0.0,0.0,0.0,0.0,0
33.737630,-118.104806,1.80,2.10,0.00,1.01,1.80,1.80,0.57,1.02,5304,2022-06-09 01:01:42.600,2022-06-08 18:01:42.600,16,0,0,16.523,33.737623,-118.104812,0.00,0.00,0.00,-4.00,-4.90,-22.80,0,1,0,92,100,-6670,3277,16523,3041.50,2,WP,1,0,0,0,0,0,0,1654736502599,4251,4247,4246,4244,0,0,27,,,,,,,0,0,0,40.00,-49.00,-228.00,0.00,0.00,-266.00,14,18.00,0.00,10.11,0.00,0.00,0.00,0,,,100,100,0,2,0,0,0,1,0,,,,,0.0,0.0,0.0,0.0,0.0,0.0,0
33.737630,-118.104805,1.80,2.10,0.10,1.02,1.80,1.80,0.57,1.02,5403,2022-06-09 01:01:42.698,2022-06-08 18:01:42.698,16,0,0,16.523,33.737623,-118.104812,0.10,0.00,0.00,-8.80,-5.80,-22.60,0,1,0,92,100,-6670,3277,16523,3041.50,2,WP,1,0,0,0,0,0,0,1654736502698,4251,4247,4246,4244,0,0,27,,,,,,,0,0,0,88.00,-58.00,-226.00,0.00,0.00,-268.00,14,18.00,1.00,10.23,1.00,0.00,0.00,0,,,100,100,0,2,0,0,0,1,0,,,,,0.0,0.0,0.0,0.0,0.0,0.0,0
33.737631,-118.104805,1.80,2.10,0.30,1.04,1.80,1.80,0.57,1.04,5504,2022-06-09 01:01:42.799,2022-06-08 18:01:42.799,16,0,0,16.523,33.737623,-118.104812,0.30,0.00,0.00,-12.10,-6.80,-22.30,0,1,0,92,100,-6670,3277,16523,3041.50,2,WP,1,0,0,0,0,0,0,1654736502799,4251,4247,4246,4244,0,0,27,,,,,,,0,0,0,121.00,-68.00,-223.00,0.00,0.00,-268.00,14,18.00,3.00,10.38,3.00,0.00,0.00,0,,,100,100,0,2,0,0,0,1,0,,,,,0.0,0.0,0.0,0.0,0.0,0.0,0
33.737631,-118.104806,1.80,2.10,0.51,1.07,1.80,1.80,0.57,1.07,5603,2022-06-09 01:01:42.898,2022-06-08 18:01:42.898,16,0,0,16.523,33.737623,-118.104812,0.50,-0.10,0.00,-14.40,-7.30,-22.10,0,1,0,92,100,-6670,3277,16523,3041.50,2,WP,1,0,0,0,0,0,0,1654736502898,4251,4247,4246,4244,0,0,27,,,,,,,0,0,0,144.00,-73.00,-221.00,0.00,0.00,-269.00,14,18.00,5.10,10.72,5.00,-1.00,0.00,0,,,100,100,0,2,0,0,0,1,0,,,,,0.0,0.0,0.0,0.0,0.0,0.0,0
33.737631,-118.104806,1.80,2.10,0.82,1.10,1.80,1.80,0.82,1.10,5704,2022-06-09 01:01:43.000,2022-06-08 18:01:43.000,16,0,0,16.523,33.737623,-118.104812,0.80,-0.20,0.00,-15.30,-7.90,-22.10,0,1,0,92,100,-6670,3277,16523,3041.50,2,WP,1,0,0,0,0,0,0,1654736502999,4251,4247,4246,4244,0,0,27,,,,,,,0,0,0,153.00,-79.00,-221.00,0.00,0.00,-269.00,14,18.00,8.25,10.97,8.00,-2.00,0.00,0,,,100,100,0,2,0,0,0,1,0,,,,,0.0,4.4,0.0,0.0,0.0,0.0,0
33.737632,-118.104806,1.80,2.10,1.14,1.16,1.80,1.80,1.14,1.16,5803,2022-06-09 01:01:43.099,2022-06-08 18:01:43.099,16,0,0,16.523,33.737623,-118.104812,1.10,-0.30,0.00,-15.90,-7.90,-22.10,0,1,0,92,100,-6670,3277,16523,3041.50,2,WP,1,0,0,0,0,0,0,1654736503098,4251,4247,4246,4244,0,0,27,,,,,,,0,0,0,159.00,-79.00,-221.00,0.00,0.00,-269.00,14,18.00,11.40,11.63,11.00,-3.00,0.00,0,,,100,100,0,2,0,0,0,1,0,,,,,0.0,4.4,0.0,0.0,0.0,0.0,0
33.737633,-118.104806,1.80,2.10,1.36,1.25,1.80,1.80,1.36,1.25,5905,2022-06-09 01:01:43.200,2022-06-08 18:01:43.200,16,0,0,16.523,33.737623,-118.104812,1.30,-0.40,0.00,-15.80,-8.40,-22.10,0,1,0,92,100,-6670,3277,16523,3041.50,2,WP,1,0,0,0,0,0,0,1654736503200,4251,4247,4246,4244,0,0,27,,,,,,,0,0,0,158.00,-84.00,-221.00,0.00,0.00,-269.00,14,18.00,13.60,12.47,13.00,-4.00,0.00,0,,,100,100,0,2,0,0,0,1,0,,,,,0.0,4.4,0.0,0.0,0.0,0.0,0
33.737635,-118.104807,1.80,2.10,1.68,1.36,1.80,1.80,1.68,1.36,6003,2022-06-09 01:01:43.299,2022-06-08 18:01:43.299,16,0,0,16.523,33.737623,-118.104812,1.60,-0.50,0.00,-15.60,-8.70,-22.00,0,1,0,92,100,-6670,3277,16523,3041.50,2,WP,1,0,0,0,0,0,0,1654736503298,4251,4247,4246,4244,0,0,27,,,,,,,0,0,0,156.00,-87.00,-220.00,0.00,0.00,-270.00,14,18.00,16.76,13.61,16.00,-5.00,0.00,0,,,100,100,0,2,0,0,0,1,0,,,,,0.0,4.4,0.0,0.0,0.0,0.0,0
33.737636,-118.104807,1.80,2.20,1.90,1.51,1.80,1.80,1.90,1.51,6103,2022-06-09 01:01:43.399,2022-06-08 18:01:43.399,16,0,0,16.523,33.737623,-118.104812,1.80,-0.60,0.00,-14.30,-8.90,-22.20,0,1,0,92,100,-6670,3277,16523,3041.50,2,WP,1,0,0,0,0,0,0,1654736503398,4251,4247,4246,4244,0,0,27,,,,,,,0,0,0,143.00,-89.00,-222.00,0.00,0.00,-270.00,14,18.00,18.97,15.06,18.00,-6.00,0.00,0,,,100,100,0,2,0,0,0,1,0,,,,,0.0,4.3,0.0,0.0,0.0,0.0,0
33.737638,-118.104808,1.80,2.20,2.15,1.67,1.80,1.80,2.15,1.67,6205,2022-06-09 01:01:43.500,2022-06-08 18:01:43.500,16,0,0,16.523,33.737623,-118.104812,2.00,-0.80,0.00,-12.50,-9.40,-22.30,0,1,0,92,100,-6670,3277,16523,3041.50,2,WP,1,0,0,0,0,0,0,1654736503500,4251,4247,4246,4244,0,0,27,,,,,,,0,0,0,125.00,-94.00,-223.00,0.00,0.00,-270.00,14,18.00,21.54,16.73,20.00,-8.00,0.00,0,,,100,100,0,2,0,0,0,1,0,,,,,0.0,4.3,0.0,0.0,0.0,0.0,0
33.737640,-118.104809,1.80,2.20,2.34,1.89,1.80,1.80,2.34,1.89,6303,2022-06-09 01:01:43.599,2022-06-08 18:01:43.599,16,0,0,16.523,33.737623,-118.104812,2.20,-0.80,0.00,-9.30,-9.40,-22.50,0,1,0,92,100,-6670,3277,16523,3041.50,2,WP,1,0,0,0,0,0,0,1654736503598,4251,4247,4246,4244,0,0,27,,,,,,,0,0,0,93.00,-94.00,-225.00,0.00,0.00,-270.00,14,18.00,23.41,18.89,22.00,-8.00,0.00,0,,,100,100,0,2,0,0,0,1,0,,,,,0.0,4.4,0.0,0.0,0.0,0.0,0
33.737642,-118.104810,1.80,2.20,2.47,2.10,1.80,1.80,2.47,2.10,6405,2022-06-09 01:01:43.701,2022-06-08 18:01:43.701,16,0,0,16.523,33.737623,-118.104812,2.30,-0.90,-0.10,-4.50,-10.10,-23.00,0,1,0,92,100,-6670,3277,16523,3041.50,2,WP,1,0,0,0,0,0,0,1654736503700,4251,4247,4246,4244,0,0,27,,,,,,,0,0,0,45.00,-101.00,-230.00,0.00,0.00,-270.00,14,18.00,24.72,21.01,23.00,-9.00,-1.00,0,,,100,100,0,2,0,0,0,1,0,,,,,0.0,4.4,0.0,0.0,0.0,0.0,0
33.737644,-118.104810,1.80,2.20,2.47,2.34,1.80,1.80,2.47,2.34,6504,2022-06-09 01:01:43.800,2022-06-08 18:01:43.800,16,0,0,16.523,33.737623,-118.104812,2.30,-0.90,-0.10,-0.50,-10.20,-23.30,0,1,0,92,100,-6670,3277,16523,3041.50,2,WP,1,0,0,0,0,0,0,1654736503799,4251,4247,4246,4244,0,0,27,,,,,,,0,0,0,5.00,-102.00,-233.00,0.00,0.00,-270.00,14,18.00,24.72,23.40,23.00,-9.00,-1.00,0,,,100,100,0,2,0,0,0,1,0,,,,,0.0,4.4,0.0,0.0,0.0,0.0,0
33.737646,-118.104811,1.80,2.20,2.51,2.57,1.80,1.80,2.51,2.57,6605,2022-06-09 01:01:43.900,2022-06-08 18:01:43.900,16,0,0,16.523,33.737623,-118.104812,2.30,-1.00,0.00,2.00,-10.60,-23.60,0,1,0,92,100,-6670,3277,16523,3041.50,2,WP,1,0,0,0,0,0,0,1654736503900,4251,4247,4246,4244,0,0,27,,,,,,,0,0,0,-20.00,-106.00,-236.00,0.00,0.00,-270.00,14,18.00,25.08,25.67,23.00,-10.00,0.00,0,,,100,100,0,2,0,0,0,1,0,,,,,0.0,4.4,0.0,0.0,0.0,0.0,0
33.737648,-118.104812,1.90,2.30,2.51,2.81,1.90,1.90,2.51,2.81,6705,2022-06-09 01:01:44.000,2022-06-08 18:01:44.000,16,0,0,16.523,33.737623,-118.104812,2.30,-1.00,0.00,3.80,-10.30,-23.50,0,1,0,92,100,-6670,3277,16523,3041.50,2,WP,1,0,0,0,0,0,0,1654736504000,4251,4247,4246,4244,0,0,27,,,,,,,0,0,0,-38.00,-103.00,-235.00,0.00,0.00,-270.00,14,19.00,25.08,28.08,23.00,-10.00,0.00,0,,,100,100,0,2,0,0,0,1,0,,,,,0.0,5.0,0.0,0.0,0.0,0.0,0
33.737650,-118.104813,1.90,2.30,2.42,3.03,1.90,1.90,2.51,3.03,6804,2022-06-09 01:01:44.100,2022-06-08 18:01:44.100,16,0,0,16.523,33.737623,-118.104812,2.20,-1.00,0.00,4.70,-10.90,-23.60,0,1,0,92,100,-6670,3277,16523,3041.50,2,WP,1,0,0,0,0,0,0,1654736504099,4251,4247,4246,4244,0,0,27,,,,,,,0,0,0,-47.00,-109.00,-236.00,0.00,0.00,-270.00,14,19.00,24.17,30.28,22.00,-10.00,0.00,0,,,100,100,0,2,0,0,0,1,0,,,,,0.0,5.0,0.0,0.0,0.0,0.0,0
33.737653,-118.104813,1.90,2.30,2.33,3.28,1.90,1.90,2.51,3.28,6905,2022-06-09 01:01:44.200,2022-06-08 18:01:44.200,16,0,0,16.523,33.737623,-118.104812,2.10,-1.00,0.00,5.40,-10.70,-23.60,0,1,0,92,100,-6670,3277,16523,3041.50,2,WP,1,0,0,0,0,0,0,1654736504200,4251,4247,4246,4244,0,0,27,,,,,,,0,0,0,-54.00,-107.00,-236.00,0.00,0.00,-270.00,14,19.00,23.26,32.81,21.00,-10.00,0.00,0,,,100,100,0,2,0,0,0,1,0,,,,,0.0,0.0,0.0,0.0,0.0,0.0,0
33.737655,-118.104814,1.90,2.30,2.24,3.49,1.90,1.90,2.51,3.49,7004,2022-06-09 01:01:44.300,2022-06-08 18:01:44.300,16,0,0,16.523,33.737623,-118.104812,2.00,-1.00,0.00,6.30,-10.70,-23.80,0,1,0,92,100,-6670,3277,16523,3041.50,2,WP,1,0,0,0,0,0,0,1654736504299,4251,4247,4246,4244,0,0,27,,,,,,,0,0,0,-63.00,-107.00,-238.00,0.00,0.00,-270.00,14,19.00,22.36,34.87,20.00,-10.00,0.00,0,,,100,100,0,2,0,0,0,1,0,,,,,0.0,0.0,0.0,0.0,0.0,0.0,0
33.737656,-118.104815,1.90,2.30,2.06,3.69,1.90,1.90,2.51,3.69,7104,2022-06-09 01:01:44.399,2022-06-08 18:01:44.399,16,0,0,16.523,33.737623,-118.104812,1.80,-1.00,0.00,6.30,-10.50,-23.60,0,1,0,92,100,-6670,3277,16523,3041.50,2,WP,1,0,0,0,0,0,0,1654736504399,4251,4247,4246,4244,0,0,27,,,,,,,0,0,0,-63.00,-105.00,-236.00,0.00,0.00,-270.00,14,19.00,20.59,36.93,18.00,-10.00,0.00,0,,,100,100,0,2,0,0,0,1,0,,,,,0.0,0.0,0.0,0.0,0.0,0.0,0
33.737658,-118.104816,1.90,2.30,1.97,3.88,1.90,1.90,2.51,3.88,7205,2022-06-09 01:01:44.500,2022-06-08 18:01:44.500,16,0,0,16.449,33.737623,-118.104812,1.70,-1.00,0.00,6.90,-10.50,-23.70,0,1,0,91,100,-7511,3273,16449,3041.50,2,WP,1,0,0,0,0,0,0,1654736504500,4251,4247,4246,4244,0,0,27,,,,,,,0,0,0,-69.00,-105.00,-237.00,0.00,0.00,-270.00,14,19.00,19.72,38.76,17.00,-10.00,0.00,0,,,100,100,0,2,0,0,0,1,0,,,,,0.0,0.0,0.0,0.0,0.0,0.0,0
33.737660,-118.104817,1.90,2.30,1.84,4.07,1.90,1.90,2.51,4.07,7305,2022-06-09 01:01:44.600,2022-06-08 18:01:44.600,16,0,0,16.449,33.737623,-118.104812,1.60,-0.90,0.00,7.70,-9.90,-23.70,0,1,0,91,100,-7511,3273,16449,3041.50,2,WP,1,0,0,0,0,0,0,1654736504600,4251,4247,4246,4244,0,0,27,,,,,,,0,0,0,-77.00,-99.00,-237.00,0.00,0.00,-270.00,14,19.00,18.36,40.68,16.00,-9.00,0.00,0,,,100,100,0,2,0,0,0,1,0,,,,,0.0,0.0,0.0,0.0,0.0,0.0,0
33.737661,-118.104818,1.90,2.40,1.66,4.23,1.90,1.90,2.51,4.23,7405,2022-06-09 01:01:44.700,2022-06-08 18:01:44.700,16,0,0,16.449,33.737623,-118.104812,1.40,-0.90,0.00,8.20,-9.60,-23.80,0,1,0,91,100,-7511,3273,16449,3041.50,2,WP,1,0,0,0,0,0,0,1654736504700,4251,4247,4246,4244,0,0,27,,,,,,,0,0,0,-82.00,-96.00,-238.00,0.00,0.00,-270.00,14,19.00,16.64,42.27,14.00,-9.00,0.00,0,,,100,100,0,2,0,0,0,1,0,,,,,0.0,0.0,0.0,0.0,0.0,0.0,0
33.737662,-118.104819,1.90,2.40,1.58,4.38,1.90,1.90,2.51,4.38,7504,2022-06-09 01:01:44.800,2022-06-08 18:01:44.800,16,0,0,16.449,33.737623,-118.104812,1.30,-0.90,0.00,8.00,-9.00,-23.70,0,1,0,91,100,-7511,3273,16449,3041.50,2,WP,1,0,0,0,0,0,0,1654736504799,4251,4247,4246,4244,0,0,27,,,,,,,0,0,0,-80.00,-90.00,-237.00,0.00,0.00,-270.00,14,19.00,15.81,43.82,13.00,-9.00,0.00,0,,,100,100,0,2,0,0,0,1,0,,,,,0.0,0.0,0.0,0.0,0.0,0.0,0
33.737663,-118.104820,1.90,2.40,1.42,4.51,1.90,1.90,2.51,4.51,7604,2022-06-09 01:01:44.900,2022-06-08 18:01:44.900,16,0,0,16.449,33.737623,-118.104812,1.10,-0.90,0.00,7.60,-8.50,-23.70,0,1,0,91,100,-7511,3273,16449,3041.50,2,WP,1,0,0,0,0,0,0,1654736504899,4251,4247,4246,4244,0,0,27,,,,,,,0,0,0,-76.00,-85.00,-237.00,0.00,0.00,-271.00,14,19.00,14.21,45.15,11.00,-9.00,0.00,0,,,100,100,0,2,0,0,0,1,0,,,,,0.0,0.0,0.0,0.0,0.0,0.0,0
33.737664,-118.104821,1.90,2.40,1.28,4.64,1.90,1.90,2.51,4.64,7705,2022-06-09 01:01:45.000,2022-06-08 18:01:45.000,16,0,0,16.449,33.737623,-118.104812,1.00,-0.80,0.00,6.90,-8.10,-23.60,0,1,0,91,100,-7511,3273,16449,3041.50,2,WP,1,0,0,0,0,0,0,1654736505000,4132,4116,4115,4105,0,0,27,,,,,,,0,0,0,-69.00,-81.00,-236.00,0.00,0.00,-271.00,14,19.00,12.81,46.44,10.00,-8.00,0.00,0,,,100,100,0,2,0,0,0,1,0,,,,,0.0,0.0,0.0,0.0,0.0,0.0,0
33.737665,-118.104821,1.90,2.40,1.20,4.76,1.90,1.90,2.51,4.76,7805,2022-06-09 01:01:45.101,2022-06-08 18:01:45.101,16,0,0,16.449,33.737623,-118.104812,0.90,-0.80,0.00,6.50,-7.40,-23.60,0,1,0,91,100,-7511,3273,16449,3041.50,2,WP,1,0,0,0,0,0,0,1654736505100,4132,4116,4115,4105,0,0,27,,,,,,,0,0,0,-65.00,-74.00,-236.00,0.00,0.00,-271.00,14,19.00,12.04,47.56,9.00,-8.00,0.00,0,,,100,100,0,2,0,0,0,1,0,,,,,0.0,0.0,0.0,0.0,0.0,0.0,0
33.737666,-118.104822,1.90,2.40,1.06,4.87,1.90,1.90,2.51,4.87,7904,2022-06-09 01:01:45.200,2022-06-08 18:01:45.200,16,0,0,16.449,33.737623,-118.104812,0.80,-0.70,0.00,5.80,-7.30,-23.50,0,1,0,91,100,-7511,3273,16449,3041.50,2,WP,1,0,0,0,0,0,0,1654736505199,4132,4116,4115,4105,0,0,27,,,,,,,0,0,0,-58.00,-73.00,-235.00,0.00,0.00,-271.00,14,19.00,10.63,48.67,8.00,-7.00,0.00,0,,,100,100,0,2,0,0,0,1,0,,,,,0.0,0.0,0.0,0.0,0.0,0.0,0
33.737667,-118.104823,1.90,2.40,0.99,4.96,1.90,1.90,2.51,4.96,8005,2022-06-09 01:01:45.300,2022-06-08 18:01:45.300,16,0,0,16.449,33.737623,-118.104812,0.70,-0.70,0.00,5.60,-6.90,-23.60,0,1,0,91,100,-7511,3273,16449,3041.50,2,WP,1,0,0,0,0,0,0,1654736505300,4132,4116,4115,4105,0,0,27,,,,,,,0,0,0,-56.00,-69.00,-236.00,0.00,0.00,-271.00,14,19.00,9.90,49.63,7.00,-7.00,0.00,0,,,100,100,0,2,0,0,0,1,0,,,,,0.0,0.0,0.0,0.0,0.0,0.0,0
33.737668,-118.104824,1.90,2.40,0.85,5.04,1.90,1.90,2.51,5.04,8105,2022-06-09 01:01:45.400,2022-06-08 18:01:45.400,16,0,0,16.449,33.737623,-118.104812,0.60,-0.60,0.00,5.00,-6.80,-23.50,0,1,0,91,100,-7511,3273,16449,3041.50,2,WP,1,0,0,0,0,0,0,1654736505400,4132,4116,4115,4105,0,0,27,,,,,,,0,0,0,-50.00,-68.00,-235.00,0.00,0.00,-271.00,14,19.00,8.49,50.35,6.00,-6.00,0.00,0,,,100,100,0,2,0,0,0,1,0,,,,,0.0,0.0,0.0,0.0,0.0,0.0,0
33.737668,-118.104824,1.90,2.40,0.85,5.12,1.90,1.90,2.51,5.12,8205,2022-06-09 01:01:45.500,2022-06-08 18:01:45.500,16,0,0,16.449,33.737623,-118.104812,0.60,-0.60,0.00,4.00,-6.00,-23.30,0,1,0,91,100,-7511,3273,16449,3041.50,2,WP,1,0,0,0,0,0,0,1654736505500,4132,4116,4115,4105,0,0,27,,,,,,,0,0,0,-40.00,-60.00,-233.00,0.00,0.00,-271.00,14,19.00,8.49,51.17,6.00,-6.00,0.00,0,,,100,100,0,2,0,0,0,1,0,,,,,0.0,0.0,0.0,0.0,0.0,0.0,0
33.737669,-118.104825,1.90,2.40,0.71,5.17,1.90,1.90,2.51,5.17,8306,2022-06-09 01:01:45.601,2022-06-08 18:01:45.601,16,0,0,16.449,33.737623,-118.104812,0.50,-0.50,0.00,4.00,-6.20,-23.30,0,1,0,91,100,-7511,3273,16449,3041.50,2,WP,1,0,0,0,0,0,0,1654736505601,4132,4116,4115,4105,0,0,27,,,,,,,0,0,0,-40.00,-62.00,-233.00,0.00,0.00,-271.00,14,19.00,7.07,51.70,5.00,-5.00,0.00,0,,,100,100,0,2,0,0,0,1,0,,,,,0.0,0.0,0.0,0.0,0.0,0.0,0
33.737669,-118.104826,2.00,2.40,0.71,5.24,2.00,2.00,2.51,5.24,8406,2022-06-09 01:01:45.701,2022-06-08 18:01:45.701,16,0,0,16.449,33.737623,-118.104812,0.50,-0.50,0.00,3.50,-5.50,-23.30,0,1,0,91,100,-7511,3273,16449,3041.50,2,WP,1,0,0,0,0,0,0,1654736505701,4132,4116,4115,4105,0,0,27,,,,,,,0,0,0,-35.00,-55.00,-233.00,0.00,0.00,-271.00,14,20.00,7.07,52.41,5.00,-5.00,0.00,0,,,100,100,0,2,0,0,0,1,0,,,,,0.0,0.0,0.0,0.0,0.0,0.0,0
33.737669,-118.104826,2.00,2.40,0.64,5.30,2.00,2.00,2.51,5.30,8506,2022-06-09 01:01:45.801,2022-06-08 18:01:45.801,16,0,0,16.449,33.737623,-118.104812,0.50,-0.40,0.00,3.70,-5.90,-23.30,0,1,0,91,100,-7511,3273,16449,3041.50,2,WP,1,0,0,0,0,0,0,1654736505801,4132,4116,4115,4105,0,0,27,,,,,,,0,0,0,-37.00,-59.00,-233.00,0.00,0.00,-271.00,14,20.00,6.40,52.97,5.00,-4.00,0.00,0,,,100,100,0,2,0,0,0,1,0,,,,,0.0,0.0,0.0,0.0,0.0,0.0,0
33.737670,-118.104827,2.00,2.40,0.57,5.36,2.00,2.00,2.51,5.36,8605,2022-06-09 01:01:45.901,2022-06-08 18:01:45.901,16,0,0,16.449,33.737623,-118.104812,0.40,-0.40,0.00,4.40,-5.50,-23.40,0,1,0,91,100,-7511,3273,16449,3041.50,2,WP,1,0,0,0,0,0,0,1654736505900,4132,4116,4115,4105,0,0,27,,,,,,,0,0,0,-44.00,-55.00,-234.00,0.00,0.00,-271.00,14,20.00,5.66,53.60,4.00,-4.00,0.00,0,,,100,100,0,2,0,0,0,1,0,,,,,0.0,0.0,0.0,0.0,0.0,0.0,0
33.737670,-118.104827,2.00,2.40,0.50,5.40,2.00,2.00,2.51,5.40,8705,2022-06-09 01:01:46.001,2022-06-08 18:01:46.001,16,0,0,16.449,33.737623,-118.104812,0.40,-0.30,0.00,5.00,-5.80,-23.50,0,1,0,91,100,-7511,3273,16449,3041.50,2,WP,1,0,0,0,0,0,0,1654736506000,4132,4116,4115,4105,0,0,27,,,,,,,0,0,0,-50.00,-58.00,-235.00,0.00,0.00,-271.00,14,20.00,5.00,53.96,4.00,-3.00,0.00,0,,,100,100,0,2,0,0,0,1,0,,,,,0.0,0.0,0.0,0.0,0.0,0.0,0
33.737671,-118.104828,2.00,2.40,0.42,5.45,2.00,2.00,2.51,5.45,8806,2022-06-09 01:01:46.102,2022-06-08 18:01:46.102,16,0,0,16.449,33.737623,-118.104812,0.30,-0.30,0.00,4.80,-5.00,-23.50,0,1,0,91,100,-7511,3273,16449,3041.50,2,WP,1,0,0,0,0,0,0,1654736506101,4132,4116,4115,4105,0,0,27,,,,,,,0,0,0,-48.00,-50.00,-235.00,0.00,0.00,-271.00,14,20.00,4.24,54.48,3.00,-3.00,0.00,0,,,100,100,0,2,0,0,0,1,0,,,,,0.0,0.0,0.0,0.0,0.0,0.0,0
33.737671,-118.104828,2.00,2.40,0.36,5.46,2.00,2.00,2.51,5.46,8906,2022-06-09 01:01:46.201,2022-06-08 18:01:46.201,16,0,0,16.449,33.737623,-118.104812,0.30,-0.20,0.00,4.80,-5.50,-23.40,0,1,0,91,100,-7511,3273,16449,3041.50,2,WP,1,0,0,0,0,0,0,1654736506201,4132,4116,4115,4105,0,0,27,,,,,,,0,0,0,-48.00,-55.00,-234.00,0.00,0.00,-271.00,14,20.00,3.61,54.62,3.00,-2.00,0.00,0,,,100,100,0,2,0,0,0,1,0,,,,,0.0,0.0,0.0,0.0,0.0,0.0,0
33.737671,-118.104828,2.00,2.40,0.36,5.50,2.00,2.00,2.51,5.50,9007,2022-06-09 01:01:46.302,2022-06-08 18:01:46.302,16,0,0,16.449,33.737623,-118.104812,0.30,-0.20,0.00,4.00,-5.70,-23.40,0,1,0,91,100,-7511,3273,16449,3041.50,2,WP,1,0,0,0,0,0,0,1654736506302,4132,4116,4115,4105,0,0,27,,,,,,,0,0,0,-40.00,-57.00,-234.00,0.00,0.00,-271.00,14,20.00,3.61,55.00,3.00,-2.00,0.00,0,,,100,100,0,2,0,0,0,1,0,,,,,0.0,0.0,0.0,0.0,0.0,0.0,0
33.737671,-118.104829,2.00,2.40,0.22,5.51,2.00,2.00,2.51,5.51,9106,2022-06-09 01:01:46.402,2022-06-08 18:01:46.402,16,0,0,16.449,33.737623,-118.104812,0.20,-0.10,0.00,7.80,-4.30,-23.80,0,1,0,91,100,-7511,3273,16449,3041.50,2,WP,1,0,0,0,0,0,0,1654736506401,4132,4116,4115,4105,0,0,27,,,,,,,0,0,0,-78.00,-43.00,-238.00,0.00,0.00,-271.00,14,20.00,2.24,55.07,2.00,-1.00,0.00,0,,,100,100,0,2,0,0,0,1,0,,,,,0.0,0.0,0.0,0.0,0.0,0.0,0
33.737671,-118.104829,2.00,2.40,0.10,5.53,2.00,2.00,2.51,5.53,9186,2022-06-09 01:01:46.481,2022-06-08 18:01:46.482,16,0,0,16.465,33.737623,-118.104812,0.10,0.00,0.00,7.00,-5.40,-24.30,0,1,0,91,100,-7031,3269,16465,3041.50,2,WP,1,0,0,0,0,0,0,1654736506481,4132,4116,4115,4105,0,0,27,,,,,,,0,0,0,-70.00,-54.00,-243.00,0.00,0.00,-271.00,14,20.00,1.00,55.30,1.00,0.00,0.00,0,,,100,100,0,2,0,0,0,1,0,,,,,0.0,0.0,0.0,0.0,0.0,0.0,0
33.737671,-118.104829,2.00,2.40,0.10,5.53,2.00,2.00,2.51,5.53,9307,2022-06-09 01:01:46.602,2022-06-08 18:01:46.602,16,0,0,16.465,33.737623,-118.104812,0.10,0.00,0.00,5.60,-6.10,-24.50,0,1,0,91,100,-7031,3269,16465,3041.50,2,WP,1,0,0,0,0,0,0,1654736506602,4132,4116,4115,4105,0,0,27,,,,,,,0,0,0,-56.00,-61.00,-245.00,0.00,0.00,-272.00,14,20.00,1.00,55.28,1.00,0.00,0.00,0,,,100,100,0,2,0,0,0,1,0,,,,,0.0,0.0,0.0,0.0,0.0,0.0,0
33.737671,-118.104829,2.00,2.50,0.00,5.53,2.00,2.00,2.51,5.53,9406,2022-06-09 01:01:46.701,2022-06-08 18:01:46.701,16,0,0,16.465,33.737623,-118.104812,0.00,0.00,0.00,4.70,-6.40,-21.50,0,1,0,91,100,-7031,3269,16465,3041.50,2,WP,1,0,0,0,0,0,0,1654736506701,4132,4116,4115,4105,0,0,27,,,,,,,0,0,0,-47.00,-64.00,-215.00,0.00,0.00,-272.00,14,20.00,0.00,55.33,0.00,0.00,0.00,0,,,100,100,0,2,0,0,0,1,0,,,,,0.0,0.0,0.0,0.0,0.0,0.0,0
33.737671,-118.104828,2.00,2.50,0.00,5.51,2.00,2.00,2.51,5.53,9506,2022-06-09 01:01:46.801,2022-06-08 18:01:46.801,16,0,0,16.465,33.737623,-118.104812,0.00,0.00,0.00,3.70,-6.40,-17.40,0,1,0,91,100,-7031,3269,16465,3041.50,2,WP,1,0,0,0,0,0,0,1654736506801,4132,4116,4115,4105,0,0,27,,,,,,,0,0,0,-37.00,-64.00,-174.00,0.00,0.00,-271.00,14,20.00,0.00,55.14,0.00,0.00,0.00,0,,,100,100,0,2,0,0,0,1,0,,,,,0.0,0.0,0.0,0.0,0.0,0.0,0
33.737671,-118.104828,2.00,2.50,0.00,5.51,2.00,2.00,2.51,5.53,9607,2022-06-09 01:01:46.902,2022-06-08 18:01:46.902,16,0,0,16.465,33.737623,-118.104812,0.00,0.00,0.00,3.10,-6.20,-13.90,0,1,0,91,100,-7031,3269,16465,3041.50,2,WP,1,0,0,0,0,0,0,1654736506902,4132,4116,4115,4105,0,0,27,,,,,,,0,0,0,-31.00,-62.00,-139.00,0.00,0.00,-250.00,14,20.00,0.00,55.09,0.00,0.00,0.00,0,,,100,100,0,2,0,0,0,1,0,,,,,0.0,0.0,0.0,0.0,0.0,0.0,0
33.737671,-118.104828,2.00,2.50,0.00,5.50,2.00,2.00,2.51,5.53,9705,2022-06-09 01:01:47.001,2022-06-08 18:01:47.001,16,0,0,16.465,33.737623,-118.104812,0.00,0.00,0.00,3.00,-6.10,-11.20,0,1,0,91,100,-7031,3269,16465,3041.50,2,WP,1,0,0,0,0,0,0,1654736507000,4132,4116,4115,4105,0,0,27,,,,,,,0,0,0,-30.00,-61.00,-112.00,0.00,0.00,-215.00,14,20.00,0.00,54.98,0.00,0.00,0.00,0,,,100,100,0,2,0,0,0,1,0,,,,,0.0,0.0,0.0,0.0,0.0,0.0,0
33.737671,-118.104828,2.00,2.50,0.00,5.49,2.00,2.00,2.51,5.53,9808,2022-06-09 01:01:47.103,2022-06-08 18:01:47.103,16,0,0,16.465,33.737623,-118.104812,0.00,0.00,0.00,3.20,-6.10,-9.00,0,1,0,91,100,-7031,3269,16465,3041.50,2,WP,1,0,0,0,0,0,0,1654736507103,4132,4116,4115,4105,0,0,27,,,,,,,0,0,0,-32.00,-61.00,-90.00,0.00,0.00,-183.00,14,20.00,0.00,54.91,0.00,0.00,0.00,0,,,100,100,0,2,0,0,0,1,0,,,,,0.0,0.0,0.0,0.0,0.0,0.0,0
33.737670,-118.104828,2.00,2.50,0.00,5.45,2.00,2.00,2.51,5.53,9907,2022-06-09 01:01:47.202,2022-06-08 18:01:47.202,16,0,0,16.465,33.737623,-118.104812,0.00,0.00,0.00,3.30,-6.20,-7.20,0,1,0,91,100,-7031,3269,16465,3041.50,2,WP,1,0,0,0,0,0,0,1654736507202,4132,4116,4115,4105,0,0,27,,,,,,,0,0,0,-33.00,-62.00,-72.00,0.00,0.00,-158.00,14,20.00,0.00,54.52,0.00,0.00,0.00,0,,,100,100,0,2,0,0,0,1,0,,,,,0.0,0.0,0.0,0.0,0.0,0.0,0
33.737670,-118.104828,2.00,2.50,0.00,5.44,2.00,2.00,2.51,5.53,10007,2022-06-09 01:01:47.302,2022-06-08 18:01:47.302,16,0,0,16.465,33.737623,-118.104812,0.00,0.00,0.00,3.30,-6.00,-5.70,0,1,0,91,100,-7031,3269,16465,3041.50,2,WP,1,0,0,0,0,0,0,1654736507302,4132,4116,4115,4105,0,0,27,,,,,,,0,0,0,-33.00,-60.00,-57.00,0.00,0.00,-138.00,14,20.00,0.00,54.43,0.00,0.00,0.00,0,,,100,100,0,2,0,0,0,1,0,,,,,0.0,0.0,0.0,0.0,0.0,0.0,0
33.737670,-118.104828,2.00,2.50,0.00,5.44,2.00,2.00,2.51,5.53,10107,2022-06-09 01:01:47.402,2022-06-08 18:01:47.402,16,0,0,16.465,33.737623,-118.104812,0.00,0.00,0.00,3.40,-5.80,-4.70,0,1,0,91,100,-7031,3269,16465,3041.50,2,WP,1,0,0,0,0,0,0,1654736507402,4132,4116,4115,4105,0,0,27,,,,,,,0,0,0,-34.00,-58.00,-47.00,0.00,0.00,-123.00,14,20.00,0.00,54.38,0.00,0.00,0.00,0,,,100,100,0,2,0,0,0,1,0,,,,,0.0,0.0,0.0,0.0,0.0,0.0,0
33.737670,-118.104828,2.00,2.50,0.00,5.43,2.00,2.00,2.51,5.53,10207,2022-06-09 01:01:47.502,2022-06-08 18:01:47.502,16,0,0,16.465,33.737623,-118.104812,0.00,0.00,0.00,4.30,-5.10,-2.20,0,1,0,91,100,-7031,3269,16465,3041.50,2,WP,1,0,0,0,0,0,0,1654736507502,4132,4116,4115,4105,0,0,27,,,,,,,0,0,0,-43.00,-51.00,-22.00,0.00,0.00,-111.00,14,20.00,0.00,54.30,0.00,0.00,0.00,0,,,100,100,0,2,0,0,0,1,0,,,,,0.0,0.0,0.0,0.0,0.0,0.0,0
33.737670,-118.104828,2.00,2.50,0.00,5.41,2.00,2.00,2.51,5.53,10306,2022-06-09 01:01:47.602,2022-06-08 18:01:47.602,16,0,0,16.465,33.737623,-118.104812,0.00,0.00,0.00,4.30,-4.40,-0.20,0,1,0,91,100,-7031,3269,16465,3041.50,2,WP,1,0,0,0,0,0,0,1654736507601,4132,4116,4115,4105,0,0,27,,,,,,,0,0,0,-43.00,-44.00,-2.00,0.00,0.00,-92.00,14,20.00,0.00,54.10,0.00,0.00,0.00,0,,,100,100,0,2,0,0,0,1,0,,,,,0.0,0.0,0.0,0.0,0.0,0.0,0
33.737670,-118.104828,2.00,2.50,0.00,5.40,2.00,2.00,2.51,5.53,10407,2022-06-09 01:01:47.703,2022-06-08 18:01:47.703,16,0,0,16.465,33.737623,-118.104812,0.00,0.00,0.00,3.90,-4.60,1.40,0,1,0,91,100,-7031,3269,16465,3041.50,2,WP,1,0,0,0,0,0,0,1654736507702,4132,4116,4115,4105,0,0,27,,,,,,,0,0,0,-39.00,-46.00,14.00,0.00,0.00,-71.00,14,20.00,0.00,53.99,0.00,0.00,0.00,0,,,100,100,0,2,0,0,0,1,0,,,,,0.0,0.0,0.0,0.0,0.0,0.0,0
33.737670,-118.104828,2.00,2.50,0.00,5.39,2.00,2.00,2.51,5.53,10506,2022-06-09 01:01:47.802,2022-06-08 18:01:47.802,16,0,0,16.465,33.737623,-118.104812,0.00,0.00,0.00,4.20,-4.90,2.40,0,1,0,91,100,-7031,3269,16465,3041.50,2,WP,1,0,0,0,0,0,0,1654736507801,4132,4116,4115,4105,0,0,27,,,,,,,0,0,0,-42.00,-49.00,24.00,0.00,0.00,-54.00,14,20.00,0.00,53.91,0.00,0.00,0.00,0,,,100,100,0,2,0,0,0,1,0,,,,,0.0,0.0,0.0,0.0,0.0,0.0,0
33.737670,-118.104828,2.00,2.50,0.00,5.38,2.00,2.00,2.51,5.53,10608,2022-06-09 01:01:47.903,2022-06-08 18:01:47.903,16,0,0,16.465,33.737623,-118.104812,0.00,0.00,0.00,4.30,-5.00,3.10,0,1,0,91,100,-7031,3269,16465,3041.50,2,WP,1,0,0,0,0,0,0,1654736507903,4132,4116,4115,4105,0,0,27,,,,,,,0,0,0,-43.00,-50.00,31.00,0.00,0.00,-41.00,14,20.00,0.00,53.79,0.00,0.00,0.00,0,,,100,100,0,2,0,0,0,1,0,,,,,0.0,0.0,0.0,0.0,0.0,0.0,0
33.737670,-118.104828,2.00,2.50,0.00,5.36,2.00,2.00,2.51,5.53,10707,2022-06-09 01:01:48.002,2022-06-08 18:01:48.002,16,0,0,16.465,33.737623,-118.104812,0.00,0.00,0.00,4.30,-5.20,3.60,0,1,0,91,100,-7031,3269,16465,3041.50,2,WP,1,0,0,0,0,0,0,1654736508002,4132,4116,4115,4105,0,0,27,,,,,,,0,0,0,-43.00,-52.00,36.00,0.00,0.00,-32.00,14,20.00,0.00,53.63,0.00,0.00,0.00,0,,,100,100,0,2,0,0,0,1,0,,,,,0.0,0.0,0.0,0.0,0.0,0.0,0
33.737670,-118.104828,2.00,2.50,0.00,5.35,2.00,2.00,2.51,5.53,10806,2022-06-09 01:01:48.102,2022-06-08 18:01:48.102,16,0,0,16.465,33.737623,-118.104812,0.00,0.00,0.00,4.20,-5.50,3.90,0,1,0,91,100,-7031,3269,16465,3041.50,2,WP,1,0,0,0,0,0,0,1654736508101,4132,4116,4115,4105,0,0,27,,,,,,,0,0,0,-42.00,-55.00,39.00,0.00,0.00,-26.00,14,20.00,0.00,53.49,0.00,0.00,0.00,0,,,100,100,0,2,0,0,0,1,0,,,,,0.0,0.0,0.0,0.0,0.0,0.0,0
33.737670,-118.104827,2.00,2.50,0.00,5.33,2.00,2.00,2.51,5.53,10907,2022-06-09 01:01:48.203,2022-06-08 18:01:48.203,16,0,0,16.465,33.737623,-118.104812,0.00,0.00,0.00,4.20,-5.60,4.30,0,1,0,91,100,-7031,3269,16465,3041.50,2,WP,1,0,0,0,0,0,0,1654736508202,4132,4116,4115,4105,0,0,27,,,,,,,0,0,0,-42.00,-56.00,43.00,0.00,0.00,-22.00,14,20.00,0.00,53.30,0.00,0.00,0.00,0,,,100,100,0,2,0,0,0,1,0,,,,,0.0,0.0,0.0,0.0,0.0,0.0,0
33.737669,-118.104827,2.00,2.50,0.00,5.32,2.00,2.00,2.51,5.53,11008,2022-06-09 01:01:48.303,2022-06-08 18:01:48.303,16,0,0,16.465,33.737623,-118.104812,0.00,0.00,0.00,4.20,-5.70,4.50,0,1,0,91,100,-7031,3269,16465,3041.50,2,WP,1,0,0,0,0,0,0,1654736508303,4132,4116,4115,4105,0,0,27,,,,,,,0,0,0,-42.00,-57.00,45.00,0.00,0.00,-18.00,14,20.00,0.00,53.16,0.00,0.00,0.00,0,,,100,100,0,2,0,0,0,1,0,,,,,0.0,0.0,0.0,0.0,0.0,0.0,0
33.737669,-118.104827,2.00,2.50,0.00,5.30,2.00,2.00,2.51,5.53,11107,2022-06-09 01:01:48.402,2022-06-08 18:01:48.402,16,0,0,16.465,33.737623,-118.104812,0.00,0.00,0.00,4.00,-5.60,4.60,0,1,0,91,100,-7031,3269,16465,3041.50,2,WP,1,0,0,0,0,0,0,1654736508402,4132,4116,4115,4105,0,0,27,,,,,,,0,0,0,-40.00,-56.00,46.00,0.00,0.00,-14.00,14,20.00,0.00,53.04,0.00,0.00,0.00,0,,,100,100,0,2,0,0,0,1,0,,,,,0.0,0.0,0.0,0.0,0.0,0.0,0
33.737669,-118.104827,2.00,2.60,0.00,5.29,2.00,2.00,2.51,5.53,11193,2022-06-09 01:01:48.488,2022-06-08 18:01:48.488,16,0,0,16.454,33.737623,-118.104812,0.00,0.00,0.00,4.00,-5.50,4.70,0,1,0,91,100,-7108,3265,16454,3041.50,2,WP,1,0,0,0,0,0,0,1654736508488,4132,4116,4115,4105,0,0,27,,,,,,,0,0,0,-40.00,-55.00,47.00,0.00,0.00,-11.00,14,20.00,0.00,52.91,0.00,0.00,0.00,0,,,100,100,0,2,0,0,0,1,0,,,,,0.0,0.0,0.0,0.0,0.0,0.0,0
33.737669,-118.104827,2.10,2.50,0.00,5.28,2.10,2.10,2.51,5.53,11307,2022-06-09 01:01:48.602,2022-06-08 18:01:48.602,16,0,0,16.454,33.737623,-118.104812,0.00,0.00,0.00,4.00,-5.80,4.70,0,1,0,91,100,-7108,3265,16454,3041.50,2,WP,1,0,0,0,0,0,0,1654736508602,4132,4116,4115,4105,0,0,27,,,,,,,0,0,0,-40.00,-58.00,47.00,0.00,0.00,-9.00,14,21.00,0.00,52.78,0.00,0.00,0.00,0,,,100,100,0,2,0,0,0,1,0,,,,,0.0,0.0,0.0,0.0,0.0,0.0,0
33.737669,-118.104827,2.10,2.60,0.00,5.27,2.10,2.10,2.51,5.53,11408,2022-06-09 01:01:48.703,2022-06-08 18:01:48.703,16,0,0,16.454,33.737623,-118.104812,0.00,0.00,0.00,4.00,-5.80,4.70,0,1,0,91,100,-7108,3265,16454,3041.50,2,WP,1,0,0,0,0,0,0,1654736508703,4132,4116,4115,4105,0,0,27,,,,,,,0,0,0,-40.00,-58.00,47.00,0.00,0.00,-7.00,14,21.00,0.00,52.67,0.00,0.00,0.00,0,,,100,100,0,2,0,0,0,1,0,,,,,0.0,0.0,0.0,0.0,0.0,0.0,0
33.737669,-118.104827,2.10,2.60,0.00,5.26,2.10,2.10,2.51,5.53,11508,2022-06-09 01:01:48.804,2022-06-08 18:01:48.804,16,0,0,16.454,33.737623,-118.104812,0.00,0.00,0.00,4.10,-5.90,4.70,0,1,0,91,100,-7108,3265,16454,3041.50,2,WP,1,0,0,0,0,0,0,1654736508803,4132,4116,4115,4105,0,0,27,,,,,,,0,0,0,-41.00,-59.00,47.00,0.00,0.00,-5.00,14,21.00,0.00,52.59,0.00,0.00,0.00,0,,,100,100,0,2,0,0,0,1,0,,,,,0.0,0.0,0.0,0.0,0.0,0.0,0
33.737669,-118.104827,2.10,2.60,0.00,5.25,2.10,2.10,2.51,5.53,11607,2022-06-09 01:01:48.903,2022-06-08 18:01:48.903,16,0,0,16.454,33.737623,-118.104812,0.00,0.00,0.00,4.30,-5.80,4.80,0,1,0,91,100,-7108,3265,16454,3041.50,2,WP,1,0,0,0,0,0,0,1654736508902,4132,4116,4115,4105,0,0,27,,,,,,,0,0,0,-43.00,-58.00,48.00,0.00,0.00,-4.00,14,21.00,0.00,52.50,0.00,0.00,0.00,0,,,100,100,0,2,0,0,0,1,0,,,,,0.0,0.0,0.0,0.0,0.0,0.0,0
33.737669,-118.104826,2.10,2.60,0.00,5.25,2.10,2.10,2.51,5.53,11707,2022-06-09 01:01:49.002,2022-06-08 18:01:49.003,16,0,0,16.454,33.737623,-118.104812,0.00,0.00,0.00,4.30,-5.90,4.70,0,1,0,91,100,-7108,3265,16454,3041.50,2,WP,1,0,0,0,0,0,0,1654736509002,4132,4116,4115,4105,0,0,27,,,,,,,0,0,0,-43.00,-59.00,47.00,0.00,0.00,-3.00,14,21.00,0.00,52.51,0.00,0.00,0.00,0,,,100,100,0,2,0,0,0,1,0,,,,,0.0,0.0,0.0,0.0,0.0,0.0,0
33.737669,-118.104826,2.10,2.60,0.00,5.24,2.10,2.10,2.51,5.53,11824,2022-06-09 01:01:49.120,2022-06-08 18:01:49.120,16,0,0,16.454,33.737623,-118.104812,0.00,0.00,0.00,4.30,-5.80,4.70,0,1,0,91,100,-7108,3265,16454,3041.50,2,WP,1,0,0,0,0,0,0,1654736509119,4132,4116,4115,4105,0,0,27,,,,,,,0,0,0,-43.00,-58.00,47.00,0.00,0.00,-2.00,14,21.00,0.00,52.44,0.00,0.00,0.00,0,,,100,100,0,2,0,0,0,1,0,,,,,0.0,0.0,0.0,0.0,0.0,0.0,0
33.737669,-118.104826,2.10,2.60,0.00,5.24,2.10,2.10,2.51,5.53,11911,2022-06-09 01:01:49.207,2022-06-08 18:01:49.207,16,0,0,16.454,33.737623,-118.104812,0.00,0.00,0.00,4.20,-5.90,4.80,0,1,0,91,100,-7108,3265,16454,3041.50,2,WP,1,0,0,0,0,0,0,1654736509206,4132,4116,4115,4105,0,0,27,,,,,,,0,0,0,-42.00,-59.00,48.00,0.00,0.00,-1.00,14,21.00,0.00,52.40,0.00,0.00,0.00,0,,,100,100,0,2,0,0,0,1,0,,,,,0.0,0.0,0.0,0.0,0.0,0.0,0
33.737669,-118.104826,2.10,2.60,0.00,5.23,2.10,2.10,2.51,5.53,12008,2022-06-09 01:01:49.304,2022-06-08 18:01:49.304,16,0,0,16.454,33.737623,-118.104812,0.00,0.00,0.00,4.10,-6.10,4.70,0,1,0,91,100,-7108,3265,16454,3041.50,2,WP,1,0,0,0,0,0,0,1654736509303,4132,4116,4115,4105,0,0,27,,,,,,,0,0,0,-41.00,-61.00,47.00,0.00,0.00,0.00,14,21.00,0.00,52.34,0.00,0.00,0.00,0,,,100,100,0,2,0,0,0,1,0,,,,,0.0,0.0,0.0,0.0,0.0,0.0,0
33.737669,-118.104826,2.10,2.60,0.00,5.24,2.10,2.10,2.51,5.53,12108,2022-06-09 01:01:49.404,2022-06-08 18:01:49.404,16,0,0,16.454,33.737623,-118.104812,0.00,0.00,0.00,4.10,-6.10,4.90,0,1,0,91,100,-7108,3265,16454,3041.50,2,WP,1,0,0,0,0,0,0,1654736509403,4132,4116,4115,4105,0,0,27,,,,,,,0,0,0,-41.00,-61.00,49.00,0.00,0.00,0.00,14,21.00,0.00,52.43,0.00,0.00,0.00,0,,,100,100,0,2,0,0,0,1,0,,,,,0.0,0.0,0.0,0.0,0.0,0.0,0
33.737669,-118.104826,2.10,2.60,0.00,5.24,2.10,2.10,2.51,5.53,12219,2022-06-09 01:01:49.514,2022-06-08 18:01:49.514,16,0,0,16.454,33.737623,-118.104812,0.00,0.00,0.00,4.30,-6.10,4.80,0,1,0,91,100,-7108,3265,16454,3041.50,2,WP,1,0,0,0,0,0,0,1654736509514,4132,4116,4115,4105,0,0,27,,,,,,,0,0,0,-43.00,-61.00,48.00,0.00,0.00,0.00,14,21.00,0.00,52.40,0.00,0.00,0.00,0,,,100,100,0,2,0,0,0,1,0,,,,,0.0,0.0,0.0,0.0,0.0,0.0,0
33.737669,-118.104826,2.10,2.60,0.00,5.23,2.10,2.10,2.51,5.53,12308,2022-06-09 01:01:49.603,2022-06-08 18:01:49.603,16,0,0,16.454,33.737623,-118.104812,0.00,0.00,0.00,4.20,-6.00,4.80,0,1,0,91,100,-7108,3265,16454,3041.50,2,WP,1,0,0,0,0,0,0,1654736509603,4132,4116,4115,4105,0,0,27,,,,,,,0,0,0,-42.00,-60.00,48.00,0.00,0.00,1.00,14,21.00,0.00,52.34,0.00,0.00,0.00,0,,,100,100,0,2,0,0,0,1,0,,,,,0.0,0.0,0.0,0.0,0.0,0.0,0
33.737669,-118.104826,2.10,2.60,0.00,5.23,2.10,2.10,2.51,5.53,12408,2022-06-09 01:01:49.704,2022-06-08 18:01:49.704,16,0,0,16.454,33.737623,-118.104812,0.00,0.00,0.00,4.30,-5.70,4.80,0,1,0,91,100,-7108,3265,16454,3041.50,2,WP,1,0,0,0,0,0,0,1654736509703,4132,4116,4115,4105,0,0,27,,,,,,,0,0,0,-43.00,-57.00,48.00,0.00,0.00,1.00,14,21.00,0.00,52.32,0.00,0.00,0.00,0,,,100,100,0,2,0,0,0,1,0,,,,,0.0,0.0,0.0,0.0,0.0,0.0,0
33.737669,-118.104826,2.10,2.60,0.00,5.24,2.10,2.10,2.51,5.53,12508,2022-06-09 01:01:49.804,2022-06-08 18:01:49.804,16,0,0,16.454,33.737623,-118.104812,0.00,0.00,0.00,4.60,-5.70,4.70,0,1,0,91,100,-7108,3265,16454,3041.50,2,WP,1,0,0,0,0,0,0,1654736509803,4132,4116,4115,4105,0,0,27,,,,,,,0,0,0,-46.00,-57.00,47.00,0.00,0.00,1.00,14,21.00,0.00,52.40,0.00,0.00,0.00,0,,,100,100,0,2,0,0,0,1,0,,,,,0.0,0.0,0.0,0.0,0.0,0.0,0
33.737669,-118.104826,2.10,2.60,0.00,5.24,2.10,2.10,2.51,5.53,12659,2022-06-09 01:01:49.955,2022-06-08 18:01:49.955,16,0,0,16.454,33.737623,-118.104812,0.00,0.00,0.00,4.50,-5.50,4.80,0,1,0,91,100,-7108,3265,16454,3041.50,2,WP,1,0,0,0,0,0,0,1654736509954,4132,4116,4115,4105,0,0,27,,,,,,,0,0,0,-45.00,-55.00,48.00,0.00,0.00,2.00,14,21.00,0.00,52.40,0.00,0.00,0.00,0,,,100,100,0,2,0,0,0,1,0,,,,,0.0,0.0,0.0,0.0,0.0,0.0,0
33.737669,-118.104826,2.10,2.60,0.00,5.24,2.10,2.10,2.51,5.53,12708,2022-06-09 01:01:50.004,2022-06-08 18:01:50.004,16,0,0,16.454,33.737623,-118.104812,0.00,0.00,0.00,4.40,-5.50,4.80,0,1,0,91,100,-7108,3265,16454,3041.50,2,WP,1,0,0,0,0,0,0,1654736510003,4132,4116,4115,4105,0,0,27,,,,,,,0,0,0,-44.00,-55.00,48.00,0.00,0.00,2.00,14,21.00,0.00,52.45,0.00,0.00,0.00,0,,,100,100,0,2,0,0,0,1,0,,,,,0.0,0.0,0.0,0.0,0.0,0.0,0
33.737669,-118.104826,2.10,2.60,0.00,5.25,2.10,2.10,2.51,5.53,12811,2022-06-09 01:01:50.107,2022-06-08 18:01:50.107,16,0,0,16.454,33.737623,-118.104812,0.00,0.00,0.00,4.30,-5.30,4.80,0,1,0,91,100,-7108,3265,16454,3041.50,2,WP,1,0,0,0,0,0,0,1654736510106,4132,4116,4115,4105,0,0,27,,,,,,,0,0,0,-43.00,-53.00,48.00,0.00,0.00,2.00,14,21.00,0.00,52.45,0.00,0.00,0.00,0,,,100,100,0,2,0,0,0,1,0,,,,,0.0,0.0,0.0,0.0,0.0,0.0,0
33.737669,-118.104826,2.10,2.60,0.00,5.24,2.10,2.10,2.51,5.53,12908,2022-06-09 01:01:50.204,2022-06-08 18:01:50.204,16,0,0,16.454,33.737623,-118.104812,0.00,0.00,0.00,4.20,-5.20,4.90,0,1,0,91,100,-7108,3265,16454,3041.50,2,WP,1,0,0,0,0,0,0,1654736510203,4132,4116,4115,4105,0,0,27,,,,,,,0,0,0,-42.00,-52.00,49.00,0.00,0.00,3.00,14,21.00,0.00,52.44,0.00,0.00,0.00,0,,,100,100,0,2,0,0,0,1,0,,,,,0.0,0.0,0.0,0.0,0.0,0.0,0
33.737669,-118.104826,2.10,2.60,0.00,5.25,2.10,2.10,2.51,5.53,13009,2022-06-09 01:01:50.305,2022-06-08 18:01:50.305,16,0,0,16.454,33.737623,-118.104812,0.00,0.00,0.00,4.20,-5.40,4.80,0,1,0,91,100,-7108,3265,16454,3041.50,2,WP,1,0,0,0,0,0,0,1654736510304,4132,4116,4115,4105,0,0,27,,,,,,,0,0,0,-42.00,-54.00,48.00,0.00,0.00,3.00,14,21.00,0.00,52.45,0.00,0.00,0.00,0,,,100,100,0,2,0,0,0,1,0,,,,,0.0,0.0,0.0,0.0,0.0,0.0,0
33.737669,-118.104826,2.10,2.60,0.00,5.26,2.10,2.10,2.51,5.53,13109,2022-06-09 01:01:50.404,2022-06-08 18:01:50.404,16,0,0,16.454,33.737623,-118.104812,0.00,0.00,0.00,4.40,-5.20,4.80,0,1,0,91,100,-7108,3265,16454,3041.50,2,WP,1,0,0,0,0,0,0,1654736510404,4132,4116,4115,4105,0,0,27,,,,,,,0,0,0,-44.00,-52.00,48.00,0.00,0.00,3.00,14,21.00,0.00,52.61,0.00,0.00,0.00,0,,,100,100,0,2,0,0,0,1,0,,,,,0.0,0.0,0.0,0.0,0.0,0.0,0
33.737669,-118.104826,2.10,2.60,0.00,5.26,2.10,2.10,2.51,5.53,13209,2022-06-09 01:01:50.505,2022-06-08 18:01:50.505,16,0,0,16.434,33.737623,-118.104812,0.00,0.00,0.00,4.60,-5.20,4.70,0,1,0,91,100,-6970,3261,16434,3041.50,2,WP,1,0,0,0,0,0,0,1654736510504,4132,4116,4115,4105,0,0,27,,,,,,,0,0,0,-46.00,-52.00,47.00,0.00,0.00,4.00,14,21.00,0.00,52.64,0.00,0.00,0.00,0,,,100,100,0,2,0,0,0,1,0,,,,,0.0,0.0,0.0,0.0,0.0,0.0,0
33.737669,-118.104826,2.10,2.60,0.00,5.26,2.10,2.10,2.51,5.53,13309,2022-06-09 01:01:50.605,2022-06-08 18:01:50.605,16,0,0,16.434,33.737623,-118.104812,0.00,0.00,0.00,4.50,-5.10,4.80,0,1,0,91,100,-6970,3261,16434,3041.50,2,WP,1,0,0,0,0,0,0,1654736510604,4132,4116,4115,4105,0,0,27,,,,,,,0,0,0,-45.00,-51.00,48.00,0.00,0.00,4.00,14,21.00,0.00,52.64,0.00,0.00,0.00,0,,,100,100,0,2,0,0,0,1,0,,,,,0.0,0.0,0.0,0.0,0.0,0.0,0
33.737669,-118.104826,2.10,2.60,0.00,5.27,2.10,2.10,2.51,5.53,13410,2022-06-09 01:01:50.705,2022-06-08 18:01:50.705,16,0,0,16.434,33.737623,-118.104812,0.00,0.00,0.00,4.40,-5.10,4.80,0,1,0,91,100,-6970,3261,16434,3041.50,2,WP,1,0,0,0,0,0,0,1654736510705,4132,4116,4115,4105,0,0,27,,,,,,,0,0,0,-44.00,-51.00,48.00,0.00,0.00,4.00,14,21.00,0.00,52.67,0.00,0.00,0.00,0,,,100,100,0,2,0,0,0,1,0,,,,,0.0,0.0,0.0,0.0,0.0,0.0,0
33.737669,-118.104826,2.10,2.60,0.00,5.27,2.10,2.10,2.51,5.53,13510,2022-06-09 01:01:50.805,2022-06-08 18:01:50.805,16,0,0,16.434,33.737623,-118.104812,0.00,0.00,0.00,4.40,-5.10,4.80,0,1,0,91,100,-6970,3261,16434,3041.50,2,WP,1,0,0,0,0,0,0,1654736510805,4132,4116,4115,4105,0,0,27,,,,,,,0,0,0,-44.00,-51.00,48.00,0.00,0.00,4.00,14,21.00,0.00,52.65,0.00,0.00,0.00,0,,,100,100,0,2,0,0,0,1,0,,,,,0.0,0.0,0.0,0.0,0.0,0.0,0
33.737669,-118.104826,2.10,2.60,0.00,5.27,2.10,2.10,2.51,5.53,13609,2022-06-09 01:01:50.904,2022-06-08 18:01:50.904,16,0,0,16.434,33.737623,-118.104812,0.00,0.00,0.00,4.30,-4.90,4.70,0,1,0,91,100,-6970,3261,16434,3041.50,2,WP,1,0,0,0,0,0,0,1654736510904,4132,4116,4115,4105,0,0,27,,,,,,,0,0,0,-43.00,-49.00,47.00,0.00,0.00,4.00,14,21.00,0.00,52.68,0.00,0.00,0.00,0,,,100,100,0,2,0,0,0,1,0,,,,,0.0,0.0,0.0,0.0,0.0,0.0,0
