latitude,longitude,altitude(m),ultrasonicHeight(m),speed(mps),distance(m),max_altitude(m),max_ascent(m),max_speed(mps),max_distance(m),time(millisecond),datetime(utc),datetime(local),satellites,pressure(Pa),temperature(F),voltage(v),home_latitude,home_longitude,velocityX(mps),velocityY(mps),velocityZ(mps),pitch(deg),roll(deg),yaw(deg),powerlevel,isflying,istakingphoto,remainPowerPercent,remainLifePercent,currentCurrent,currentElectricity,currentVoltage,batteryTemperature,dischargeCount,flightmode,isMotorsOn,isTakingVideo,Rc_elevator,Rc_aileron,Rc_throttle,Rc_rudder,Rc_gyro,timestamp,Battery_Cell1,Battery_Cell2,Battery_Cell3,Battery_Cell4,Battery_Cell5,Battery_Cell6,Dronetype,AppVersion,Planename,FlyControllerSerialNumber,RemoteSerialNumber,BatterySerialNumber,CENTER_BATTERY.productDate,CENTER_BATTERY.serialNo,CENTER_BATTERY.fullCapacity,CENTER_BATTERY.productDateRaw,pitchRaw,rollRaw,yawRaw,gimbalPitchRaw,gimbalRollRaw,gimbalYawRaw,flyState,altitudeRaw,speedRaw,distanceRaw,velocityXRaw,velocityYRaw,velocityZRaw,data_reuse,App_Tip,App_Warning,downlinkSignalQuality,uplinkSignalQuality,transmissionChannel,rcModeSwitch,rcHome,rcPause,rcTransform,rcJoystickMode,appMode,FlyControllerSerialNumber_legacy,RemoteSerialNumber_legacy,BatterySerialNumber_legacy,Battery2SerialNumber,frontAvoidDist,backAvoidDist,rightAvoidDist,leftAvoidDist,upAvoidDist,downAvoidDist,isBrakingToAvoid
33.737636,-118.104798,0.30,0.60,0.57,0.30,0.30,0.30,0.57,0.30,1,2022-06-09 00:20:33.091,2022-06-08 17:20:33.091,15,0,0,16.145,33.737633,-118.104800,0.20,0.20,-0.50,-5.80,-0.90,-123.10,0,1,0,72,100,-4264,2520,16145,3081.50,11,TakeOff,1,0,0,0,0,0,0,1654734033091,4061,4065,4063,4048,0,0,27,Litchi_iOS_2.14.0,Brian-MAVIC 2,163DFCK001S13F,1DUCFB800104PR,0P2AFBV5340045,,0,3535,0,58.00,-9.00,-1231.00,-46.00,0.00,-1349.00,11,3.00,5.74,3.04,2.00,2.00,-5.00,0,,,100,100,0,1,0,0,0,0,6,(null),(null),(null),(null),0.0,0.0,0.0,0.0,0.0,0.0,0
33.737636,-118.104798,0.40,0.70,0.57,0.34,0.40,0.40,0.57,0.34,98,2022-06-09 00:20:33.188,2022-06-08 17:20:33.188,15,0,0,16.145,33.737633,-118.104800,0.20,0.20,-0.50,-5.40,-1.00,-123.10,0,1,0,72,100,-4264,2520,16145,3081.50,11,TakeOff,1,0,0,0,0,0,0,1654734033188,4061,4065,4063,4048,0,0,27,,,,,,,0,0,0,54.00,-10.00,-1231.00,-44.00,0.00,-1349.00,11,4.00,5.74,3.36,2.00,2.00,-5.00,0,,,100,100,0,1,0,0,0,0,6,,,,,0.0,0.0,0.0,0.0,0.0,0.0,0
33.737636,-118.104797,0.40,0.80,0.57,0.37,0.40,0.40,0.57,0.37,198,2022-06-09 00:20:33.289,2022-06-08 17:20:33.289,15,0,0,16.145,33.737633,-118.104800,0.20,0.20,-0.50,-5.60,-1.00,-123.00,0,1,0,72,100,-4264,2520,16145,3081.50,11,TakeOff,1,0,0,0,0,0,0,1654734033288,4061,4065,4063,4048,0,0,27,,,,,,,0,0,0,56.00,-10.00,-1230.00,-43.00,0.00,-1349.00,11,4.00,5.74,3.68,2.00,2.00,-5.00,0,,,100,100,0,1,0,0,0,0,6,,,,,0.0,0.0,0.0,0.0,0.0,0.0,0
33.737636,-118.104797,0.50,0.80,0.57,0.39,0.50,0.50,0.57,0.39,298,2022-06-09 00:20:33.388,2022-06-08 17:20:33.388,15,0,0,16.145,33.737633,-118.104800,0.20,0.20,-0.50,-6.10,-0.90,-122.90,0,1,0,72,100,-4264,2520,16145,3081.50,11,TakeOff,1,0,0,0,0,0,0,1654734033388,4061,4065,4063,4048,0,0,27,,,,,,,0,0,0,61.00,-9.00,-1229.00,-48.00,0.00,-1349.00,11,5.00,5.74,3.91,2.00,2.00,-5.00,0,,,100,100,0,1,0,0,0,0,6,,,,,0.0,0.0,0.0,0.0,0.0,0.0,0
33.737636,-118.104797,0.60,0.90,0.57,0.42,0.60,0.60,0.57,0.42,398,2022-06-09 00:20:33.488,2022-06-08 17:20:33.488,15,0,0,16.145,33.737633,-118.104800,0.20,0.20,-0.50,-6.20,-0.80,-122.90,0,1,0,72,100,-4264,2520,16145,3081.50,11,TakeOff,1,0,0,0,0,0,0,1654734033488,4061,4065,4063,4048,0,0,27,,,,,,,0,0,0,62.00,-8.00,-1229.00,-49.00,0.00,-1349.00,11,6.00,5.74,4.23,2.00,2.00,-5.00,0,,,100,100,0,1,0,0,0,0,6,,,,,0.0,0.0,0.0,0.0,0.0,0.0,0
33.737636,-118.104797,0.60,0.90,0.57,0.46,0.60,0.60,0.57,0.46,547,2022-06-09 00:20:33.638,2022-06-08 17:20:33.638,15,0,0,16.145,33.737633,-118.104800,0.20,0.20,-0.50,-6.60,-0.70,-122.90,0,1,0,72,100,-4264,2520,16145,3081.50,11,TakeOff,1,0,0,0,0,0,0,1654734033637,4061,4065,4063,4048,0,0,27,,,,,,,0,0,0,66.00,-7.00,-1229.00,-53.00,0.00,-1349.00,11,6.00,5.74,4.62,2.00,2.00,-5.00,0,,,100,100,0,1,0,0,0,0,6,,,,,0.0,0.0,0.0,0.0,0.0,0.0,0
33.737637,-118.104796,0.70,1.00,0.55,0.49,0.70,0.70,0.57,0.49,599,2022-06-09 00:20:33.690,2022-06-08 17:20:33.690,15,0,0,16.145,33.737633,-118.104800,0.10,0.20,-0.50,-6.50,-1.00,-122.90,0,1,0,72,100,-4264,2520,16145,3081.50,11,TakeOff,1,0,0,0,0,0,0,1654734033689,4061,4065,4063,4048,0,0,27,,,,,,,0,0,0,65.00,-10.00,-1229.00,-55.00,0.00,-1349.00,11,7.00,5.48,4.93,1.00,2.00,-5.00,0,,,100,100,0,1,0,0,0,0,6,,,,,0.0,0.0,0.0,0.0,0.0,0.0,0
33.737637,-118.104796,0.70,1.00,0.46,0.52,0.70,0.70,0.57,0.52,700,2022-06-09 00:20:33.790,2022-06-08 17:20:33.790,15,0,0,16.145,33.737633,-118.104800,0.10,0.20,-0.40,-6.30,-1.10,-122.80,0,1,0,72,100,-4264,2520,16145,3081.50,11,TakeOff,1,0,0,0,0,0,0,1654734033790,4061,4065,4063,4048,0,0,27,,,,,,,0,0,0,63.00,-11.00,-1228.00,-52.00,0.00,-1349.00,11,7.00,4.58,5.17,1.00,2.00,-4.00,0,,,100,100,0,1,0,0,0,0,6,,,,,8.9,0.0,0.0,0.0,0.0,0.0,0
33.737637,-118.104796,0.80,1.10,0.46,0.54,0.80,0.80,0.57,0.54,799,2022-06-09 00:20:33.890,2022-06-08 17:20:33.890,15,0,0,16.145,33.737633,-118.104800,0.10,0.20,-0.40,-6.20,-0.80,-122.80,0,1,0,72,100,-4264,2520,16145,3081.50,11,Sport,1,0,0,0,0,0,0,1654734033889,4061,4065,4063,4048,0,0,27,,,,,,,0,0,0,62.00,-8.00,-1228.00,-51.00,0.00,-1349.00,31,8.00,4.58,5.45,1.00,2.00,-4.00,0,,,100,100,0,1,0,0,0,0,6,,,,,8.9,0.0,0.0,0.0,0.0,0.0,0
33.737637,-118.104796,0.80,1.10,0.42,0.56,0.80,0.80,0.57,0.56,898,2022-06-09 00:20:33.989,2022-06-08 17:20:33.989,15,0,0,16.145,33.737633,-118.104800,0.10,0.10,-0.40,-6.30,-0.80,-122.80,0,1,0,72,100,-4264,2520,16145,3081.50,11,Sport,1,0,0,0,0,0,0,1654734033988,4061,4065,4063,4048,0,0,27,,,,,,,0,0,0,63.00,-8.00,-1228.00,-51.00,0.00,-1349.00,31,8.00,4.24,5.63,1.00,1.00,-4.00,0,,,100,100,0,1,0,0,0,0,6,,,,,8.9,0.0,0.0,0.0,0.0,0.0,0
33.737637,-118.104795,0.80,1.20,0.24,0.59,0.80,0.80,0.57,0.59,999,2022-06-09 00:20:34.089,2022-06-08 17:20:34.089,15,0,0,16.145,33.737633,-118.104800,0.10,0.10,-0.20,-6.00,-0.70,-122.80,0,1,0,72,100,-4264,2520,16145,3081.50,11,Sport,1,0,0,0,0,0,0,1654734034089,4061,4065,4063,4048,0,0,27,,,,,,,0,0,0,60.00,-7.00,-1228.00,-49.00,0.00,-1349.00,31,8.00,2.45,5.87,1.00,1.00,-2.00,0,,,100,100,0,1,0,0,0,0,6,,,,,8.9,0.0,0.0,0.0,0.0,0.0,0
33.737637,-118.104795,0.90,1.20,0.17,0.59,0.90,0.90,0.57,0.59,1099,2022-06-09 00:20:34.190,2022-06-08 17:20:34.190,15,0,0,16.145,33.737633,-118.104800,0.10,0.10,-0.10,-5.50,-1.10,-122.80,0,1,0,72,100,-4264,2520,16145,3081.50,11,Sport,1,0,0,0,0,0,0,1654734034189,4061,4065,4063,4048,0,0,27,,,,,,,0,0,0,55.00,-11.00,-1228.00,-45.00,0.00,-1349.00,31,9.00,1.73,5.90,1.00,1.00,-1.00,0,,,100,100,0,1,0,0,0,0,6,,,,,9.1,0.0,0.0,0.0,0.0,0.0,0
33.737637,-118.104795,0.90,1.20,0.17,0.61,0.90,0.90,0.57,0.61,1199,2022-06-09 00:20:34.290,2022-06-08 17:20:34.290,15,0,0,16.145,33.737633,-118.104800,0.10,0.10,-0.10,-4.90,-1.10,-122.80,0,1,0,72,100,-4264,2520,16145,3081.50,11,Sport,1,0,0,0,0,0,0,1654734034289,4061,4065,4063,4048,0,0,27,,,,,,,0,0,0,49.00,-11.00,-1228.00,-39.00,0.00,-1349.00,31,9.00,1.73,6.10,1.00,1.00,-1.00,0,,,100,100,0,1,0,0,0,0,6,,,,,9.1,0.0,0.0,0.0,0.0,0.0,0
33.737637,-118.104795,0.90,1.20,0.14,0.63,0.90,0.90,0.57,0.63,1300,2022-06-09 00:20:34.391,2022-06-08 17:20:34.391,15,0,0,16.145,33.737633,-118.104800,0.10,0.10,0.00,-4.80,-1.00,-122.90,0,1,0,72,100,-4264,2520,16145,3081.50,11,Sport,1,0,0,0,69,0,0,1654734034390,4061,4065,4063,4048,0,0,27,,,,,,,0,0,0,48.00,-10.00,-1229.00,-37.00,0.00,-1349.00,31,9.00,1.41,6.26,1.00,1.00,0.00,0,,,100,100,0,1,0,0,0,0,6,,,,,0.0,0.0,0.0,0.0,0.0,0.0,0
33.737637,-118.104795,0.90,1.20,0.14,0.65,0.90,0.90,0.57,0.65,1399,2022-06-09 00:20:34.490,2022-06-08 17:20:34.490,15,0,0,16.145,33.737633,-118.104800,0.10,0.10,0.00,-4.70,-0.80,-122.90,0,1,0,72,100,-4264,2520,16145,3081.50,11,Sport,1,0,0,0,268,0,0,1654734034489,4061,4065,4063,4048,0,0,27,,,,,,,0,0,0,47.00,-8.00,-1229.00,-36.00,0.00,-1349.00,31,9.00,1.41,6.45,1.00,1.00,0.00,0,,,100,100,0,1,0,0,0,0,6,,,,,0.0,0.0,0.0,0.0,0.0,0.0,0
33.737638,-118.104795,0.90,1.20,0.14,0.66,0.90,0.90,0.57,0.66,1499,2022-06-09 00:20:34.589,2022-06-08 17:20:34.589,15,0,0,16.145,33.737633,-118.104800,0.00,0.10,-0.10,-4.40,-1.00,-123.10,0,1,0,72,100,-4264,2520,16145,3081.50,11,Sport,1,0,0,0,155,0,0,1654734034589,4061,4065,4063,4048,0,0,27,,,,,,,0,0,0,44.00,-10.00,-1231.00,-35.00,0.00,-1349.00,31,9.00,1.41,6.58,0.00,1.00,-1.00,0,,,100,100,0,1,0,0,0,0,6,,,,,0.0,0.0,0.0,0.0,0.0,0.0,0
33.737638,-118.104795,0.90,1.30,0.32,0.68,0.90,0.90,0.57,0.68,1599,2022-06-09 00:20:34.689,2022-06-08 17:20:34.689,15,0,0,16.145,33.737633,-118.104800,0.00,0.10,-0.30,-4.80,-0.10,-123.00,0,1,0,72,100,-4264,2520,16145,3081.50,11,Sport,1,0,0,0,0,0,0,1654734034689,4061,4065,4063,4048,0,0,27,,,,,,,0,0,0,48.00,-1.00,-1230.00,-34.00,0.00,-1349.00,31,9.00,3.16,6.76,0.00,1.00,-3.00,0,,,100,100,0,1,0,0,0,0,6,,,,,0.0,0.0,0.0,0.0,0.0,0.0,0
33.737638,-118.104794,1.00,1.30,0.22,0.70,1.00,1.00,0.57,0.70,1700,2022-06-09 00:20:34.790,2022-06-08 17:20:34.790,15,0,0,15.945,33.737633,-118.104800,0.00,0.10,-0.20,-5.70,0.00,-122.90,0,1,0,72,100,-6945,2516,15945,3081.50,11,Sport,1,0,0,0,2,0,0,1654734034790,4061,4065,4063,4048,0,0,27,,,,,,,0,0,0,57.00,0.00,-1229.00,-44.00,0.00,-1349.00,31,10.00,2.24,6.95,0.00,1.00,-2.00,0,,,100,100,0,1,0,0,0,0,6,,,,,0.0,0.0,0.0,0.0,0.0,0.0,0
33.737638,-118.104794,1.00,1.30,0.14,0.71,1.00,1.00,0.57,0.71,1799,2022-06-09 00:20:34.889,2022-06-08 17:20:34.889,15,0,0,15.945,33.737633,-118.104800,0.00,0.10,-0.10,-5.60,-0.30,-123.00,0,1,0,72,100,-6945,2516,15945,3081.50,11,Sport,1,0,0,0,193,0,0,1654734034889,4061,4065,4063,4048,0,0,27,,,,,,,0,0,0,56.00,-3.00,-1230.00,-46.00,0.00,-1349.00,31,10.00,1.41,7.11,0.00,1.00,-1.00,0,,,100,100,0,1,0,0,0,0,6,,,,,0.0,0.0,0.0,0.0,0.0,0.0,0
33.737638,-118.104794,1.00,1.30,0.14,0.72,1.00,1.00,0.57,0.72,1900,2022-06-09 00:20:34.990,2022-06-08 17:20:34.990,15,0,0,15.945,33.737633,-118.104800,0.00,0.10,-0.10,-5.00,-0.60,-123.00,0,1,0,72,100,-6945,2516,15945,3081.50,11,Sport,1,0,0,0,0,0,0,1654734034990,4061,4065,4063,4048,0,0,27,,,,,,,0,0,0,50.00,-6.00,-1230.00,-40.00,0.00,-1349.00,31,10.00,1.41,7.15,0.00,1.00,-1.00,0,,,100,100,0,1,0,0,0,0,6,,,,,0.0,0.0,0.0,0.0,0.0,0.0,0
33.737638,-118.104794,1.00,1.40,0.14,0.73,1.00,1.00,0.57,0.73,2000,2022-06-09 00:20:35.090,2022-06-08 17:20:35.090,15,0,0,15.945,33.737633,-118.104800,0.00,0.10,-0.10,-5.30,-0.50,-123.00,0,1,0,72,100,-6945,2516,15945,3081.50,11,Sport,1,0,0,0,0,0,0,1654734035090,4061,4065,4063,4048,0,0,27,,,,,,,0,0,0,53.00,-5.00,-1230.00,-39.00,0.00,-1349.00,31,10.00,1.41,7.32,0.00,1.00,-1.00,0,,,100,100,0,1,0,0,0,0,6,,,,,0.0,0.0,0.0,0.0,0.0,0.0,0
33.737638,-118.104794,1.10,1.40,0.10,0.75,1.10,1.10,0.57,0.75,2100,2022-06-09 00:20:35.190,2022-06-08 17:20:35.190,15,0,0,15.945,33.737633,-118.104800,0.00,0.10,0.00,-5.70,-0.60,-122.80,0,1,0,72,100,-6945,2516,15945,3081.50,11,Sport,1,0,0,0,0,0,0,1654734035190,4061,4065,4063,4048,0,0,27,,,,,,,0,0,0,57.00,-6.00,-1228.00,-45.00,0.00,-1349.00,31,11.00,1.00,7.49,0.00,1.00,0.00,0,,,100,100,0,1,0,0,0,0,6,,,,,0.0,0.0,0.0,0.0,0.0,0.0,0
33.737638,-118.104794,1.10,1.40,0.10,0.77,1.10,1.10,0.57,0.77,2198,2022-06-09 00:20:35.289,2022-06-08 17:20:35.289,15,0,0,15.945,33.737633,-118.104800,0.00,0.10,0.00,-5.50,-0.40,-122.80,0,1,0,72,100,-6945,2516,15945,3081.50,11,Sport,1,0,64,0,0,0,0,1654734035288,4061,4065,4063,4048,0,0,27,,,,,,,0,0,0,55.00,-4.00,-1228.00,-45.00,0.00,-1349.00,31,11.00,1.00,7.65,0.00,1.00,0.00,0,,,100,100,0,1,0,0,0,0,6,,,,,0.0,0.0,0.0,0.0,0.0,0.0,0
33.737638,-118.104794,1.10,1.40,0.10,0.76,1.10,1.10,0.57,0.77,2300,2022-06-09 00:20:35.390,2022-06-08 17:20:35.391,15,0,0,15.945,33.737633,-118.104800,0.00,0.10,0.00,-6.30,-0.10,-122.90,0,1,0,72,100,-6945,2516,15945,3081.50,11,Sport,1,0,499,171,0,0,0,1654734035390,4061,4065,4063,4048,0,0,27,,,,,,,0,0,0,63.00,-1.00,-1229.00,-43.00,0.00,-1349.00,31,11.00,1.00,7.63,0.00,1.00,0.00,0,,,100,100,0,1,0,0,0,0,6,,,,,0.0,0.0,0.0,0.0,0.0,0.0,0
33.737638,-118.104794,1.10,1.40,0.00,0.77,1.10,1.10,0.57,0.77,2398,2022-06-09 00:20:35.489,2022-06-08 17:20:35.489,15,0,0,15.945,33.737633,-118.104800,0.00,0.00,0.00,-18.10,2.10,-123.20,0,1,0,72,100,-6945,2516,15945,3081.50,11,Sport,1,0,562,90,0,0,0,1654734035488,4061,4065,4063,4048,0,0,27,,,,,,,0,0,0,181.00,21.00,-1232.00,-113.00,0.00,-1349.00,31,11.00,0.00,7.73,0.00,0.00,0.00,0,,,100,100,0,1,0,0,0,0,6,,,,,0.0,0.0,0.0,0.0,0.0,0.0,0
33.737638,-118.104794,1.10,1.40,0.14,0.77,1.10,1.10,0.57,0.77,2498,2022-06-09 00:20:35.589,2022-06-08 17:20:35.589,15,0,0,15.945,33.737633,-118.104800,0.00,-0.10,0.10,-29.70,3.60,-123.90,0,1,0,72,100,-6945,2516,15945,3081.50,11,Sport,1,0,0,0,0,0,0,1654734035588,4061,4065,4063,4048,0,0,27,,,,,,,0,0,0,297.00,36.00,-1239.00,-269.00,0.00,-1349.00,31,11.00,1.41,7.65,0.00,-1.00,1.00,0,,,100,100,0,1,0,0,0,0,6,,,,,0.0,0.0,0.0,0.0,0.0,0.0,0
33.737638,-118.104794,1.10,1.40,0.55,0.73,1.10,1.10,0.57,0.77,2599,2022-06-09 00:20:35.689,2022-06-08 17:20:35.689,15,0,0,15.945,33.737633,-118.104800,-0.20,-0.50,0.10,-17.40,1.10,-123.10,0,1,0,72,100,-6945,2516,15945,3081.50,11,Sport,1,0,0,0,0,0,0,1654734035689,4061,4065,4063,4048,0,0,27,,,,,,,0,0,0,174.00,11.00,-1231.00,-239.00,0.00,-1349.00,31,11.00,5.48,7.27,-2.00,-5.00,1.00,0,,,100,100,0,1,0,0,0,0,6,,,,,0.0,0.0,0.0,0.0,0.0,0.0,0
33.737638,-118.104795,1.10,1.50,0.67,0.68,1.10,1.10,0.67,0.77,2699,2022-06-09 00:20:35.790,2022-06-08 17:20:35.790,15,0,0,15.945,33.737633,-118.104800,-0.30,-0.60,0.00,-4.70,-0.20,-122.80,0,1,0,72,100,-6945,2516,15945,3081.50,11,Sport,1,0,0,0,0,0,0,1654734035789,4061,4065,4063,4048,0,0,27,,,,,,,0,0,0,47.00,-2.00,-1228.00,-74.00,0.00,-1349.00,31,11.00,6.71,6.80,-3.00,-6.00,0.00,0,,,100,100,0,1,0,0,0,0,6,,,,,0.0,0.0,0.0,0.0,0.0,0.0,0
33.737637,-118.104795,1.10,1.50,0.64,0.62,1.10,1.10,0.67,0.77,2800,2022-06-09 00:20:35.891,2022-06-08 17:20:35.891,15,0,0,15.945,33.737633,-118.104800,-0.20,-0.60,-0.10,0.80,-0.80,-122.70,0,1,0,72,100,-6945,2516,15945,3081.50,11,Sport,1,0,0,0,0,0,0,1654734035890,4061,4065,4063,4048,0,0,27,,,,,,,0,0,0,-8.00,-8.00,-1227.00,5.00,0.00,-1349.00,31,11.00,6.40,6.16,-2.00,-6.00,-1.00,0,,,100,100,0,1,0,0,0,0,6,,,,,0.0,0.0,0.0,0.0,0.0,0.0,0
33.737637,-118.104796,1.10,1.50,0.45,0.57,1.10,1.10,0.67,0.77,2900,2022-06-09 00:20:35.990,2022-06-08 17:20:35.990,15,0,0,15.945,33.737633,-118.104800,-0.20,-0.40,0.00,2.60,-0.90,-122.70,0,1,0,72,100,-6945,2516,15945,3081.50,11,Sport,1,0,0,0,0,0,0,1654734035990,4061,4065,4063,4048,0,0,27,,,,,,,0,0,0,-26.00,-9.00,-1227.00,28.00,0.00,-1349.00,31,11.00,4.47,5.65,-2.00,-4.00,0.00,0,,,100,100,0,1,0,0,0,0,6,,,,,0.0,0.0,0.0,0.0,0.0,0.0,0
33.737637,-118.104796,1.10,1.50,0.32,0.54,1.10,1.10,0.67,0.77,2999,2022-06-09 00:20:36.090,2022-06-08 17:20:36.090,15,0,0,15.945,33.737633,-118.104800,-0.10,-0.30,0.00,2.40,-1.20,-122.80,0,1,0,72,100,-6945,2516,15945,3081.50,11,Sport,1,0,0,0,0,0,0,1654734036089,4061,4065,4063,4048,0,0,27,,,,,,,0,0,0,-24.00,-12.00,-1228.00,35.00,0.00,-1349.00,31,11.00,3.16,5.44,-1.00,-3.00,0.00,0,,,100,100,0,1,0,0,0,0,6,,,,,0.0,0.0,0.0,0.0,0.0,0.0,0
33.737637,-118.104797,1.10,1.40,0.20,0.52,1.10,1.10,0.67,0.77,3099,2022-06-09 00:20:36.190,2022-06-08 17:20:36.190,15,0,0,15.945,33.737633,-118.104800,0.00,-0.20,0.00,0.40,-0.90,-122.70,0,1,0,72,100,-6945,2516,15945,3081.50,11,Sport,1,0,0,0,0,0,0,1654734036189,4061,4065,4063,4048,0,0,27,,,,,,,0,0,0,-4.00,-9.00,-1227.00,21.00,0.00,-1349.00,31,11.00,2.00,5.17,0.00,-2.00,0.00,0,,,100,100,0,1,0,0,0,0,6,,,,,0.0,0.0,0.0,0.0,0.0,0.0,0
33.737637,-118.104797,1.10,1.40,0.20,0.50,1.10,1.10,0.67,0.77,3199,2022-06-09 00:20:36.290,2022-06-08 17:20:36.290,15,0,0,15.945,33.737633,-118.104800,0.00,-0.20,0.00,-0.70,-0.80,-122.70,0,1,0,72,100,-6945,2516,15945,3081.50,11,Sport,1,0,0,0,0,0,0,1654734036289,4061,4065,4063,4048,0,0,27,,,,,,,0,0,0,7.00,-8.00,-1227.00,9.00,0.00,-1349.00,31,11.00,2.00,4.99,0.00,-2.00,0.00,0,,,100,100,0,1,0,0,0,0,6,,,,,0.0,0.0,0.0,0.0,0.0,0.0,0
33.737637,-118.104797,1.10,1.40,0.10,0.48,1.10,1.10,0.67,0.77,3300,2022-06-09 00:20:36.390,2022-06-08 17:20:36.390,15,0,0,15.945,33.737633,-118.104800,0.00,-0.10,0.00,-1.50,-0.90,-122.80,0,1,0,72,100,-6945,2516,15945,3081.50,11,Sport,1,0,0,0,0,0,0,1654734036390,4061,4065,4063,4048,0,0,27,,,,,,,0,0,0,15.00,-9.00,-1228.00,0.00,0.00,-1349.00,31,11.00,1.00,4.77,0.00,-1.00,0.00,0,,,100,100,0,1,0,0,0,0,6,,,,,0.0,0.0,0.0,0.0,0.0,0.0,0
33.737637,-118.104798,1.10,1.40,0.10,0.48,1.10,1.10,0.67,0.77,3399,2022-06-09 00:20:36.489,2022-06-08 17:20:36.489,15,0,0,15.945,33.737633,-118.104800,0.00,-0.10,0.00,-2.00,-1.00,-122.70,0,1,0,72,100,-6945,2516,15945,3081.50,11,Sport,1,0,0,0,0,0,0,1654734036489,4061,4065,4063,4048,0,0,27,,,,,,,0,0,0,20.00,-10.00,-1227.00,-4.00,0.00,-1349.00,31,11.00,1.00,4.75,0.00,-1.00,0.00,0,,,100,100,0,1,0,0,0,0,6,,,,,0.0,0.0,0.0,0.0,0.0,0.0,0
33.737637,-118.104798,1.10,1.40,0.00,0.48,1.10,1.10,0.67,0.77,3500,2022-06-09 00:20:36.591,2022-06-08 17:20:36.591,15,0,0,15.945,33.737633,-118.104800,0.00,0.00,0.00,-2.90,-0.90,-122.60,0,1,0,72,100,-6945,2516,15945,3081.50,11,Sport,1,0,0,0,0,0,0,1654734036590,4061,4065,4063,4048,0,0,27,,,,,,,0,0,0,29.00,-9.00,-1226.00,-12.00,0.00,-1349.00,31,11.00,0.00,4.81,0.00,0.00,0.00,0,,,100,100,0,1,0,0,0,0,6,,,,,0.0,0.0,0.0,0.0,0.0,0.0,0
33.737637,-118.104798,1.10,1.40,0.00,0.49,1.10,1.10,0.67,0.77,3600,2022-06-09 00:20:36.690,2022-06-08 17:20:36.690,15,0,0,15.945,33.737633,-118.104800,0.00,0.00,0.00,-3.80,-0.50,-122.60,0,1,0,72,100,-6945,2516,15945,3081.50,11,Sport,1,0,0,0,0,0,0,1654734036690,4061,4065,4063,4048,0,0,27,,,,,,,0,0,0,38.00,-5.00,-1226.00,-21.00,0.00,-1349.00,31,11.00,0.00,4.87,0.00,0.00,0.00,0,,,100,100,0,1,0,0,0,0,6,,,,,9.0,0.0,0.0,0.0,0.0,0.0,0
33.737637,-118.104798,1.10,1.40,0.00,0.47,1.10,1.10,0.67,0.77,3700,2022-06-09 00:20:36.791,2022-06-08 17:20:36.791,15,0,0,15.742,33.737633,-118.104800,0.00,0.00,0.00,-4.10,-0.20,-122.60,0,1,0,72,100,-7965,2512,15742,3081.50,11,Sport,1,0,119,0,0,0,0,1654734036790,4061,4065,4063,4048,0,0,27,,,,,,,0,0,0,41.00,-2.00,-1226.00,-26.00,0.00,-1349.00,31,11.00,0.00,4.65,0.00,0.00,0.00,0,,,100,100,0,1,0,0,0,0,6,,,,,9.0,0.0,0.0,0.0,0.0,0.0,0
33.737637,-118.104798,1.10,1.40,0.00,0.47,1.10,1.10,0.67,0.77,3800,2022-06-09 00:20:36.891,2022-06-08 17:20:36.891,15,0,0,15.742,33.737633,-118.104800,0.00,0.00,0.00,-6.00,-0.10,-122.80,0,1,0,72,100,-7965,2512,15742,3081.50,11,Sport,1,0,392,8,0,0,0,1654734036890,4061,4065,4063,4048,0,0,27,,,,,,,0,0,0,60.00,-1.00,-1228.00,-31.00,0.00,-1349.00,31,11.00,0.00,4.73,0.00,0.00,0.00,0,,,100,100,0,1,0,0,0,0,6,,,,,9.0,0.0,0.0,0.0,0.0,0.0,0
33.737637,-118.104798,1.10,1.40,0.00,0.47,1.10,1.10,0.67,0.77,3899,2022-06-09 00:20:36.990,2022-06-08 17:20:36.990,15,0,0,15.742,33.737633,-118.104800,0.00,0.00,0.00,-13.90,-0.20,-122.90,0,1,0,72,100,-7965,2512,15742,3081.50,11,Sport,1,0,0,0,0,0,0,1654734036989,4061,4065,4063,4048,0,0,27,,,,,,,0,0,0,139.00,-2.00,-1229.00,-100.00,0.00,-1349.00,31,11.00,0.00,4.75,0.00,0.00,0.00,0,,,100,100,0,1,0,0,0,0,6,,,,,9.0,0.0,0.0,0.0,0.0,0.0,0
33.737637,-118.104798,1.10,1.40,0.00,0.47,1.10,1.10,0.67,0.77,4000,2022-06-09 00:20:37.090,2022-06-08 17:20:37.090,15,0,0,15.742,33.737633,-118.104800,0.00,0.00,0.00,-9.20,-0.40,-122.90,0,1,0,72,100,-7965,2512,15742,3081.50,11,Sport,1,0,0,0,0,0,0,1654734037090,4061,4065,4063,4048,0,0,27,,,,,,,0,0,0,92.00,-4.00,-1229.00,-115.00,0.00,-1349.00,31,11.00,0.00,4.72,0.00,0.00,0.00,0,,,100,100,0,1,0,0,0,0,6,,,,,0.0,0.0,0.0,0.0,0.0,0.0,0
33.737637,-118.104798,1.10,1.40,0.10,0.46,1.10,1.10,0.67,0.77,4101,2022-06-09 00:20:37.192,2022-06-08 17:20:37.192,15,0,0,15.742,33.737633,-118.104800,0.00,-0.10,0.00,-5.60,-0.30,-122.90,0,1,0,72,100,-7965,2512,15742,3081.50,11,Sport,1,0,0,0,0,0,0,1654734037191,4061,4065,4063,4048,0,0,27,,,,,,,0,0,0,56.00,-3.00,-1229.00,-55.00,0.00,-1349.00,31,11.00,1.00,4.61,0.00,-1.00,0.00,0,,,100,100,0,1,0,0,0,0,6,,,,,0.0,0.0,0.0,0.0,0.0,0.0,0
33.737637,-118.104798,1.10,1.40,0.00,0.45,1.10,1.10,0.67,0.77,4200,2022-06-09 00:20:37.290,2022-06-08 17:20:37.290,15,0,0,15.742,33.737633,-118.104800,0.00,0.00,0.00,-4.30,-0.20,-122.90,0,1,0,72,100,-7965,2512,15742,3081.50,11,Sport,1,0,263,0,0,0,0,1654734037290,4061,4065,4063,4048,0,0,27,,,,,,,0,0,0,43.00,-2.00,-1229.00,-32.00,0.00,-1349.00,31,11.00,0.00,4.51,0.00,0.00,0.00,0,,,100,100,0,1,0,0,0,0,6,,,,,0.0,0.0,0.0,0.0,0.0,0.0,0
33.737637,-118.104798,1.10,1.40,0.00,0.44,1.10,1.10,0.67,0.77,4300,2022-06-09 00:20:37.390,2022-06-08 17:20:37.390,15,0,0,15.742,33.737633,-118.104800,0.00,0.00,0.00,-9.70,0.50,-122.90,0,1,0,72,100,-7965,2512,15742,3081.50,11,Sport,1,0,478,163,0,0,0,1654734037390,4061,4065,4063,4048,0,0,27,,,,,,,0,0,0,97.00,5.00,-1229.00,-48.00,0.00,-1349.00,31,11.00,0.00,4.44,0.00,0.00,0.00,0,,,100,100,0,1,0,0,0,0,6,,,,,0.0,0.0,0.0,0.0,0.0,0.0,0
33.737637,-118.104798,1.10,1.40,0.14,0.42,1.10,1.10,0.67,0.77,4400,2022-06-09 00:20:37.491,2022-06-08 17:20:37.491,15,0,0,15.742,33.737633,-118.104800,-0.10,-0.10,0.00,-21.50,2.40,-123.30,0,1,0,72,100,-7965,2512,15742,3081.50,11,Sport,1,0,330,0,0,0,0,1654734037490,4061,4065,4063,4048,0,0,27,,,,,,,0,0,0,215.00,24.00,-1233.00,-164.00,0.00,-1349.00,31,11.00,1.41,4.16,-1.00,-1.00,0.00,0,,,100,100,0,1,0,0,0,0,6,,,,,0.0,0.0,0.0,0.0,0.0,0.0,0
33.737637,-118.104798,1.10,1.40,0.46,0.39,1.10,1.10,0.67,0.77,4499,2022-06-09 00:20:37.590,2022-06-08 17:20:37.590,15,0,0,15.742,33.737633,-118.104800,-0.20,-0.40,0.10,-25.60,1.70,-123.20,0,1,0,72,100,-7965,2512,15742,3081.50,11,Sport,1,0,0,0,0,0,0,1654734037589,4061,4065,4063,4048,0,0,27,,,,,,,0,0,0,256.00,17.00,-1232.00,-248.00,0.00,-1349.00,31,11.00,4.58,3.93,-2.00,-4.00,1.00,0,,,100,100,0,1,0,0,0,0,6,,,,,0.0,0.0,0.0,0.0,0.0,0.0,0
33.737636,-118.104799,1.10,1.40,0.76,0.35,1.10,1.10,0.76,0.77,4599,2022-06-09 00:20:37.690,2022-06-08 17:20:37.690,15,0,0,15.742,33.737633,-118.104800,-0.30,-0.70,0.00,-12.10,0.00,-122.80,0,1,0,72,100,-7965,2512,15742,3081.50,11,Sport,1,0,0,0,0,0,0,1654734037689,4061,4065,4063,4048,0,0,27,,,,,,,0,0,0,121.00,0.00,-1228.00,-157.00,0.00,-1349.00,31,11.00,7.62,3.49,-3.00,-7.00,0.00,0,,,100,100,0,1,0,0,0,0,6,,,,,0.0,0.0,0.0,0.0,0.0,0.0,0
33.737636,-118.104800,1.10,1.40,0.76,0.31,1.10,1.10,0.76,0.77,4700,2022-06-09 00:20:37.791,2022-06-08 17:20:37.791,15,0,0,15.742,33.737633,-118.104800,-0.30,-0.70,0.00,-1.50,-0.80,-123.00,0,1,0,72,100,-7965,2512,15742,3081.50,11,Sport,1,0,0,0,0,0,0,1654734037790,4061,4065,4063,4048,0,0,27,,,,,,,0,0,0,15.00,-8.00,-1230.00,-30.00,0.00,-1349.00,31,11.00,7.62,3.12,-3.00,-7.00,0.00,0,,,100,100,0,1,0,0,0,0,6,,,,,0.0,0.0,0.0,0.0,0.0,0.0,0
33.737636,-118.104801,1.10,1.50,0.67,0.29,1.10,1.10,0.76,0.77,4800,2022-06-09 00:20:37.890,2022-06-08 17:20:37.891,15,0,0,15.742,33.737633,-118.104800,-0.30,-0.60,0.00,2.50,-0.80,-122.90,0,1,0,72,100,-7965,2512,15742,3081.50,11,Sport,1,0,0,0,0,0,0,1654734037890,4061,4065,4063,4048,0,0,27,,,,,,,0,0,0,-25.00,-8.00,-1229.00,26.00,0.00,-1349.00,31,11.00,6.71,2.88,-3.00,-6.00,0.00,0,,,100,100,0,1,0,0,0,0,6,,,,,0.0,0.0,0.0,0.0,0.0,0.0,0
33.737636,-118.104801,1.10,1.40,0.54,0.28,1.10,1.10,0.76,0.77,4901,2022-06-09 00:20:37.991,2022-06-08 17:20:37.991,15,0,0,15.742,33.737633,-118.104800,-0.20,-0.50,0.00,3.80,-0.90,-123.00,0,1,0,72,100,-7965,2512,15742,3081.50,11,Sport,1,0,0,0,0,0,0,1654734037991,4061,4065,4063,4048,0,0,27,,,,,,,0,0,0,-38.00,-9.00,-1230.00,44.00,0.00,-1349.00,31,11.00,5.39,2.84,-2.00,-5.00,0.00,0,,,100,100,0,1,0,0,0,0,6,,,,,0.0,0.0,0.0,0.0,0.0,0.0,0
33.737636,-118.104802,1.10,1.40,0.36,0.30,1.10,1.10,0.76,0.77,5001,2022-06-09 00:20:38.092,2022-06-08 17:20:38.092,15,0,0,15.742,33.737633,-118.104800,-0.20,-0.30,0.00,3.00,-0.90,-123.00,0,1,0,72,100,-7965,2512,15742,3081.50,11,Sport,1,0,0,0,0,0,0,1654734038091,4061,4065,4063,4048,0,0,27,,,,,,,0,0,0,-30.00,-9.00,-1230.00,44.00,0.00,-1349.00,31,11.00,3.61,2.96,-2.00,-3.00,0.00,0,,,100,100,0,1,0,0,0,0,6,,,,,0.0,0.0,0.0,0.0,0.0,0.0,0
33.737636,-118.104802,1.10,1.40,0.32,0.35,1.10,1.10,0.76,0.77,5100,2022-06-09 00:20:38.191,2022-06-08 17:20:38.191,15,0,0,15.742,33.737633,-118.104800,-0.10,-0.30,0.00,1.50,-0.90,-122.90,0,1,0,72,100,-7965,2512,15742,3081.50,11,Sport,1,0,0,0,0,0,0,1654734038190,4061,4065,4063,4048,0,0,27,,,,,,,0,0,0,-15.00,-9.00,-1229.00,32.00,0.00,-1349.00,31,11.00,3.16,3.54,-1.00,-3.00,0.00,0,,,100,100,0,1,0,0,0,0,6,,,,,0.0,0.0,0.0,0.0,0.0,0.0,0
33.737636,-118.104803,1.10,1.40,0.20,0.37,1.10,1.10,0.76,0.77,5200,2022-06-09 00:20:38.290,2022-06-08 17:20:38.290,15,0,0,15.742,33.737633,-118.104800,0.00,-0.20,0.00,0.20,-1.00,-122.90,0,1,0,72,100,-7965,2512,15742,3081.50,11,Sport,1,0,0,0,0,0,0,1654734038290,4061,4065,4063,4048,0,0,27,,,,,,,0,0,0,-2.00,-10.00,-1229.00,19.00,0.00,-1349.00,31,11.00,2.00,3.72,0.00,-2.00,0.00,0,,,100,100,0,1,0,0,0,0,6,,,,,0.0,0.0,0.0,0.0,0.0,0.0,0
33.737636,-118.104803,1.10,1.40,0.10,0.39,1.10,1.10,0.76,0.77,5301,2022-06-09 00:20:38.392,2022-06-08 17:20:38.392,15,0,0,15.742,33.737633,-118.104800,0.00,-0.10,0.00,-0.90,-1.20,-122.90,0,1,0,72,100,-7965,2512,15742,3081.50,11,Sport,1,0,0,0,0,0,0,1654734038391,4061,4065,4063,4048,0,0,27,,,,,,,0,0,0,9.00,-12.00,-1229.00,8.00,0.00,-1349.00,31,11.00,1.00,3.85,0.00,-1.00,0.00,0,,,100,100,0,1,0,0,0,0,6,,,,,0.0,0.0,0.0,0.0,0.0,0.0,0
33.737636,-118.104803,1.10,1.40,0.10,0.40,1.10,1.10,0.76,0.77,5401,2022-06-09 00:20:38.491,2022-06-08 17:20:38.491,15,0,0,15.742,33.737633,-118.104800,0.00,-0.10,0.00,-2.30,-1.00,-122.80,0,1,0,72,100,-7965,2512,15742,3081.50,11,Sport,1,0,0,0,0,0,0,1654734038491,4061,4065,4063,4048,0,0,27,,,,,,,0,0,0,23.00,-10.00,-1228.00,-3.00,0.00,-1349.00,31,11.00,1.00,3.99,0.00,-1.00,0.00,0,,,100,100,0,1,0,0,0,0,6,,,,,0.0,0.0,0.0,0.0,0.0,0.0,0
33.737636,-118.104803,1.10,1.40,0.00,0.41,1.10,1.10,0.76,0.77,5501,2022-06-09 00:20:38.591,2022-06-08 17:20:38.591,15,0,0,15.742,33.737633,-118.104800,0.00,0.00,0.00,-3.10,-0.90,-122.80,0,1,0,72,100,-7965,2512,15742,3081.50,11,Sport,1,0,0,0,0,0,0,1654734038591,4061,4065,4063,4048,0,0,27,,,,,,,0,0,0,31.00,-9.00,-1228.00,-14.00,0.00,-1349.00,31,11.00,0.00,4.12,0.00,0.00,0.00,0,,,100,100,0,1,0,0,0,0,6,,,,,0.0,0.0,0.0,0.0,0.0,0.0,0
33.737636,-118.104803,1.10,1.40,0.00,0.42,1.10,1.10,0.76,0.77,5601,2022-06-09 00:20:38.692,2022-06-08 17:20:38.692,15,0,0,15.742,33.737633,-118.104800,0.00,0.00,0.00,-3.60,-0.80,-122.80,0,1,0,72,100,-7965,2512,15742,3081.50,11,Sport,1,0,0,0,0,0,0,1654734038691,4061,4065,4063,4048,0,0,27,,,,,,,0,0,0,36.00,-8.00,-1228.00,-20.00,0.00,-1349.00,31,11.00,0.00,4.21,0.00,0.00,0.00,0,,,100,100,0,1,0,0,0,0,6,,,,,0.0,0.0,0.0,0.0,0.0,0.0,0
33.737636,-118.104803,1.10,1.40,0.00,0.42,1.10,1.10,0.76,0.77,5701,2022-06-09 00:20:38.791,2022-06-08 17:20:38.791,15,0,0,15.780,33.737633,-118.104800,0.00,0.00,0.00,-3.60,-0.70,-122.80,0,1,0,71,100,-7915,2508,15780,3081.50,11,Sport,1,0,-117,0,0,0,0,1654734038791,4061,4065,4063,4048,0,0,27,,,,,,,0,0,0,36.00,-7.00,-1228.00,-25.00,0.00,-1349.00,31,11.00,0.00,4.18,0.00,0.00,0.00,0,,,100,100,0,1,0,0,0,0,6,,,,,0.0,0.0,0.0,0.0,0.0,0.0,0
33.737636,-118.104803,1.10,1.40,0.00,0.43,1.10,1.10,0.76,0.77,5801,2022-06-09 00:20:38.892,2022-06-08 17:20:38.892,15,0,0,15.780,33.737633,-118.104800,0.00,0.00,0.00,-2.30,-1.10,-122.80,0,1,0,71,100,-7915,2508,15780,3081.50,11,Sport,1,0,0,0,0,0,0,1654734038891,4061,4065,4063,4048,0,0,27,,,,,,,0,0,0,23.00,-11.00,-1228.00,-7.00,0.00,-1349.00,31,11.00,0.00,4.25,0.00,0.00,0.00,0,,,100,100,0,1,0,0,0,0,6,,,,,0.0,0.0,0.0,0.0,0.0,0.0,0
33.737636,-118.104803,1.10,1.40,0.00,0.40,1.10,1.10,0.76,0.77,5902,2022-06-09 00:20:38.992,2022-06-08 17:20:38.992,15,0,0,15.780,33.737633,-118.104800,0.00,0.00,0.00,-3.80,-1.00,-122.80,0,1,0,71,100,-7915,2508,15780,3081.50,11,Sport,1,0,0,0,0,0,0,1654734038992,4061,4065,4063,4048,0,0,27,,,,,,,0,0,0,38.00,-10.00,-1228.00,-20.00,0.00,-1349.00,31,11.00,0.00,4.04,0.00,0.00,0.00,0,,,100,100,0,1,0,0,0,0,6,,,,,0.0,0.0,0.0,0.0,0.0,0.0,0
33.737636,-118.104803,1.10,1.40,0.00,0.41,1.10,1.10,0.76,0.77,6001,2022-06-09 00:20:39.091,2022-06-08 17:20:39.091,15,0,0,15.780,33.737633,-118.104800,0.00,0.00,0.00,-4.60,-0.90,-122.80,0,1,0,71,100,-7915,2508,15780,3081.50,11,Sport,1,0,0,0,0,0,0,1654734039091,4061,4065,4063,4048,0,0,27,,,,,,,0,0,0,46.00,-9.00,-1228.00,-32.00,0.00,-1349.00,31,11.00,0.00,4.07,0.00,0.00,0.00,0,,,100,100,0,1,0,0,0,0,6,,,,,0.0,0.0,0.0,0.0,0.0,0.0,0
33.737636,-118.104803,1.10,1.40,0.00,0.41,1.10,1.10,0.76,0.77,6101,2022-06-09 00:20:39.192,2022-06-08 17:20:39.192,15,0,0,15.780,33.737633,-118.104800,0.00,0.00,0.00,-4.90,-1.00,-122.80,0,1,0,71,100,-7915,2508,15780,3081.50,11,Sport,1,0,0,0,0,0,0,1654734039191,4061,4065,4063,4048,0,0,27,,,,,,,0,0,0,49.00,-10.00,-1228.00,-34.00,0.00,-1349.00,31,11.00,0.00,4.11,0.00,0.00,0.00,0,,,100,100,0,1,0,0,0,0,6,,,,,0.0,0.0,0.0,0.0,0.0,0.0,0
33.737636,-118.104803,1.10,1.40,0.00,0.41,1.10,1.10,0.76,0.77,6201,2022-06-09 00:20:39.292,2022-06-08 17:20:39.292,15,0,0,15.780,33.737633,-118.104800,0.00,0.00,0.00,-5.20,-0.90,-122.80,0,1,0,71,100,-7915,2508,15780,3081.50,11,Sport,1,0,0,0,0,0,0,1654734039291,4061,4065,4063,4048,0,0,27,,,,,,,0,0,0,52.00,-9.00,-1228.00,-38.00,0.00,-1349.00,31,11.00,0.00,4.09,0.00,0.00,0.00,0,,,100,100,0,1,0,0,0,0,6,,,,,0.0,0.0,0.0,0.0,0.0,0.0,0
33.737636,-118.104803,1.10,1.40,0.00,0.41,1.10,1.10,0.76,0.77,6301,2022-06-09 00:20:39.392,2022-06-08 17:20:39.392,15,0,0,15.780,33.737633,-118.104800,0.00,0.00,0.00,-5.20,-0.90,-122.70,0,1,0,71,100,-7915,2508,15780,3081.50,11,Sport,1,0,0,0,0,0,0,1654734039391,4061,4065,4063,4048,0,0,27,,,,,,,0,0,0,52.00,-9.00,-1227.00,-40.00,0.00,-1349.00,31,11.00,0.00,4.13,0.00,0.00,0.00,0,,,100,100,0,1,0,0,0,0,6,,,,,0.0,0.0,0.0,0.0,0.0,0.0,0
33.737636,-118.104802,1.10,1.40,0.00,0.40,1.10,1.10,0.76,0.77,6401,2022-06-09 00:20:39.491,2022-06-08 17:20:39.492,15,0,0,15.780,33.737633,-118.104800,0.00,0.00,0.00,-5.30,-1.40,-122.70,0,1,0,71,100,-7915,2508,15780,3081.50,11,Sport,1,0,0,0,0,0,0,1654734039491,4061,4065,4063,4048,0,0,27,,,,,,,0,0,0,53.00,-14.00,-1227.00,-41.00,0.00,-1349.00,31,11.00,0.00,4.02,0.00,0.00,0.00,0,,,100,100,0,1,0,0,0,0,6,,,,,0.0,0.0,0.0,0.0,0.0,0.0,0
33.737636,-118.104802,1.10,1.40,0.10,0.41,1.10,1.10,0.76,0.77,6502,2022-06-09 00:20:39.592,2022-06-08 17:20:39.592,15,0,0,15.780,33.737633,-118.104800,0.00,0.10,0.00,-5.20,-1.30,-122.80,0,1,0,71,100,-7915,2508,15780,3081.50,11,Sport,1,0,0,0,0,0,0,1654734039592,4061,4065,4063,4048,0,0,27,,,,,,,0,0,0,52.00,-13.00,-1228.00,-40.00,0.00,-1349.00,31,11.00,1.00,4.05,0.00,1.00,0.00,0,,,100,100,0,1,0,0,0,0,6,,,,,0.0,0.0,0.0,0.0,0.0,0.0,0
33.737636,-118.104802,1.10,1.40,0.10,0.38,1.10,1.10,0.76,0.77,6602,2022-06-09 00:20:39.692,2022-06-08 17:20:39.692,15,0,0,15.780,33.737633,-118.104800,0.00,0.10,0.00,-5.70,-1.00,-122.90,0,1,0,71,100,-7915,2508,15780,3081.50,11,Sport,1,0,0,0,0,0,0,1654734039692,4061,4065,4063,4048,0,0,27,,,,,,,0,0,0,57.00,-10.00,-1229.00,-43.00,0.00,-1349.00,31,11.00,1.00,3.82,0.00,1.00,0.00,0,,,100,100,0,1,0,0,0,0,6,,,,,0.0,0.0,0.0,0.0,0.0,0.0,0
33.737636,-118.104802,1.10,1.40,0.10,0.38,1.10,1.10,0.76,0.77,6701,2022-06-09 00:20:39.791,2022-06-08 17:20:39.791,15,0,0,15.780,33.737633,-118.104800,0.00,0.10,0.00,-5.50,-1.00,-122.90,0,1,0,71,100,-7915,2508,15780,3081.50,11,Sport,1,0,0,0,0,0,0,1654734039791,4061,4065,4063,4048,0,0,27,,,,,,,0,0,0,55.00,-10.00,-1229.00,-44.00,0.00,-1349.00,31,11.00,1.00,3.76,0.00,1.00,0.00,0,,,100,100,0,1,0,0,0,0,6,,,,,0.0,0.0,0.0,0.0,0.0,0.0,0
33.737636,-118.104802,1.00,1.40,0.10,0.37,1.10,1.10,0.76,0.77,6802,2022-06-09 00:20:39.892,2022-06-08 17:20:39.892,15,0,0,15.780,33.737633,-118.104800,0.00,0.10,0.00,-6.00,-0.30,-122.80,0,1,0,71,100,-7915,2508,15780,3081.50,11,Sport,1,0,0,0,0,0,0,1654734039892,4061,4065,4063,4048,0,0,27,,,,,,,0,0,0,60.00,-3.00,-1228.00,-46.00,0.00,-1349.00,31,10.00,1.00,3.71,0.00,1.00,0.00,0,,,100,100,0,1,0,0,0,0,6,,,,,0.0,0.0,0.0,0.0,0.0,0.0,0
33.737636,-118.104801,1.00,1.40,0.10,0.35,1.10,1.10,0.76,0.77,6901,2022-06-09 00:20:39.992,2022-06-08 17:20:39.992,15,0,0,15.780,33.737633,-118.104800,0.00,0.10,0.00,-6.40,0.50,-123.60,0,1,0,71,100,-7915,2508,15780,3081.50,11,Sport,1,0,0,0,24,-647,0,1654734039991,4061,4065,4063,4048,0,0,27,,,,,,,0,0,0,64.00,5.00,-1236.00,-52.00,0.00,-1349.00,31,10.00,1.00,3.54,0.00,1.00,0.00,0,,,100,100,0,1,0,0,0,0,6,,,,,0.0,0.0,0.0,0.0,0.0,0.0,0
33.737636,-118.104801,1.00,1.40,0.10,0.35,1.10,1.10,0.76,0.77,7000,2022-06-09 00:20:40.091,2022-06-08 17:20:40.091,15,0,0,15.780,33.737633,-118.104800,0.00,0.10,0.00,-6.20,2.30,-133.30,0,1,0,71,100,-7915,2508,15780,3081.50,11,Sport,1,0,0,0,30,-660,0,1654734040090,4061,4065,4063,4048,0,0,27,,,,,,,0,0,0,62.00,23.00,-1333.00,-53.00,1.00,-1419.00,31,10.00,1.00,3.46,0.00,1.00,0.00,0,,,100,100,0,1,0,0,0,0,6,,,,,0.0,0.0,0.0,0.0,0.0,0.0,0
33.737636,-118.104801,1.00,1.30,0.10,0.34,1.10,1.10,0.76,0.77,7101,2022-06-09 00:20:40.191,2022-06-08 17:20:40.191,15,0,0,15.780,33.737633,-118.104800,0.00,0.10,0.00,-5.70,3.60,-146.80,0,1,0,71,100,-7915,2508,15780,3081.50,11,Sport,1,0,0,0,0,-481,0,1654734040191,4061,4065,4063,4048,0,0,27,,,,,,,0,0,0,57.00,36.00,-1468.00,-48.00,1.00,-1573.00,31,10.00,1.00,3.38,0.00,1.00,0.00,0,,,100,100,0,1,0,0,0,0,6,,,,,0.0,0.0,0.0,0.0,0.0,0.0,0
33.737636,-118.104801,1.00,1.30,0.10,0.33,1.10,1.10,0.76,0.77,7203,2022-06-09 00:20:40.293,2022-06-08 17:20:40.293,15,0,0,15.780,33.737633,-118.104800,0.00,0.10,0.00,-5.40,3.50,-156.60,0,1,0,71,100,-7915,2508,15780,3081.50,11,Sport,1,0,0,0,0,15,0,1654734040293,4061,4065,4063,4048,0,0,27,,,,,,,0,0,0,54.00,35.00,-1566.00,-43.00,1.00,-1717.00,31,10.00,1.00,3.30,0.00,1.00,0.00,0,,,100,100,0,1,0,0,0,0,6,,,,,0.0,0.0,0.0,0.0,0.0,0.0,0
33.737636,-118.104801,1.00,1.40,0.10,0.33,1.10,1.10,0.76,0.77,7303,2022-06-09 00:20:40.393,2022-06-08 17:20:40.393,15,0,0,15.780,33.737633,-118.104800,0.00,0.10,0.00,-4.70,3.30,-158.40,0,1,0,71,100,-7915,2508,15780,3081.50,11,Sport,1,0,0,0,0,660,0,1654734040393,4061,4065,4063,4048,0,0,27,,,,,,,0,0,0,47.00,33.00,-1584.00,-39.00,0.00,-1735.00,31,10.00,1.00,3.30,0.00,1.00,0.00,0,,,100,100,0,1,0,0,0,0,6,,,,,0.0,0.0,0.0,0.0,0.0,0.0,0
33.737636,-118.104801,1.00,1.40,0.00,0.32,1.10,1.10,0.76,0.77,7402,2022-06-09 00:20:40.492,2022-06-08 17:20:40.493,15,0,0,15.780,33.737633,-118.104800,0.00,0.00,0.00,-4.50,3.00,-149.60,0,1,0,71,100,-7915,2508,15780,3081.50,11,Sport,1,0,0,0,0,660,0,1654734040492,4061,4065,4063,4048,0,0,27,,,,,,,0,0,0,45.00,30.00,-1496.00,-35.00,-1.00,-1657.00,31,10.00,0.00,3.21,0.00,0.00,0.00,0,,,100,100,0,1,0,0,0,0,6,,,,,0.0,0.0,0.0,0.0,0.0,0.0,0
33.737636,-118.104801,1.00,1.40,0.00,0.29,1.10,1.10,0.76,0.77,7503,2022-06-09 00:20:40.593,2022-06-08 17:20:40.594,15,0,0,15.780,33.737633,-118.104800,0.00,0.00,0.00,-4.80,2.90,-136.40,0,1,0,71,100,-7915,2508,15780,3081.50,11,Sport,1,0,0,0,0,660,0,1654734040593,4061,4065,4063,4048,0,0,27,,,,,,,0,0,0,48.00,29.00,-1364.00,-37.00,-1.00,-1501.00,31,10.00,0.00,2.88,0.00,0.00,0.00,0,,,100,100,0,1,0,0,0,0,6,,,,,0.0,0.0,0.0,0.0,0.0,0.0,0
33.737636,-118.104800,1.00,1.40,0.00,0.28,1.10,1.10,0.76,0.77,7602,2022-06-09 00:20:40.692,2022-06-08 17:20:40.692,15,0,0,15.780,33.737633,-118.104800,0.00,0.00,0.00,-4.90,2.00,-121.80,0,1,0,71,100,-7915,2508,15780,3081.50,11,Sport,1,0,0,0,0,581,0,1654734040692,4061,4065,4063,4048,0,0,27,,,,,,,0,0,0,49.00,20.00,-1218.00,-38.00,-1.00,-1341.00,31,10.00,0.00,2.78,0.00,0.00,0.00,0,,,100,100,0,1,0,0,0,0,6,,,,,0.0,0.0,0.0,0.0,0.0,0.0,0
33.737636,-118.104800,1.00,1.40,0.00,0.29,1.10,1.10,0.76,0.77,7702,2022-06-09 00:20:40.792,2022-06-08 17:20:40.792,15,0,0,15.877,33.737633,-118.104800,0.00,0.00,0.00,-5.50,2.00,-110.60,0,1,0,71,100,-6858,2504,15877,3081.50,11,Sport,1,0,0,0,0,0,0,1654734040792,4061,4065,4063,4048,0,0,27,,,,,,,0,0,0,55.00,20.00,-1106.00,-39.00,-1.00,-1193.00,31,10.00,0.00,2.90,0.00,0.00,0.00,0,,,100,100,0,1,0,0,0,0,6,,,,,0.0,0.0,0.0,0.0,0.0,0.0,0
33.737636,-118.104800,1.00,1.30,0.00,0.29,1.10,1.10,0.76,0.77,7802,2022-06-09 00:20:40.892,2022-06-08 17:20:40.892,15,0,0,15.877,33.737633,-118.104800,0.00,0.00,0.00,-5.90,1.00,-107.30,0,1,0,71,100,-6858,2504,15877,3081.50,11,Sport,1,0,0,0,0,-44,0,1654734040892,4061,4065,4063,4048,0,0,27,,,,,,,0,0,0,59.00,10.00,-1073.00,-44.00,0.00,-1168.00,31,10.00,0.00,2.91,0.00,0.00,0.00,0,,,100,100,0,1,0,0,0,0,6,,,,,0.0,0.0,0.0,0.0,0.0,0.0,0
33.737636,-118.104800,1.00,1.30,0.10,0.30,1.10,1.10,0.76,0.77,7901,2022-06-09 00:20:40.992,2022-06-08 17:20:40.992,15,0,0,15.877,33.737633,-118.104800,0.10,0.00,0.00,-5.80,-0.20,-107.30,0,1,0,71,100,-6858,2504,15877,3081.50,11,Sport,1,0,0,0,89,-660,0,1654734040991,4061,4065,4063,4048,0,0,27,,,,,,,0,0,0,58.00,-2.00,-1073.00,-45.00,0.00,-1169.00,31,10.00,1.00,3.02,1.00,0.00,0.00,0,,,100,100,0,1,0,0,0,0,6,,,,,0.0,0.0,0.0,0.0,0.0,0.0,0
33.737636,-118.104800,1.00,1.30,0.10,0.31,1.10,1.10,0.76,0.77,8002,2022-06-09 00:20:41.093,2022-06-08 17:20:41.093,15,0,0,15.877,33.737633,-118.104800,0.10,0.00,0.00,-5.70,-0.50,-116.90,0,1,0,71,100,-6858,2504,15877,3081.50,11,Sport,1,0,0,0,100,-660,0,1654734041092,4061,4065,4063,4048,0,0,27,,,,,,,0,0,0,57.00,-5.00,-1169.00,-48.00,1.00,-1257.00,31,10.00,1.00,3.14,1.00,0.00,0.00,0,,,100,100,0,1,0,0,0,0,6,,,,,0.0,0.0,0.0,0.0,0.0,0.0,0
33.737637,-118.104800,1.00,1.30,0.10,0.36,1.10,1.10,0.76,0.77,8102,2022-06-09 00:20:41.192,2022-06-08 17:20:41.192,15,0,0,15.877,33.737633,-118.104800,0.10,0.00,0.00,-5.80,-0.60,-130.50,0,1,0,71,100,-6858,2504,15877,3081.50,11,Sport,1,0,0,0,13,-647,0,1654734041192,4061,4065,4063,4048,0,0,27,,,,,,,0,0,0,58.00,-6.00,-1305.00,-47.00,1.00,-1414.00,31,10.00,1.00,3.60,1.00,0.00,0.00,0,,,100,100,0,1,0,0,0,0,6,,,,,0.0,0.0,0.0,0.0,0.0,0.0,0
33.737637,-118.104800,1.00,1.30,0.10,0.37,1.10,1.10,0.76,0.77,8202,2022-06-09 00:20:41.293,2022-06-08 17:20:41.293,15,0,0,15.877,33.737633,-118.104800,0.10,0.00,0.00,-6.20,-1.00,-141.50,0,1,0,71,100,-6858,2504,15877,3081.50,11,Sport,1,0,0,0,0,0,0,1654734041292,3967,3968,3959,3943,0,0,27,,,,,,,0,0,0,62.00,-10.00,-1415.00,-52.00,1.00,-1564.00,31,10.00,1.00,3.75,1.00,0.00,0.00,0,,,100,100,0,1,0,0,0,0,6,,,,,0.0,0.0,0.0,0.0,0.0,0.0,0
33.737637,-118.104800,1.00,1.30,0.00,0.39,1.10,1.10,0.76,0.77,8302,2022-06-09 00:20:41.392,2022-06-08 17:20:41.392,15,0,0,15.877,33.737633,-118.104800,0.00,0.00,0.00,-6.10,-0.70,-144.70,0,1,0,71,100,-6858,2504,15877,3081.50,11,Sport,1,0,0,0,0,0,0,1654734041392,3967,3968,3959,3943,0,0,27,,,,,,,0,0,0,61.00,-7.00,-1447.00,-52.00,0.00,-1592.00,31,10.00,0.00,3.89,0.00,0.00,0.00,0,,,100,100,0,1,0,0,0,0,6,,,,,0.0,0.0,0.0,0.0,0.0,0.0,0
33.737637,-118.104800,1.00,1.40,0.00,0.40,1.10,1.10,0.76,0.77,8403,2022-06-09 00:20:41.493,2022-06-08 17:20:41.493,15,0,0,15.877,33.737633,-118.104800,0.00,0.00,0.00,-6.50,-0.20,-146.00,0,1,0,71,100,-6858,2504,15877,3081.50,11,Sport,1,0,0,0,0,378,0,1654734041493,3967,3968,3959,3943,0,0,27,,,,,,,0,0,0,65.00,-2.00,-1460.00,-55.00,0.00,-1592.00,31,10.00,0.00,3.97,0.00,0.00,0.00,0,,,100,100,0,1,0,0,0,0,6,,,,,0.0,0.0,0.0,0.0,0.0,0.0,0
33.737637,-118.104800,1.00,1.30,0.00,0.38,1.10,1.10,0.76,0.77,8503,2022-06-09 00:20:41.593,2022-06-08 17:20:41.593,15,0,0,15.877,33.737633,-118.104800,0.00,0.00,0.00,-6.40,-0.60,-141.20,0,1,0,71,100,-6858,2504,15877,3081.50,11,Sport,1,0,0,0,0,660,0,1654734041593,3967,3968,3959,3943,0,0,27,,,,,,,0,0,0,64.00,-6.00,-1412.00,-57.00,0.00,-1568.00,31,10.00,0.00,3.76,0.00,0.00,0.00,0,,,100,100,0,1,0,0,0,0,6,,,,,0.0,0.0,0.0,0.0,0.0,0.0,0
33.737637,-118.104800,1.00,1.30,0.00,0.37,1.10,1.10,0.76,0.77,8604,2022-06-09 00:20:41.694,2022-06-08 17:20:41.694,15,0,0,15.877,33.737633,-118.104800,0.00,0.00,0.00,-5.70,-0.30,-128.90,0,1,0,71,100,-6858,2504,15877,3081.50,11,Sport,1,0,0,0,0,660,0,1654734041694,3967,3968,3959,3943,0,0,27,,,,,,,0,0,0,57.00,-3.00,-1289.00,-48.00,-1.00,-1430.00,31,10.00,0.00,3.74,0.00,0.00,0.00,0,,,100,100,0,1,0,0,0,0,6,,,,,0.0,0.0,0.0,0.0,0.0,0.0,0
33.737637,-118.104800,1.00,1.30,0.00,0.38,1.10,1.10,0.76,0.77,8703,2022-06-09 00:20:41.793,2022-06-08 17:20:41.793,15,0,0,15.877,33.737633,-118.104800,0.00,0.00,0.00,-5.70,0.00,-114.90,0,1,0,71,100,-6858,2504,15877,3081.50,11,Sport,1,0,0,0,0,0,0,1654734041793,3967,3968,3959,3943,0,0,27,,,,,,,0,0,0,57.00,0.00,-1149.00,-44.00,-1.00,-1271.00,31,10.00,0.00,3.81,0.00,0.00,0.00,0,,,100,100,0,1,0,0,0,0,6,,,,,0.0,0.0,0.0,0.0,0.0,0.0,0
33.737637,-118.104800,1.00,1.30,0.00,0.38,1.10,1.10,0.76,0.77,8802,2022-06-09 00:20:41.893,2022-06-08 17:20:41.893,15,0,0,15.877,33.737633,-118.104800,0.00,0.00,0.00,-6.20,0.20,-109.50,0,1,0,71,100,-6858,2504,15877,3081.50,11,Sport,1,0,0,0,0,0,0,1654734041892,3967,3968,3959,3943,0,0,27,,,,,,,0,0,0,62.00,2.00,-1095.00,-49.00,0.00,-1186.00,31,10.00,0.00,3.79,0.00,0.00,0.00,0,,,100,100,0,1,0,0,0,0,6,,,,,0.0,0.0,0.0,0.0,0.0,0.0,0
33.737637,-118.104800,1.00,1.30,0.00,0.39,1.10,1.10,0.76,0.77,8902,2022-06-09 00:20:41.993,2022-06-08 17:20:41.993,15,0,0,15.877,33.737633,-118.104800,0.00,0.00,0.00,-6.00,-0.50,-107.60,0,1,0,71,100,-6858,2504,15877,3081.50,11,Sport,1,0,0,0,0,0,0,1654734041992,3967,3968,3959,3943,0,0,27,,,,,,,0,0,0,60.00,-5.00,-1076.00,-47.00,0.00,-1184.00,31,10.00,0.00,3.85,0.00,0.00,0.00,0,,,100,100,0,1,0,0,0,0,6,,,,,0.0,0.0,0.0,0.0,0.0,0.0,0
33.737637,-118.104800,1.00,1.30,0.00,0.39,1.10,1.10,0.76,0.77,9003,2022-06-09 00:20:42.094,2022-06-08 17:20:42.094,15,0,0,15.877,33.737633,-118.104800,0.00,0.00,0.00,-5.90,-1.40,-106.90,0,1,0,71,100,-6858,2504,15877,3081.50,11,Sport,1,0,0,0,0,0,0,1654734042093,3967,3968,3959,3943,0,0,27,,,,,,,0,0,0,59.00,-14.00,-1069.00,-46.00,0.00,-1184.00,31,10.00,0.00,3.89,0.00,0.00,0.00,0,,,100,100,0,1,0,0,0,0,6,,,,,0.0,0.0,0.0,0.0,0.0,0.0,0
33.737637,-118.104800,1.00,1.30,0.00,0.41,1.10,1.10,0.76,0.77,9103,2022-06-09 00:20:42.194,2022-06-08 17:20:42.194,15,0,0,15.877,33.737633,-118.104800,0.00,0.00,0.00,-5.70,-2.50,-106.60,0,1,0,71,100,-6858,2504,15877,3081.50,11,Sport,1,0,0,0,0,0,0,1654734042193,3967,3968,3959,3943,0,0,27,,,,,,,0,0,0,57.00,-25.00,-1066.00,-45.00,0.00,-1184.00,31,10.00,0.00,4.14,0.00,0.00,0.00,0,,,100,100,0,1,0,0,0,0,6,,,,,0.0,0.0,0.0,0.0,0.0,0.0,0
33.737637,-118.104800,1.00,1.30,0.00,0.42,1.10,1.10,0.76,0.77,9204,2022-06-09 00:20:42.295,2022-06-08 17:20:42.295,15,0,0,15.877,33.737633,-118.104800,0.00,0.00,0.00,-5.70,-3.10,-106.30,0,1,0,71,100,-6858,2504,15877,3081.50,11,Sport,1,0,0,0,0,0,0,1654734042294,3967,3968,3959,3943,0,0,27,,,,,,,0,0,0,57.00,-31.00,-1063.00,-45.00,0.00,-1184.00,31,10.00,0.00,4.23,0.00,0.00,0.00,0,,,100,100,0,1,0,0,0,0,6,,,,,0.0,0.0,0.0,0.0,0.0,0.0,0
33.737637,-118.104800,1.00,1.30,0.00,0.43,1.10,1.10,0.76,0.77,9304,2022-06-09 00:20:42.394,2022-06-08 17:20:42.394,15,0,0,15.877,33.737633,-118.104800,0.00,0.00,0.00,-5.50,-3.60,-106.10,0,1,0,71,100,-6858,2504,15877,3081.50,11,Sport,1,0,0,0,0,0,0,1654734042394,3967,3968,3959,3943,0,0,27,,,,,,,0,0,0,55.00,-36.00,-1061.00,-44.00,0.00,-1184.00,31,10.00,0.00,4.33,0.00,0.00,0.00,0,,,100,100,0,1,0,0,0,0,6,,,,,0.0,0.0,0.0,0.0,0.0,0.0,0
33.737637,-118.104800,1.00,1.30,0.00,0.44,1.10,1.10,0.76,0.77,9403,2022-06-09 00:20:42.493,2022-06-08 17:20:42.493,15,0,0,15.877,33.737633,-118.104800,0.00,0.00,0.00,-5.40,-3.50,-106.20,0,1,0,71,100,-6858,2504,15877,3081.50,11,Sport,1,0,0,0,0,-422,0,1654734042493,3967,3968,3959,3943,0,0,27,,,,,,,0,0,0,54.00,-35.00,-1062.00,-43.00,0.00,-1184.00,31,10.00,0.00,4.40,0.00,0.00,0.00,0,,,100,100,0,1,0,0,0,0,6,,,,,0.0,0.0,0.0,0.0,0.0,0.0,0
33.737638,-118.104800,1.00,1.30,0.00,0.47,1.10,1.10,0.76,0.77,9502,2022-06-09 00:20:42.592,2022-06-08 17:20:42.592,15,0,0,15.877,33.737633,-118.104800,0.00,0.00,0.00,-5.60,-3.00,-110.00,0,1,0,71,100,-6858,2504,15877,3081.50,11,Sport,1,0,0,0,0,0,0,1654734042592,3967,3968,3959,3943,0,0,27,,,,,,,0,0,0,56.00,-30.00,-1100.00,-44.00,0.00,-1213.00,31,10.00,0.00,4.69,0.00,0.00,0.00,0,,,100,100,0,1,0,0,0,0,6,,,,,0.0,0.0,0.0,0.0,0.0,0.0,0
33.737638,-118.104800,1.00,1.30,0.00,0.48,1.10,1.10,0.76,0.77,9604,2022-06-09 00:20:42.694,2022-06-08 17:20:42.694,15,0,0,15.877,33.737633,-118.104800,0.00,0.00,0.00,-5.20,-3.20,-111.10,0,1,0,71,100,-6858,2504,15877,3081.50,11,Sport,1,0,0,0,0,0,0,1654734042694,3967,3968,3959,3943,0,0,27,,,,,,,0,0,0,52.00,-32.00,-1111.00,-42.00,0.00,-1240.00,31,10.00,0.00,4.77,0.00,0.00,0.00,0,,,100,100,0,1,0,0,0,0,6,,,,,0.0,0.0,0.0,0.0,0.0,0.0,0
33.737638,-118.104800,1.00,1.30,0.00,0.47,1.10,1.10,0.76,0.77,9704,2022-06-09 00:20:42.794,2022-06-08 17:20:42.794,15,0,0,15.822,33.737633,-118.104800,0.00,0.00,0.00,-5.20,-3.30,-111.60,0,1,0,71,100,-7170,2500,15822,3081.50,11,Sport,1,0,0,0,0,0,0,1654734042794,3967,3968,3959,3943,0,0,27,,,,,,,0,0,0,52.00,-33.00,-1116.00,-41.00,0.00,-1241.00,31,10.00,0.00,4.71,0.00,0.00,0.00,0,,,100,100,0,1,0,0,0,0,6,,,,,0.0,0.0,0.0,0.0,0.0,0.0,0
33.737638,-118.104800,1.00,1.30,0.00,0.48,1.10,1.10,0.76,0.77,9804,2022-06-09 00:20:42.894,2022-06-08 17:20:42.894,15,0,0,15.822,33.737633,-118.104800,0.00,0.00,0.00,-5.40,-3.30,-111.70,0,1,0,71,100,-7170,2500,15822,3081.50,11,Sport,1,0,0,0,0,-24,0,1654734042894,3967,3968,3959,3943,0,0,27,,,,,,,0,0,0,54.00,-33.00,-1117.00,-42.00,0.00,-1241.00,31,10.00,0.00,4.75,0.00,0.00,0.00,0,,,100,100,0,1,0,0,0,0,6,,,,,0.0,0.0,0.0,0.0,0.0,0.0,0
33.737638,-118.104800,1.00,1.30,0.00,0.48,1.10,1.10,0.76,0.77,9904,2022-06-09 00:20:42.994,2022-06-08 17:20:42.994,15,0,0,15.822,33.737633,-118.104800,0.00,0.00,0.00,-5.50,-2.70,-112.80,0,1,0,71,100,-7170,2500,15822,3081.50,11,Sport,1,0,0,0,0,-23,0,1654734042994,3967,3968,3959,3943,0,0,27,,,,,,,0,0,0,55.00,-27.00,-1128.00,-44.00,0.00,-1243.00,31,10.00,0.00,4.81,0.00,0.00,0.00,0,,,100,100,0,1,0,0,0,0,6,,,,,0.0,0.0,0.0,0.0,0.0,0.0,0
33.737638,-118.104800,1.00,1.30,0.00,0.48,1.10,1.10,0.76,0.77,10003,2022-06-09 00:20:43.093,2022-06-08 17:20:43.093,15,0,0,15.822,33.737633,-118.104800,0.00,0.00,0.00,-5.40,-2.60,-114.00,0,1,0,71,100,-7170,2500,15822,3081.50,11,Sport,1,0,0,0,0,0,0,1654734043093,3967,3968,3959,3943,0,0,27,,,,,,,0,0,0,54.00,-26.00,-1140.00,-43.00,0.00,-1268.00,31,10.00,0.00,4.83,0.00,0.00,0.00,0,,,100,100,0,1,0,0,0,0,6,,,,,0.0,0.0,0.0,0.0,0.0,0.0,0
33.737638,-118.104800,1.00,1.30,0.00,0.49,1.10,1.10,0.76,0.77,10103,2022-06-09 00:20:43.194,2022-06-08 17:20:43.194,15,0,0,15.822,33.737633,-118.104800,0.00,0.00,0.00,-5.50,-2.80,-114.40,0,1,0,71,100,-7170,2500,15822,3081.50,11,Sport,1,0,0,0,0,0,0,1654734043193,3967,3968,3959,3943,0,0,27,,,,,,,0,0,0,55.00,-28.00,-1144.00,-44.00,0.00,-1269.00,31,10.00,0.00,4.87,0.00,0.00,0.00,0,,,100,100,0,1,0,0,0,0,6,,,,,0.0,0.0,0.0,0.0,0.0,0.0,0
33.737638,-118.104800,1.00,1.30,0.00,0.49,1.10,1.10,0.76,0.77,10205,2022-06-09 00:20:43.295,2022-06-08 17:20:43.295,15,0,0,15.822,33.737633,-118.104800,0.00,0.00,0.00,-5.60,-2.70,-114.50,0,1,0,71,100,-7170,2500,15822,3081.50,11,Sport,1,0,0,0,0,0,0,1654734043295,3967,3968,3959,3943,0,0,27,,,,,,,0,0,0,56.00,-27.00,-1145.00,-44.00,0.00,-1269.00,31,10.00,0.00,4.90,0.00,0.00,0.00,0,,,100,100,0,1,0,0,0,0,6,,,,,0.0,0.0,0.0,0.0,0.0,0.0,0
33.737638,-118.104800,1.00,1.30,0.00,0.48,1.10,1.10,0.76,0.77,10303,2022-06-09 00:20:43.394,2022-06-08 17:20:43.394,15,0,0,15.822,33.737633,-118.104800,0.00,0.00,0.00,-5.50,-2.70,-114.60,0,1,0,71,100,-7170,2500,15822,3081.50,11,Sport,1,0,0,0,0,0,0,1654734043393,3967,3968,3959,3943,0,0,27,,,,,,,0,0,0,55.00,-27.00,-1146.00,-45.00,0.00,-1269.00,31,10.00,0.00,4.85,0.00,0.00,0.00,0,,,100,100,0,1,0,0,0,0,6,,,,,0.0,0.0,0.0,0.0,0.0,0.0,0
33.737638,-118.104800,1.00,1.30,0.00,0.48,1.10,1.10,0.76,0.77,10403,2022-06-09 00:20:43.494,2022-06-08 17:20:43.494,15,0,0,15.822,33.737633,-118.104800,0.00,0.00,0.00,-5.60,-2.50,-114.60,0,1,0,71,100,-7170,2500,15822,3081.50,11,Sport,1,0,0,0,0,0,0,1654734043493,3967,3968,3959,3943,0,0,27,,,,,,,0,0,0,56.00,-25.00,-1146.00,-45.00,0.00,-1269.00,31,10.00,0.00,4.85,0.00,0.00,0.00,0,,,100,100,0,1,0,0,0,0,6,,,,,0.0,0.0,0.0,0.0,0.0,0.0,0
33.737638,-118.104800,1.00,1.30,0.00,0.48,1.10,1.10,0.76,0.77,10504,2022-06-09 00:20:43.594,2022-06-08 17:20:43.594,15,0,0,15.822,33.737633,-118.104800,0.00,0.00,0.00,-5.60,-2.40,-114.70,0,1,0,71,100,-7170,2500,15822,3081.50,11,Sport,1,0,0,0,0,0,0,1654734043594,3967,3968,3959,3943,0,0,27,,,,,,,0,0,0,56.00,-24.00,-1147.00,-46.00,0.00,-1269.00,31,10.00,0.00,4.79,0.00,0.00,0.00,0,,,100,100,0,1,0,0,0,0,6,,,,,0.0,0.0,0.0,0.0,0.0,0.0,0
33.737638,-118.104800,1.00,1.30,0.00,0.48,1.10,1.10,0.76,0.77,10604,2022-06-09 00:20:43.695,2022-06-08 17:20:43.695,15,0,0,15.822,33.737633,-118.104800,0.00,0.00,0.00,-5.50,-2.10,-114.70,0,1,0,71,100,-7170,2500,15822,3081.50,11,Sport,1,0,0,0,0,0,0,1654734043694,3967,3968,3959,3943,0,0,27,,,,,,,0,0,0,55.00,-21.00,-1147.00,-45.00,0.00,-1269.00,31,10.00,0.00,4.76,0.00,0.00,0.00,0,,,100,100,0,1,0,0,0,0,6,,,,,0.0,0.0,0.0,0.0,0.0,0.0,0
33.737638,-118.104800,1.00,1.30,0.00,0.47,1.10,1.10,0.76,0.77,10704,2022-06-09 00:20:43.795,2022-06-08 17:20:43.795,15,0,0,15.822,33.737633,-118.104800,0.00,0.00,0.00,-5.40,-1.90,-114.70,0,1,0,71,100,-7170,2500,15822,3081.50,11,Sport,1,0,0,0,0,0,0,1654734043794,3967,3968,3959,3943,0,0,27,,,,,,,0,0,0,54.00,-19.00,-1147.00,-44.00,0.00,-1269.00,31,10.00,0.00,4.72,0.00,0.00,0.00,0,,,100,100,0,1,0,0,0,0,6,,,,,0.0,0.0,0.0,0.0,0.0,0.0,0
33.737638,-118.104800,1.00,1.30,0.00,0.47,1.10,1.10,0.76,0.77,10804,2022-06-09 00:20:43.895,2022-06-08 17:20:43.895,15,0,0,15.822,33.737633,-118.104800,0.00,0.00,0.00,-5.30,-1.90,-114.80,0,1,0,71,100,-7170,2500,15822,3081.50,11,Sport,1,0,0,0,0,0,0,1654734043894,3967,3968,3959,3943,0,0,27,,,,,,,0,0,0,53.00,-19.00,-1148.00,-42.00,0.00,-1269.00,31,10.00,0.00,4.67,0.00,0.00,0.00,0,,,100,100,0,1,0,0,0,0,6,,,,,0.0,0.0,0.0,0.0,0.0,0.0,0
33.737637,-118.104800,1.00,1.30,0.00,0.45,1.10,1.10,0.76,0.77,10904,2022-06-09 00:20:43.994,2022-06-08 17:20:43.994,15,0,0,15.822,33.737633,-118.104800,0.00,0.00,0.00,-5.50,-1.40,-114.90,0,1,0,71,100,-7170,2500,15822,3081.50,11,Sport,1,0,0,0,0,0,0,1654734043994,3967,3968,3959,3943,0,0,27,,,,,,,0,0,0,55.00,-14.00,-1149.00,-44.00,0.00,-1269.00,31,10.00,0.00,4.52,0.00,0.00,0.00,0,,,100,100,0,1,0,0,0,0,6,,,,,0.0,0.0,0.0,0.0,0.0,0.0,0
33.737637,-118.104800,1.00,1.30,0.00,0.44,1.10,1.10,0.76,0.77,11005,2022-06-09 00:20:44.095,2022-06-08 17:20:44.095,15,0,0,15.822,33.737633,-118.104800,0.00,0.00,0.00,-5.30,-0.70,-114.80,0,1,0,71,100,-7170,2500,15822,3081.50,11,Sport,1,0,0,0,0,0,0,1654734044095,3967,3968,3959,3943,0,0,27,,,,,,,0,0,0,53.00,-7.00,-1148.00,-44.00,0.00,-1269.00,31,10.00,0.00,4.44,0.00,0.00,0.00,0,,,100,100,0,1,0,0,0,0,6,,,,,0.0,0.0,0.0,0.0,0.0,0.0,0
33.737637,-118.104800,1.00,1.30,0.00,0.44,1.10,1.10,0.76,0.77,11104,2022-06-09 00:20:44.194,2022-06-08 17:20:44.194,15,0,0,15.822,33.737633,-118.104800,0.00,0.00,0.00,-5.00,-0.70,-114.80,0,1,0,71,100,-7170,2500,15822,3081.50,11,Sport,1,0,0,0,0,0,0,1654734044194,3967,3968,3959,3943,0,0,27,,,,,,,0,0,0,50.00,-7.00,-1148.00,-40.00,0.00,-1269.00,31,10.00,0.00,4.35,0.00,0.00,0.00,0,,,100,100,0,1,0,0,0,0,6,,,,,0.0,0.0,0.0,0.0,0.0,0.0,0
33.737637,-118.104800,1.00,1.30,0.00,0.43,1.10,1.10,0.76,0.77,11191,2022-06-09 00:20:44.281,2022-06-08 17:20:44.281,15,0,0,15.822,33.737633,-118.104800,0.00,0.00,0.00,-4.80,-1.00,-114.90,0,1,0,71,100,-7170,2500,15822,3081.50,11,Sport,1,0,0,0,0,0,0,1654734044281,3967,3968,3959,3943,0,0,27,,,,,,,0,0,0,48.00,-10.00,-1149.00,-37.00,0.00,-1269.00,31,10.00,0.00,4.29,0.00,0.00,0.00,0,,,100,100,0,1,0,0,0,0,6,,,,,0.0,0.0,0.0,0.0,0.0,0.0,0
33.737637,-118.104801,1.00,1.30,0.00,0.42,1.10,1.10,0.76,0.77,11305,2022-06-09 00:20:44.395,2022-06-08 17:20:44.396,15,0,0,15.822,33.737633,-118.104800,0.00,0.00,0.00,-4.70,-0.90,-114.90,0,1,0,71,100,-7170,2500,15822,3081.50,11,Sport,1,0,0,0,0,0,0,1654734044395,3967,3968,3959,3943,0,0,27,,,,,,,0,0,0,47.00,-9.00,-1149.00,-37.00,0.00,-1269.00,31,10.00,0.00,4.15,0.00,0.00,0.00,0,,,100,100,0,1,0,0,0,0,6,,,,,0.0,0.0,0.0,0.0,0.0,0.0,0
33.737637,-118.104801,1.00,1.30,0.00,0.41,1.10,1.10,0.76,0.77,11405,2022-06-09 00:20:44.496,2022-06-08 17:20:44.496,15,0,0,15.822,33.737633,-118.104800,0.00,0.00,0.00,-5.10,-1.20,-114.90,0,1,0,71,100,-7170,2500,15822,3081.50,11,Sport,1,0,0,0,0,0,0,1654734044495,3967,3968,3959,3943,0,0,27,,,,,,,0,0,0,51.00,-12.00,-1149.00,-39.00,0.00,-1269.00,31,10.00,0.00,4.09,0.00,0.00,0.00,0,,,100,100,0,1,0,0,0,0,6,,,,,0.0,0.0,0.0,0.0,0.0,0.0,0
33.737637,-118.104801,1.00,1.30,0.00,0.41,1.10,1.10,0.76,0.77,11505,2022-06-09 00:20:44.596,2022-06-08 17:20:44.596,15,0,0,15.822,33.737633,-118.104800,0.00,0.00,0.00,-5.20,-0.90,-114.90,0,1,0,71,100,-7170,2500,15822,3081.50,11,Sport,1,0,0,0,0,0,0,1654734044595,3967,3968,3959,3943,0,0,27,,,,,,,0,0,0,52.00,-9.00,-1149.00,-40.00,0.00,-1269.00,31,10.00,0.00,4.11,0.00,0.00,0.00,0,,,100,100,0,1,0,0,0,0,6,,,,,0.0,0.0,0.0,0.0,0.0,0.0,0
33.737637,-118.104801,1.00,1.30,0.00,0.41,1.10,1.10,0.76,0.77,11607,2022-06-09 00:20:44.697,2022-06-08 17:20:44.697,15,0,0,15.822,33.737633,-118.104800,0.00,0.00,0.00,-5.40,-0.80,-114.80,0,1,0,71,100,-7170,2500,15822,3081.50,11,Sport,1,0,0,0,0,0,0,1654734044697,3967,3968,3959,3943,0,0,27,,,,,,,0,0,0,54.00,-8.00,-1148.00,-42.00,0.00,-1269.00,31,10.00,0.00,4.06,0.00,0.00,0.00,0,,,100,100,0,1,0,0,0,0,6,,,,,0.0,0.0,0.0,0.0,0.0,0.0,0
33.737637,-118.104801,1.00,1.30,0.00,0.39,1.10,1.10,0.76,0.77,11707,2022-06-09 00:20:44.798,2022-06-08 17:20:44.798,15,0,0,15.838,33.737633,-118.104800,0.00,0.00,0.00,-5.30,-1.00,-114.80,0,1,0,71,100,-6761,2496,15838,3091.50,11,Sport,1,0,0,0,0,0,0,1654734044797,3967,3968,3959,3943,0,0,27,,,,,,,0,0,0,53.00,-10.00,-1148.00,-44.00,0.00,-1269.00,31,10.00,0.00,3.89,0.00,0.00,0.00,0,,,100,100,0,1,0,0,0,0,6,,,,,0.0,0.0,0.0,0.0,0.0,0.0,0
33.737637,-118.104801,1.00,1.30,0.00,0.38,1.10,1.10,0.76,0.77,11806,2022-06-09 00:20:44.897,2022-06-08 17:20:44.897,15,0,0,15.838,33.737633,-118.104800,0.00,0.00,0.00,-5.00,-0.80,-114.80,0,1,0,71,100,-6761,2496,15838,3091.50,11,Sport,1,0,0,0,0,0,0,1654734044896,3967,3968,3959,3943,0,0,27,,,,,,,0,0,0,50.00,-8.00,-1148.00,-42.00,0.00,-1269.00,31,10.00,0.00,3.84,0.00,0.00,0.00,0,,,100,100,0,1,0,0,0,0,6,,,,,0.0,0.0,0.0,0.0,0.0,0.0,0
33.737637,-118.104801,1.00,1.30,0.00,0.38,1.10,1.10,0.76,0.77,11907,2022-06-09 00:20:44.997,2022-06-08 17:20:44.997,15,0,0,15.838,33.737633,-118.104800,0.00,0.00,0.00,-4.90,-0.80,-114.80,0,1,0,71,100,-6761,2496,15838,3091.50,11,Sport,1,0,0,0,0,0,0,1654734044997,3967,3968,3959,3943,0,0,27,,,,,,,0,0,0,49.00,-8.00,-1148.00,-40.00,0.00,-1269.00,31,10.00,0.00,3.80,0.00,0.00,0.00,0,,,100,100,0,1,0,0,0,0,6,,,,,0.0,0.0,0.0,0.0,0.0,0.0,0
33.737637,-118.104801,1.00,1.30,0.00,0.37,1.10,1.10,0.76,0.77,12007,2022-06-09 00:20:45.097,2022-06-08 17:20:45.097,15,0,0,15.838,33.737633,-118.104800,0.00,0.00,0.00,-4.60,-0.70,-114.90,0,1,0,71,100,-6761,2496,15838,3091.50,11,Sport,1,0,0,0,0,0,0,1654734045097,3967,3968,3959,3943,0,0,27,,,,,,,0,0,0,46.00,-7.00,-1149.00,-37.00,0.00,-1269.00,31,10.00,0.00,3.74,0.00,0.00,0.00,0,,,100,100,0,1,0,0,0,0,6,,,,,0.0,0.0,0.0,0.0,0.0,0.0,0
33.737637,-118.104801,1.00,1.30,0.00,0.37,1.10,1.10,0.76,0.77,12107,2022-06-09 00:20:45.198,2022-06-08 17:20:45.198,15,0,0,15.838,33.737633,-118.104800,0.00,0.00,0.00,-4.40,-0.50,-114.90,0,1,0,71,100,-6761,2496,15838,3091.50,11,Sport,1,0,0,0,0,0,0,1654734045197,3967,3968,3959,3943,0,0,27,,,,,,,0,0,0,44.00,-5.00,-1149.00,-34.00,0.00,-1269.00,31,10.00,0.00,3.69,0.00,0.00,0.00,0,,,100,100,0,1,0,0,0,0,6,,,,,0.0,0.0,0.0,0.0,0.0,0.0,0
33.737637,-118.104801,1.00,1.30,0.00,0.36,1.10,1.10,0.76,0.77,12209,2022-06-09 00:20:45.299,2022-06-08 17:20:45.299,15,0,0,15.838,33.737633,-118.104800,0.00,0.00,0.00,-4.60,-0.40,-114.80,0,1,0,71,100,-6761,2496,15838,3091.50,11,Sport,1,0,0,0,0,0,0,1654734045299,3967,3968,3959,3943,0,0,27,,,,,,,0,0,0,46.00,-4.00,-1148.00,-35.00,0.00,-1269.00,31,10.00,0.00,3.64,0.00,0.00,0.00,0,,,100,100,0,1,0,0,0,0,6,,,,,0.0,0.0,0.0,0.0,0.0,0.0,0
33.737637,-118.104801,1.00,1.30,0.00,0.36,1.10,1.10,0.76,0.77,12307,2022-06-09 00:20:45.397,2022-06-08 17:20:45.398,15,0,0,15.838,33.737633,-118.104800,0.00,0.00,0.00,-4.70,-0.60,-114.80,0,1,0,71,100,-6761,2496,15838,3091.50,11,Sport,1,0,0,0,0,0,0,1654734045397,3967,3968,3959,3943,0,0,27,,,,,,,0,0,0,47.00,-6.00,-1148.00,-37.00,0.00,-1269.00,31,10.00,0.00,3.60,0.00,0.00,0.00,0,,,100,100,0,1,0,0,0,0,6,,,,,0.0,0.0,0.0,0.0,0.0,0.0,0
33.737636,-118.104801,1.00,1.30,0.00,0.36,1.10,1.10,0.76,0.77,12408,2022-06-09 00:20:45.499,2022-06-08 17:20:45.499,15,0,0,15.838,33.737633,-118.104800,0.00,0.00,0.00,-5.00,-0.40,-114.70,0,1,0,71,100,-6761,2496,15838,3091.50,11,Sport,1,0,0,0,0,0,0,1654734045498,3967,3968,3959,3943,0,0,27,,,,,,,0,0,0,50.00,-4.00,-1147.00,-39.00,0.00,-1269.00,31,10.00,0.00,3.56,0.00,0.00,0.00,0,,,100,100,0,1,0,0,0,0,6,,,,,0.0,0.0,0.0,0.0,0.0,0.0,0
33.737636,-118.104801,1.00,1.30,0.00,0.36,1.10,1.10,0.76,0.77,12491,2022-06-09 00:20:45.581,2022-06-08 17:20:45.581,15,0,0,15.838,33.737633,-118.104800,0.00,0.00,0.00,-5.10,-0.20,-114.70,0,1,0,71,100,-6761,2496,15838,3091.50,11,Sport,1,0,0,0,0,0,0,1654734045581,3967,3968,3959,3943,0,0,27,,,,,,,0,0,0,51.00,-2.00,-1147.00,-39.00,0.00,-1269.00,31,10.00,0.00,3.55,0.00,0.00,0.00,0,,,100,100,0,1,0,0,0,0,6,,,,,8.7,0.0,0.0,0.0,0.0,0.0,0
33.737636,-118.104801,1.00,1.30,0.00,0.35,1.10,1.10,0.76,0.77,12605,2022-06-09 00:20:45.696,2022-06-08 17:20:45.696,15,0,0,15.838,33.737633,-118.104800,0.00,0.00,0.00,-5.20,-0.40,-114.70,0,1,0,71,100,-6761,2496,15838,3091.50,11,Sport,1,0,0,0,0,0,0,1654734045695,3967,3968,3959,3943,0,0,27,,,,,,,0,0,0,52.00,-4.00,-1147.00,-39.00,0.00,-1269.00,31,10.00,0.00,3.53,0.00,0.00,0.00,0,,,100,100,0,1,0,0,0,0,6,,,,,8.7,0.0,0.0,0.0,0.0,0.0,0
33.737636,-118.104801,1.00,1.30,0.00,0.35,1.10,1.10,0.76,0.77,12707,2022-06-09 00:20:45.797,2022-06-08 17:20:45.797,15,0,0,15.838,33.737633,-118.104800,0.00,0.00,0.00,-5.10,-0.50,-114.70,0,1,0,71,100,-6761,2496,15838,3091.50,11,Sport,1,0,0,0,0,0,0,1654734045797,3967,3968,3959,3943,0,0,27,,,,,,,0,0,0,51.00,-5.00,-1147.00,-41.00,0.00,-1269.00,31,10.00,0.00,3.47,0.00,0.00,0.00,0,,,100,100,0,1,0,0,0,0,6,,,,,0.0,0.0,0.0,0.0,0.0,0.0,0
33.737636,-118.104801,1.00,1.30,0.00,0.35,1.10,1.10,0.76,0.77,12805,2022-06-09 00:20:45.895,2022-06-08 17:20:45.895,15,0,0,15.838,33.737633,-118.104800,0.00,0.00,0.00,-5.10,-0.40,-114.70,0,1,0,71,100,-6761,2496,15838,3091.50,11,Sport,1,0,0,0,0,0,0,1654734045895,3967,3968,3959,3943,0,0,27,,,,,,,0,0,0,51.00,-4.00,-1147.00,-41.00,0.00,-1269.00,31,10.00,0.00,3.45,0.00,0.00,0.00,0,,,100,100,0,1,0,0,0,0,6,,,,,0.0,0.0,0.0,0.0,0.0,0.0,0
33.737636,-118.104801,1.00,1.30,0.00,0.34,1.10,1.10,0.76,0.77,12906,2022-06-09 00:20:45.996,2022-06-08 17:20:45.996,15,0,0,15.838,33.737633,-118.104800,0.00,0.00,0.00,-4.90,-0.60,-114.90,0,1,0,71,100,-6761,2496,15838,3091.50,11,Sport,1,0,0,0,0,0,0,1654734045996,3967,3968,3959,3943,0,0,27,,,,,,,0,0,0,49.00,-6.00,-1149.00,-42.00,0.00,-1269.00,31,10.00,0.00,3.38,0.00,0.00,0.00,0,,,100,100,0,1,0,0,0,0,6,,,,,0.0,0.0,0.0,0.0,0.0,0.0,0
33.737636,-118.104801,1.00,1.30,0.00,0.34,1.10,1.10,0.76,0.77,13006,2022-06-09 00:20:46.096,2022-06-08 17:20:46.096,15,0,0,15.838,33.737633,-118.104800,0.00,0.00,0.00,-4.70,-0.70,-114.90,0,1,0,71,100,-6761,2496,15838,3091.50,11,Sport,1,0,0,0,0,0,0,1654734046096,3967,3968,3959,3943,0,0,27,,,,,,,0,0,0,47.00,-7.00,-1149.00,-38.00,0.00,-1269.00,31,10.00,0.00,3.37,0.00,0.00,0.00,0,,,100,100,0,1,0,0,0,0,6,,,,,0.0,0.0,0.0,0.0,0.0,0.0,0
33.737636,-118.104801,1.00,1.30,0.00,0.33,1.10,1.10,0.76,0.77,13104,2022-06-09 00:20:46.195,2022-06-08 17:20:46.195,15,0,0,15.838,33.737633,-118.104800,0.00,0.00,0.00,-5.00,-1.00,-114.90,0,1,0,71,100,-6761,2496,15838,3091.50,11,Sport,1,0,0,0,0,0,0,1654734046194,3967,3968,3959,3943,0,0,27,,,,,,,0,0,0,50.00,-10.00,-1149.00,-37.00,0.00,-1269.00,31,10.00,0.00,3.28,0.00,0.00,0.00,0,,,100,100,0,1,0,0,0,0,6,,,,,0.0,0.0,0.0,0.0,0.0,0.0,0
33.737636,-118.104801,1.00,1.30,0.00,0.33,1.10,1.10,0.76,0.77,13205,2022-06-09 00:20:46.295,2022-06-08 17:20:46.296,15,0,0,15.838,33.737633,-118.104800,0.00,0.00,0.00,-5.10,-1.30,-115.00,0,1,0,71,100,-6761,2496,15838,3091.50,11,Sport,1,0,0,0,0,0,0,1654734046295,3967,3968,3959,3943,0,0,27,,,,,,,0,0,0,51.00,-13.00,-1150.00,-40.00,0.00,-1269.00,31,10.00,0.00,3.28,0.00,0.00,0.00,0,,,100,100,0,1,0,0,0,0,6,,,,,0.0,0.0,0.0,0.0,0.0,0.0,0
33.737636,-118.104801,1.00,1.30,0.00,0.34,1.10,1.10,0.76,0.77,13306,2022-06-09 00:20:46.396,2022-06-08 17:20:46.396,15,0,0,15.838,33.737633,-118.104800,0.00,0.00,0.00,-5.50,-1.50,-114.80,0,1,0,71,100,-6761,2496,15838,3091.50,11,Sport,1,0,0,0,0,0,0,1654734046396,3967,3968,3959,3943,0,0,27,,,,,,,0,0,0,55.00,-15.00,-1148.00,-44.00,0.00,-1269.00,31,10.00,0.00,3.35,0.00,0.00,0.00,0,,,100,100,0,1,0,0,0,0,6,,,,,0.0,0.0,0.0,0.0,0.0,0.0,0
