latitude,longitude,altitude(m),ultrasonicHeight(m),speed(mps),distance(m),max_altitude(m),max_ascent(m),max_speed(mps),max_distance(m),time(millisecond),datetime(utc),datetime(local),satellites,pressure(Pa),temperature(F),voltage(v),home_latitude,home_longitude,velocityX(mps),velocityY(mps),velocityZ(mps),pitch(deg),roll(deg),yaw(deg),powerlevel,isflying,istakingphoto,remainPowerPercent,remainLifePercent,currentCurrent,currentElectricity,currentVoltage,batteryTemperature,dischargeCount,flightmode,isMotorsOn,isTakingVideo,Rc_elevator,Rc_aileron,Rc_throttle,Rc_rudder,Rc_gyro,timestamp,Battery_Cell1,Battery_Cell2,Battery_Cell3,Battery_Cell4,Battery_Cell5,Battery_Cell6,Dronetype,AppVersion,Planename,FlyControllerSerialNumber,RemoteSerialNumber,BatterySerialNumber,CENTER_BATTERY.productDate,CENTER_BATTERY.serialNo,CENTER_BATTERY.fullCapacity,CENTER_BATTERY.productDateRaw,pitchRaw,rollRaw,yawRaw,gimbalPitchRaw,gimbalRollRaw,gimbalYawRaw,flyState,altitudeRaw,speedRaw,distanceRaw,velocityXRaw,velocityYRaw,velocityZRaw,data_reuse,App_Tip,App_Warning,downlinkSignalQuality,uplinkSignalQuality,transmissionChannel,rcModeSwitch,rcHome,rcPause,rcTransform,rcJoystickMode,appMode,FlyControllerSerialNumber_legacy,RemoteSerialNumber_legacy,BatterySerialNumber_legacy,Battery2SerialNumber,frontAvoidDist,backAvoidDist,rightAvoidDist,leftAvoidDist,upAvoidDist,downAvoidDist,isBrakingToAvoid
33.737638,-118.104804,0.40,0.70,0.62,0.58,0.40,0.40,0.62,0.58,0,2022-06-09 00:49:18.888,2022-06-08 17:49:18.888,17,0,0,15.097,33.737633,-118.104806,0.30,0.20,-0.50,-6.90,-4.30,-123.70,0,1,0,40,100,-4468,1410,15097,3081.50,11,TakeOff,1,0,0,0,0,0,0,1654735758887,3777,3776,3776,3768,0,0,27,Litchi_iOS_2.14.0,Brian-MAVIC 2,163DFCK001S13F,1DUCFB800104PR,0P2AFBV5340045,,0,3535,0,69.00,-43.00,-1237.00,9.00,0.00,-1395.00,11,4.00,6.16,5.75,3.00,2.00,-5.00,0,,,100,100,0,2,0,0,0,1,0,(null),(null),(null),(null),0.0,0.0,0.0,0.0,0.0,0.0,0
33.737638,-118.104804,0.50,0.80,0.62,0.62,0.50,0.50,0.62,0.62,100,2022-06-09 00:49:18.987,2022-06-08 17:49:18.987,17,0,0,15.097,33.737633,-118.104806,0.30,0.20,-0.50,-6.80,-3.60,-123.80,0,1,0,40,100,-4468,1410,15097,3081.50,11,TakeOff,1,0,0,0,0,0,0,1654735758987,3777,3776,3776,3768,0,0,27,,,,,,,0,0,0,68.00,-36.00,-1238.00,11.00,0.00,-1394.00,11,5.00,6.16,6.19,3.00,2.00,-5.00,0,,,100,100,0,2,0,0,0,1,0,,,,,0.0,0.0,0.0,0.0,0.0,0.0,0
33.737639,-118.104804,0.50,0.80,0.62,0.65,0.50,0.50,0.62,0.65,202,2022-06-09 00:49:19.090,2022-06-08 17:49:19.090,17,0,0,15.097,33.737633,-118.104806,0.30,0.20,-0.50,-6.90,-3.20,-123.80,0,1,0,40,100,-4468,1410,15097,3081.50,11,TakeOff,1,0,0,0,0,0,0,1654735759089,3777,3776,3776,3768,0,0,27,,,,,,,0,0,0,69.00,-32.00,-1238.00,11.00,0.00,-1392.00,11,5.00,6.16,6.55,3.00,2.00,-5.00,0,,,100,100,0,2,0,0,0,1,0,,,,,0.0,0.0,0.0,0.0,0.0,0.0,0
33.737639,-118.104803,0.60,0.90,0.57,0.67,0.60,0.60,0.62,0.67,300,2022-06-09 00:49:19.187,2022-06-08 17:49:19.187,17,0,0,15.097,33.737633,-118.104806,0.20,0.20,-0.50,-6.90,-2.70,-123.80,0,1,0,40,100,-4468,1410,15097,3081.50,11,TakeOff,1,0,0,0,0,0,0,1654735759187,3777,3776,3776,3768,0,0,27,,,,,,,0,0,0,69.00,-27.00,-1238.00,11.00,0.00,-1391.00,11,6.00,5.74,6.73,2.00,2.00,-5.00,0,,,100,100,0,2,0,0,0,1,0,,,,,0.0,0.0,0.0,0.0,0.0,0.0,0
33.737639,-118.104803,0.60,0.90,0.55,0.70,0.60,0.60,0.62,0.70,400,2022-06-09 00:49:19.287,2022-06-08 17:49:19.287,17,0,0,14.964,33.737633,-118.104806,0.20,0.10,-0.50,-6.80,-2.30,-123.70,0,1,0,40,100,-6087,1409,14964,3081.50,11,TakeOff,1,0,0,0,0,0,0,1654735759287,3777,3776,3776,3768,0,0,27,,,,,,,0,0,0,68.00,-23.00,-1237.00,13.00,0.00,-1390.00,11,6.00,5.48,7.03,2.00,1.00,-5.00,0,,,100,100,0,2,0,0,0,1,0,,,,,0.0,0.0,0.0,0.0,0.0,0.0,0
33.737639,-118.104803,0.70,1.00,0.55,0.71,0.70,0.70,0.62,0.71,500,2022-06-09 00:49:19.387,2022-06-08 17:49:19.387,17,0,0,14.964,33.737633,-118.104806,0.20,0.10,-0.50,-5.90,-2.70,-123.90,0,1,0,40,100,-6087,1409,14964,3081.50,11,TakeOff,1,0,0,0,0,0,0,1654735759387,3777,3776,3776,3768,0,0,27,,,,,,,0,0,0,59.00,-27.00,-1239.00,21.00,0.00,-1389.00,11,7.00,5.48,7.11,2.00,1.00,-5.00,0,,,100,100,0,2,0,0,0,1,0,,,,,0.0,0.0,0.0,0.0,0.0,0.0,0
33.737639,-118.104803,0.80,1.10,0.55,0.74,0.80,0.80,0.62,0.74,601,2022-06-09 00:49:19.489,2022-06-08 17:49:19.489,17,0,0,14.964,33.737633,-118.104806,0.20,0.10,-0.50,-5.50,-3.20,-123.80,0,1,0,40,100,-6087,1409,14964,3081.50,11,TakeOff,1,0,0,0,0,0,0,1654735759488,3777,3776,3776,3768,0,0,27,,,,,,,0,0,0,55.00,-32.00,-1238.00,26.00,0.00,-1388.00,11,8.00,5.48,7.36,2.00,1.00,-5.00,0,,,100,100,0,2,0,0,0,1,0,,,,,0.0,0.0,0.0,0.0,0.0,0.0,0
33.737639,-118.104803,0.80,1.10,0.55,0.76,0.80,0.80,0.62,0.76,697,2022-06-09 00:49:19.584,2022-06-08 17:49:19.584,17,0,0,14.964,33.737633,-118.104806,0.20,0.10,-0.50,-5.70,-3.10,-123.90,0,1,0,40,100,-6087,1409,14964,3081.50,11,WP,1,0,0,0,0,0,0,1654735759584,3777,3776,3776,3768,0,0,27,,,,,,,0,0,0,57.00,-31.00,-1239.00,24.00,0.00,-1387.00,14,8.00,5.48,7.62,2.00,1.00,-5.00,0,,,100,100,0,2,0,0,0,1,0,,,,,0.0,0.0,0.0,0.0,0.0,0.0,0
33.737640,-118.104802,0.90,1.20,0.42,0.79,0.90,0.90,0.62,0.79,803,2022-06-09 00:49:19.691,2022-06-08 17:49:19.691,17,0,0,14.964,33.737633,-118.104806,0.10,0.10,-0.40,-5.70,-2.90,-123.90,0,1,0,40,100,-6087,1409,14964,3081.50,11,WP,1,0,0,0,0,0,0,1654735759690,3777,3776,3776,3768,0,0,27,,,,,,,0,0,0,57.00,-29.00,-1239.00,23.00,0.00,-1385.00,14,9.00,4.24,7.87,1.00,1.00,-4.00,0,,,100,100,0,2,0,0,0,1,0,,,,,0.0,0.0,0.0,0.0,0.0,0.0,0
33.737640,-118.104802,0.90,1.20,0.42,0.80,0.90,0.90,0.62,0.80,903,2022-06-09 00:49:19.790,2022-06-08 17:49:19.790,17,0,0,14.964,33.737633,-118.104806,0.10,0.10,-0.40,-5.80,-2.70,-123.90,0,1,0,40,100,-6087,1409,14964,3081.50,11,WP,1,0,0,0,0,0,0,1654735759790,3777,3776,3776,3768,0,0,27,,,,,,,0,0,0,58.00,-27.00,-1239.00,23.00,0.00,-1383.00,14,9.00,4.24,7.98,1.00,1.00,-4.00,0,,,100,100,0,2,0,0,0,1,0,,,,,0.0,0.0,0.0,0.0,0.0,0.0,0
33.737640,-118.104802,1.00,1.30,0.42,0.82,1.00,1.00,0.62,0.82,1000,2022-06-09 00:49:19.888,2022-06-08 17:49:19.888,17,0,0,14.964,33.737633,-118.104806,0.10,0.10,-0.40,-6.80,-2.90,-123.80,0,1,0,40,100,-6087,1409,14964,3081.50,11,WP,1,0,0,0,0,0,0,1654735759887,3777,3776,3776,3768,0,0,27,,,,,,,0,0,0,68.00,-29.00,-1238.00,19.00,0.00,-1382.00,14,10.00,4.24,8.21,1.00,1.00,-4.00,0,,,100,100,0,2,0,0,0,1,0,,,,,0.0,0.0,0.0,0.0,0.0,0.0,0
33.737640,-118.104802,1.00,1.30,0.42,0.83,1.00,1.00,0.62,0.83,1103,2022-06-09 00:49:19.991,2022-06-08 17:49:19.991,17,0,0,14.964,33.737633,-118.104806,0.10,0.10,-0.40,-7.50,-3.40,-123.90,0,1,0,40,100,-6087,1409,14964,3081.50,11,WP,1,0,0,0,0,0,0,1654735759990,3777,3776,3776,3768,0,0,27,,,,,,,0,0,0,75.00,-34.00,-1239.00,7.00,0.00,-1379.00,14,10.00,4.24,8.30,1.00,1.00,-4.00,0,,,100,100,0,2,0,0,0,1,0,,,,,0.0,0.0,0.0,0.0,0.0,0.0,0
33.737640,-118.104802,1.10,1.40,0.51,0.85,1.10,1.10,0.62,0.85,1203,2022-06-09 00:49:20.091,2022-06-08 17:49:20.091,17,0,0,14.964,33.737633,-118.104806,0.00,0.10,-0.50,-7.10,-3.20,-123.90,0,1,0,40,100,-6087,1409,14964,3081.50,11,WP,1,0,0,0,0,0,0,1654735760090,3777,3776,3776,3768,0,0,27,,,,,,,0,0,0,71.00,-32.00,-1239.00,11.00,0.00,-1377.00,14,11.00,5.10,8.47,0.00,1.00,-5.00,0,,,100,100,0,2,0,0,0,1,0,,,,,0.0,0.0,0.0,0.0,0.0,0.0,0
33.737640,-118.104802,1.10,1.40,0.51,0.84,1.10,1.10,0.62,0.85,1301,2022-06-09 00:49:20.188,2022-06-08 17:49:20.188,17,0,0,14.964,33.737633,-118.104806,0.00,0.10,-0.50,-7.20,-2.00,-123.90,0,1,0,40,100,-6087,1409,14964,3081.50,11,WP,1,0,0,0,0,0,0,1654735760188,3777,3776,3776,3768,0,0,27,,,,,,,0,0,0,72.00,-20.00,-1239.00,9.00,0.00,-1375.00,14,11.00,5.10,8.43,0.00,1.00,-5.00,0,,,100,100,0,2,0,0,0,1,0,,,,,0.0,0.0,0.0,0.0,0.0,0.0,0
33.737640,-118.104802,1.20,1.50,0.51,0.85,1.20,1.20,0.62,0.85,1401,2022-06-09 00:49:20.288,2022-06-08 17:49:20.288,17,0,0,14.964,33.737633,-118.104806,0.00,0.10,-0.50,-6.60,-1.40,-124.00,0,1,0,40,100,-6087,1409,14964,3081.50,11,WP,1,0,0,0,0,0,0,1654735760288,3777,3776,3776,3768,0,0,27,,,,,,,0,0,0,66.00,-14.00,-1240.00,14.00,0.00,-1374.00,14,12.00,5.10,8.51,0.00,1.00,-5.00,0,,,100,100,0,2,0,0,0,1,0,,,,,0.0,0.0,0.0,0.0,0.0,0.0,0
33.737640,-118.104801,1.20,1.50,0.50,0.86,1.20,1.20,0.62,0.86,1554,2022-06-09 00:49:20.441,2022-06-08 17:49:20.441,17,0,0,14.964,33.737633,-118.104806,0.00,0.00,-0.50,-6.30,-1.50,-124.00,0,1,0,40,100,-6087,1409,14964,3081.50,11,WP,1,0,0,0,0,0,0,1654735760441,3777,3776,3776,3768,0,0,27,,,,,,,0,0,0,63.00,-15.00,-1240.00,19.00,0.00,-1372.00,14,12.00,5.00,8.61,0.00,0.00,-5.00,0,,,100,100,0,2,0,0,0,1,0,,,,,0.0,0.0,0.0,0.0,0.0,0.0,0
33.737640,-118.104801,1.30,1.60,0.50,0.87,1.30,1.30,0.62,0.87,1601,2022-06-09 00:49:20.488,2022-06-08 17:49:20.488,17,0,0,14.964,33.737633,-118.104806,0.00,0.00,-0.50,-6.40,-1.40,-124.00,0,1,0,40,100,-6087,1409,14964,3081.50,11,WP,1,0,0,0,0,0,0,1654735760488,3777,3776,3776,3768,0,0,27,,,,,,,0,0,0,64.00,-14.00,-1240.00,18.00,0.00,-1370.00,14,13.00,5.00,8.68,0.00,0.00,-5.00,0,,,100,100,0,2,0,0,0,1,0,,,,,0.0,0.0,0.0,0.0,0.0,0.0,0
33.737640,-118.104801,1.30,1.60,0.40,0.87,1.30,1.30,0.62,0.87,1701,2022-06-09 00:49:20.588,2022-06-08 17:49:20.588,17,0,0,14.964,33.737633,-118.104806,0.00,0.00,-0.40,-6.70,-1.20,-124.00,0,1,0,40,100,-6087,1409,14964,3081.50,11,WP,1,0,0,0,0,0,0,1654735760588,3777,3776,3776,3768,0,0,27,,,,,,,0,0,0,67.00,-12.00,-1240.00,15.00,0.00,-1369.00,14,13.00,4.00,8.69,0.00,0.00,-4.00,0,,,100,100,0,2,0,0,0,1,0,,,,,0.0,0.0,0.0,0.0,0.0,0.0,0
33.737640,-118.104801,1.40,1.70,0.40,0.87,1.40,1.40,0.62,0.87,1800,2022-06-09 00:49:20.688,2022-06-08 17:49:20.688,17,0,0,14.964,33.737633,-118.104806,0.00,0.00,-0.40,-6.50,-1.60,-124.00,0,1,0,40,100,-6087,1409,14964,3081.50,11,WP,1,0,0,0,0,0,0,1654735760687,3777,3776,3776,3768,0,0,27,,,,,,,0,0,0,65.00,-16.00,-1240.00,17.00,0.00,-1368.00,14,14.00,4.00,8.73,0.00,0.00,-4.00,0,,,100,100,0,2,0,0,0,1,0,,,,,0.0,0.0,0.0,0.0,0.0,0.0,0
33.737640,-118.104801,1.40,1.80,0.40,0.86,1.40,1.40,0.62,0.87,1903,2022-06-09 00:49:20.790,2022-06-08 17:49:20.790,17,0,0,14.964,33.737633,-118.104806,0.00,0.00,-0.40,-6.20,-1.50,-124.00,0,1,0,40,100,-6087,1409,14964,3081.50,11,WP,1,0,0,0,0,0,0,1654735760790,3777,3776,3776,3768,0,0,27,,,,,,,0,0,0,62.00,-15.00,-1240.00,19.00,0.00,-1367.00,14,14.00,4.00,8.57,0.00,0.00,-4.00,0,,,100,100,0,2,0,0,0,1,0,,,,,0.0,0.0,0.0,0.0,0.0,0.0,0
33.737640,-118.104801,1.50,1.80,0.50,0.86,1.50,1.50,0.62,0.87,2003,2022-06-09 00:49:20.890,2022-06-08 17:49:20.890,17,0,0,14.964,33.737633,-118.104806,0.00,0.00,-0.50,-5.80,-1.10,-124.00,0,1,0,40,100,-6087,1409,14964,3081.50,11,WP,1,0,0,0,0,0,0,1654735760890,3777,3776,3776,3768,0,0,27,,,,,,,0,0,0,58.00,-11.00,-1240.00,24.00,0.00,-1366.00,14,15.00,5.00,8.58,0.00,0.00,-5.00,0,,,100,100,0,2,0,0,0,1,0,,,,,0.0,0.0,0.0,0.0,0.0,0.0,0
33.737640,-118.104801,1.50,1.90,0.50,0.86,1.50,1.50,0.62,0.87,2104,2022-06-09 00:49:20.992,2022-06-08 17:49:20.992,17,0,0,14.964,33.737633,-118.104806,0.00,0.00,-0.50,-5.80,-1.00,-124.00,0,1,0,40,100,-6087,1409,14964,3081.50,11,WP,1,0,0,0,0,0,0,1654735760991,3777,3776,3776,3768,0,0,27,,,,,,,0,0,0,58.00,-10.00,-1240.00,24.00,0.00,-1365.00,14,15.00,5.00,8.55,0.00,0.00,-5.00,0,,,100,100,0,2,0,0,0,1,0,,,,,0.0,0.0,0.0,0.0,0.0,0.0,0
33.737640,-118.104801,1.60,1.90,0.60,0.86,1.60,1.60,0.62,0.87,2203,2022-06-09 00:49:21.091,2022-06-08 17:49:21.091,17,0,0,14.964,33.737633,-118.104806,0.00,0.00,-0.60,-5.90,-1.20,-124.00,0,1,0,40,100,-6087,1409,14964,3081.50,11,WP,1,0,0,0,0,0,0,1654735761090,3777,3776,3776,3768,0,0,27,,,,,,,0,0,0,59.00,-12.00,-1240.00,24.00,0.00,-1365.00,14,16.00,6.00,8.56,0.00,0.00,-6.00,0,,,100,100,0,2,0,0,0,1,0,,,,,0.0,0.0,0.0,0.0,0.0,0.0,0
33.737640,-118.104801,1.60,2.00,0.60,0.86,1.60,1.60,0.62,0.87,2303,2022-06-09 00:49:21.191,2022-06-08 17:49:21.191,17,0,0,14.964,33.737633,-118.104806,0.00,0.00,-0.60,-6.20,-1.00,-123.90,0,1,0,40,100,-6087,1409,14964,3081.50,11,WP,1,0,0,0,0,0,0,1654735761190,3777,3776,3776,3768,0,0,27,,,,,,,0,0,0,62.00,-10.00,-1239.00,20.00,0.00,-1364.00,14,16.00,6.00,8.61,0.00,0.00,-6.00,0,,,100,100,0,2,0,0,0,1,0,,,,,0.0,0.0,0.0,0.0,0.0,0.0,0
33.737640,-118.104801,1.70,2.00,0.50,0.86,1.70,1.70,0.62,0.87,2401,2022-06-09 00:49:21.289,2022-06-08 17:49:21.289,17,0,0,14.919,33.737633,-118.104806,0.00,0.00,-0.50,-6.40,-1.40,-123.90,0,1,0,40,100,-7640,1405,14919,3081.50,11,WP,1,0,0,0,0,0,0,1654735761288,3777,3776,3776,3768,0,0,27,,,,,,,0,0,0,64.00,-14.00,-1239.00,18.00,0.00,-1364.00,14,17.00,5.00,8.62,0.00,0.00,-5.00,0,,,100,100,0,2,0,0,0,1,0,,,,,0.0,0.0,0.0,0.0,0.0,0.0,0
33.737640,-118.104801,1.80,2.10,0.40,0.85,1.80,1.80,0.62,0.87,2503,2022-06-09 00:49:21.390,2022-06-08 17:49:21.391,17,0,0,14.919,33.737633,-118.104806,0.00,0.00,-0.40,-6.20,-1.80,-123.90,0,1,0,40,100,-7640,1405,14919,3081.50,11,WP,1,0,0,0,0,0,0,1654735761390,3777,3776,3776,3768,0,0,27,,,,,,,0,0,0,62.00,-18.00,-1239.00,20.00,0.00,-1363.00,14,18.00,4.00,8.47,0.00,0.00,-4.00,0,,,100,100,0,2,0,0,0,1,0,,,,,0.0,0.0,0.0,0.0,0.0,0.0,0
33.737640,-118.104801,1.80,2.10,0.30,0.85,1.80,1.80,0.62,0.87,2603,2022-06-09 00:49:21.490,2022-06-08 17:49:21.491,17,0,0,14.919,33.737633,-118.104806,0.00,0.00,-0.30,-2.60,-2.00,-123.80,0,1,0,40,100,-7640,1405,14919,3081.50,11,WP,1,0,0,0,0,0,0,1654735761490,3777,3776,3776,3768,0,0,27,,,,,,,0,0,0,26.00,-20.00,-1238.00,59.00,0.00,-1363.00,14,18.00,3.00,8.46,0.00,0.00,-3.00,0,,,100,100,0,2,0,0,0,1,0,,,,,0.0,0.0,0.0,0.0,0.0,0.0,0
33.737640,-118.104801,1.80,2.20,0.20,0.86,1.80,1.80,0.62,0.87,2703,2022-06-09 00:49:21.591,2022-06-08 17:49:21.591,17,0,0,14.919,33.737633,-118.104806,0.00,0.00,-0.20,-2.70,-2.50,-123.20,0,1,0,40,100,-7640,1405,14919,3081.50,11,WP,1,0,0,0,0,0,0,1654735761590,3777,3776,3776,3768,0,0,27,,,,,,,0,0,0,27.00,-25.00,-1232.00,57.00,0.00,-1362.00,14,18.00,2.00,8.61,0.00,0.00,-2.00,0,,,100,100,0,2,0,0,0,1,0,,,,,0.0,0.0,0.0,0.0,0.0,0.0,0
33.737640,-118.104801,1.90,2.20,0.10,0.87,1.90,1.90,0.62,0.87,2804,2022-06-09 00:49:21.691,2022-06-08 17:49:21.691,17,0,0,14.919,33.737633,-118.104806,0.00,0.00,-0.10,-3.20,-2.60,-121.90,0,1,0,40,100,-7640,1405,14919,3081.50,11,WP,1,0,0,0,0,0,0,1654735761691,3777,3776,3776,3768,0,0,27,,,,,,,0,0,0,32.00,-26.00,-1219.00,52.00,0.00,-1361.00,14,19.00,1.00,8.67,0.00,0.00,-1.00,0,,,100,100,0,2,0,0,0,1,0,,,,,0.0,0.0,0.0,0.0,0.0,0.0,0
33.737640,-118.104801,1.90,2.20,0.00,0.87,1.90,1.90,0.62,0.87,2903,2022-06-09 00:49:21.791,2022-06-08 17:49:21.791,17,0,0,14.919,33.737633,-118.104806,0.00,0.00,0.00,-3.70,-2.20,-120.00,0,1,0,40,100,-7640,1405,14919,3081.50,11,WP,1,0,0,0,0,0,0,1654735761790,3777,3776,3776,3768,0,0,27,,,,,,,0,0,0,37.00,-22.00,-1200.00,46.00,0.00,-1357.00,14,19.00,0.00,8.67,0.00,0.00,0.00,0,,,100,100,0,2,0,0,0,1,0,,,,,0.0,0.0,0.0,0.0,0.0,0.0,0
33.737640,-118.104801,1.90,2.20,0.00,0.88,1.90,1.90,0.62,0.88,3004,2022-06-09 00:49:21.892,2022-06-08 17:49:21.892,17,0,0,14.919,33.737633,-118.104806,0.00,0.00,0.00,-4.30,-2.40,-117.70,0,1,0,40,100,-7640,1405,14919,3081.50,11,WP,1,0,0,0,0,0,0,1654735761891,3777,3776,3776,3768,0,0,27,,,,,,,0,0,0,43.00,-24.00,-1177.00,40.00,0.00,-1346.00,14,19.00,0.00,8.75,0.00,0.00,0.00,0,,,100,100,0,2,0,0,0,1,0,,,,,0.0,0.0,0.0,0.0,0.0,0.0,0
33.737640,-118.104801,1.90,2.20,0.00,0.88,1.90,1.90,0.62,0.88,3106,2022-06-09 00:49:21.993,2022-06-08 17:49:21.993,17,0,0,14.919,33.737633,-118.104806,0.00,0.00,0.00,-4.60,-2.60,-114.70,0,1,0,40,100,-7640,1405,14919,3081.50,11,WP,1,0,0,0,0,0,0,1654735761993,3777,3776,3776,3768,0,0,27,,,,,,,0,0,0,46.00,-26.00,-1147.00,37.00,0.00,-1326.00,14,19.00,0.00,8.76,0.00,0.00,0.00,0,,,100,100,0,2,0,0,0,1,0,,,,,0.0,0.0,0.0,0.0,0.0,0.0,0
33.737640,-118.104801,1.90,2.20,0.00,0.89,1.90,1.90,0.62,0.89,3203,2022-06-09 00:49:22.091,2022-06-08 17:49:22.091,17,0,0,14.919,33.737633,-118.104806,0.00,0.00,0.00,-4.90,-2.90,-111.10,0,1,0,40,100,-7640,1405,14919,3081.50,11,WP,1,0,0,0,0,0,0,1654735762090,3777,3776,3776,3768,0,0,27,,,,,,,0,0,0,49.00,-29.00,-1111.00,34.00,0.00,-1297.00,14,19.00,0.00,8.85,0.00,0.00,0.00,0,,,100,100,0,2,0,0,0,1,0,,,,,0.0,0.0,0.0,0.0,0.0,0.0,0
33.737640,-118.104801,1.90,2.20,0.00,0.91,1.90,1.90,0.62,0.91,3304,2022-06-09 00:49:22.192,2022-06-08 17:49:22.192,17,0,0,14.919,33.737633,-118.104806,0.00,0.00,0.00,-4.70,-3.40,-106.90,0,1,0,40,100,-7640,1405,14919,3081.50,11,WP,1,0,0,0,0,0,0,1654735762191,3777,3776,3776,3768,0,0,27,,,,,,,0,0,0,47.00,-34.00,-1069.00,34.00,0.00,-1260.00,14,19.00,0.00,9.09,0.00,0.00,0.00,0,,,100,100,0,2,0,0,0,1,0,,,,,0.0,0.0,0.0,0.0,0.0,0.0,0
33.737640,-118.104801,1.90,2.20,0.00,0.92,1.90,1.90,0.62,0.92,3405,2022-06-09 00:49:22.292,2022-06-08 17:49:22.292,17,0,0,14.919,33.737633,-118.104806,0.00,0.00,0.00,-4.30,-3.90,-102.20,0,1,0,40,100,-7640,1405,14919,3081.50,11,WP,1,0,0,0,0,0,0,1654735762292,3777,3776,3776,3768,0,0,27,,,,,,,0,0,0,43.00,-39.00,-1022.00,37.00,0.00,-1216.00,14,19.00,0.00,9.19,0.00,0.00,0.00,0,,,100,100,0,2,0,0,0,1,0,,,,,0.0,0.0,0.0,0.0,0.0,0.0,0
33.737640,-118.104801,1.90,2.20,0.00,0.92,1.90,1.90,0.62,0.92,3503,2022-06-09 00:49:22.391,2022-06-08 17:49:22.391,17,0,0,14.919,33.737633,-118.104806,0.00,0.00,0.00,-3.70,-4.20,-97.00,0,1,0,40,100,-7640,1405,14919,3081.50,11,WP,1,0,0,0,0,0,0,1654735762390,3777,3776,3776,3768,0,0,27,,,,,,,0,0,0,37.00,-42.00,-970.00,42.00,0.00,-1166.00,14,19.00,0.00,9.16,0.00,0.00,0.00,0,,,100,100,0,2,0,0,0,1,0,,,,,0.0,0.0,0.0,0.0,0.0,0.0,0
33.737640,-118.104801,1.80,2.20,0.00,0.92,1.90,1.90,0.62,0.92,3604,2022-06-09 00:49:22.492,2022-06-08 17:49:22.492,17,0,0,14.919,33.737633,-118.104806,0.00,0.00,0.00,-3.40,-4.40,-91.10,0,1,0,40,100,-7640,1405,14919,3081.50,11,WP,1,0,0,0,0,0,0,1654735762491,3777,3776,3776,3768,0,0,27,,,,,,,0,0,0,34.00,-44.00,-911.00,45.00,0.00,-1111.00,14,18.00,0.00,9.23,0.00,0.00,0.00,0,,,100,100,0,2,0,0,0,1,0,,,,,0.0,0.0,0.0,0.0,0.0,0.0,0
33.737640,-118.104801,1.80,2.20,0.00,0.93,1.90,1.90,0.62,0.93,3705,2022-06-09 00:49:22.592,2022-06-08 17:49:22.592,17,0,0,14.919,33.737633,-118.104806,0.00,0.00,0.00,-2.90,-4.50,-84.60,0,1,0,40,100,-7640,1405,14919,3081.50,11,WP,1,0,0,0,0,0,0,1654735762592,3777,3776,3776,3768,0,0,27,,,,,,,0,0,0,29.00,-45.00,-846.00,49.00,0.00,-1049.00,14,18.00,0.00,9.31,0.00,0.00,0.00,0,,,100,100,0,2,0,0,0,1,0,,,,,0.0,0.0,0.0,0.0,0.0,0.0,0
33.737640,-118.104801,1.80,2.20,0.00,0.94,1.90,1.90,0.62,0.94,3805,2022-06-09 00:49:22.692,2022-06-08 17:49:22.692,17,0,0,14.919,33.737633,-118.104806,0.00,0.00,0.00,-2.30,-4.80,-77.40,0,1,0,40,100,-7640,1405,14919,3081.50,11,WP,1,0,0,0,0,0,0,1654735762692,3777,3776,3776,3768,0,0,27,,,,,,,0,0,0,23.00,-48.00,-774.00,56.00,1.00,-980.00,14,18.00,0.00,9.37,0.00,0.00,0.00,0,,,100,100,0,2,0,0,0,1,0,,,,,0.0,0.0,0.0,0.0,0.0,0.0,0
33.737640,-118.104801,1.80,2.20,0.00,0.95,1.90,1.90,0.62,0.95,3905,2022-06-09 00:49:22.792,2022-06-08 17:49:22.792,17,0,0,14.919,33.737633,-118.104806,0.00,0.00,0.00,-2.00,-4.80,-69.70,0,1,0,40,100,-7640,1405,14919,3081.50,11,WP,1,0,0,0,0,0,0,1654735762792,3777,3776,3776,3768,0,0,27,,,,,,,0,0,0,20.00,-48.00,-697.00,59.00,1.00,-905.00,14,18.00,0.00,9.47,0.00,0.00,0.00,0,,,100,100,0,2,0,0,0,1,0,,,,,0.0,0.0,0.0,0.0,0.0,0.0,0
33.737641,-118.104801,1.80,2.20,0.00,0.95,1.90,1.90,0.62,0.95,4004,2022-06-09 00:49:22.891,2022-06-08 17:49:22.891,17,0,0,14.919,33.737633,-118.104806,0.00,0.00,0.00,-1.30,-4.80,-62.30,0,1,0,40,100,-7640,1405,14919,3081.50,11,WP,1,0,0,0,0,0,0,1654735762891,3777,3776,3776,3768,0,0,27,,,,,,,0,0,0,13.00,-48.00,-623.00,65.00,1.00,-828.00,14,18.00,0.00,9.54,0.00,0.00,0.00,0,,,100,100,0,2,0,0,0,1,0,,,,,0.0,0.0,0.0,0.0,0.0,0.0,0
33.737641,-118.104801,1.80,2.20,0.10,0.96,1.90,1.90,0.62,0.96,4104,2022-06-09 00:49:22.992,2022-06-08 17:49:22.992,17,0,0,14.919,33.737633,-118.104806,0.10,0.00,0.00,-0.60,-5.30,-54.90,0,1,0,40,100,-7640,1405,14919,3081.50,11,WP,1,0,0,0,0,0,0,1654735762991,3777,3776,3776,3768,0,0,27,,,,,,,0,0,0,6.00,-53.00,-549.00,72.00,1.00,-752.00,14,18.00,1.00,9.63,1.00,0.00,0.00,0,,,100,100,0,2,0,0,0,1,0,,,,,0.0,0.0,0.0,0.0,0.0,0.0,0
33.737641,-118.104801,1.80,2.20,0.10,0.98,1.90,1.90,0.62,0.98,4205,2022-06-09 00:49:23.092,2022-06-08 17:49:23.092,17,0,0,14.919,33.737633,-118.104806,0.10,0.00,0.00,0.00,-6.00,-47.90,0,1,0,40,100,-7640,1405,14919,3081.50,11,WP,1,0,0,0,0,0,0,1654735763092,3777,3776,3776,3768,0,0,27,,,,,,,0,0,0,-0.00,-60.00,-479.00,77.00,1.00,-677.00,14,18.00,1.00,9.75,1.00,0.00,0.00,0,,,100,100,0,2,0,0,0,1,0,,,,,0.0,0.0,0.0,0.0,0.0,0.0,0
33.737641,-118.104801,1.80,2.20,0.10,1.01,1.90,1.90,0.62,1.01,4305,2022-06-09 00:49:23.192,2022-06-08 17:49:23.192,17,0,0,14.919,33.737633,-118.104806,0.10,0.00,0.00,-0.40,-6.50,-42.20,0,1,0,40,100,-7640,1405,14919,3081.50,11,WP,1,0,0,0,0,0,0,1654735763192,3777,3776,3776,3768,0,0,27,,,,,,,0,0,0,4.00,-65.00,-422.00,74.00,1.00,-607.00,14,18.00,1.00,10.06,1.00,0.00,0.00,0,,,100,100,0,2,0,0,0,1,0,,,,,0.0,0.0,0.0,0.0,0.0,0.0,0
33.737641,-118.104801,1.80,2.20,0.10,1.02,1.90,1.90,0.62,1.02,4405,2022-06-09 00:49:23.292,2022-06-08 17:49:23.292,17,0,0,14.927,33.737633,-118.104806,0.10,0.00,0.00,0.00,-6.90,-38.70,0,1,0,40,100,-6976,1402,14927,3081.50,11,WP,1,0,0,0,0,0,0,1654735763292,3777,3776,3776,3768,0,0,27,,,,,,,0,0,0,-0.00,-69.00,-387.00,78.00,1.00,-553.00,14,18.00,1.00,10.23,1.00,0.00,0.00,0,,,100,100,0,2,0,0,0,1,0,,,,,0.0,0.0,0.0,0.0,0.0,0.0,0
33.737641,-118.104800,1.80,2.20,0.10,1.04,1.90,1.90,0.62,1.04,4504,2022-06-09 00:49:23.392,2022-06-08 17:49:23.392,17,0,0,14.927,33.737633,-118.104806,0.10,0.00,0.00,1.70,-7.00,-36.80,0,1,0,40,100,-6976,1402,14927,3081.50,11,WP,1,0,0,0,0,0,0,1654735763391,3777,3776,3776,3768,0,0,27,,,,,,,0,0,0,-17.00,-70.00,-368.00,95.00,0.00,-517.00,14,18.00,1.00,10.44,1.00,0.00,0.00,0,,,100,100,0,2,0,0,0,1,0,,,,,0.0,0.0,0.0,0.0,0.0,0.0,0
33.737641,-118.104800,1.80,2.20,0.10,1.06,1.90,1.90,0.62,1.06,4605,2022-06-09 00:49:23.493,2022-06-08 17:49:23.493,17,0,0,14.927,33.737633,-118.104806,0.10,0.00,0.00,3.10,-7.30,-35.50,0,1,0,40,100,-6976,1402,14927,3081.50,11,WP,1,0,0,0,0,0,0,1654735763492,3777,3776,3776,3768,0,0,27,,,,,,,0,0,0,-31.00,-73.00,-355.00,113.00,0.00,-495.00,14,18.00,1.00,10.61,1.00,0.00,0.00,0,,,100,100,0,2,0,0,0,1,0,,,,,0.0,0.0,0.0,0.0,0.0,0.0,0
33.737642,-118.104800,1.80,2.20,0.10,1.07,1.90,1.90,0.62,1.07,4705,2022-06-09 00:49:23.592,2022-06-08 17:49:23.592,17,0,0,14.927,33.737633,-118.104806,0.10,0.00,0.00,3.00,-7.10,-34.90,0,1,0,40,100,-6976,1402,14927,3081.50,11,WP,1,0,0,0,0,0,0,1654735763592,3777,3776,3776,3768,0,0,27,,,,,,,0,0,0,-30.00,-71.00,-349.00,112.00,0.00,-481.00,14,18.00,1.00,10.71,1.00,0.00,0.00,0,,,100,100,0,2,0,0,0,1,0,,,,,0.0,0.0,0.0,0.0,0.0,0.0,0
33.737642,-118.104800,1.80,2.20,0.10,1.08,1.90,1.90,0.62,1.08,4805,2022-06-09 00:49:23.692,2022-06-08 17:49:23.692,17,0,0,14.927,33.737633,-118.104806,0.10,0.00,0.00,3.40,-7.00,-35.00,0,1,0,40,100,-6976,1402,14927,3081.50,11,WP,1,0,0,0,0,0,0,1654735763692,3777,3776,3776,3768,0,0,27,,,,,,,0,0,0,-34.00,-70.00,-350.00,117.00,0.00,-472.00,14,18.00,1.00,10.83,1.00,0.00,0.00,0,,,100,100,0,2,0,0,0,1,0,,,,,0.0,0.0,0.0,0.0,0.0,0.0,0
33.737642,-118.104800,1.80,2.20,0.10,1.10,1.90,1.90,0.62,1.10,4905,2022-06-09 00:49:23.792,2022-06-08 17:49:23.792,17,0,0,14.927,33.737633,-118.104806,0.10,0.00,0.00,4.00,-6.90,-35.60,0,1,0,40,100,-6976,1402,14927,3081.50,11,WP,1,0,0,0,0,0,0,1654735763792,3777,3776,3776,3768,0,0,27,,,,,,,0,0,0,-40.00,-69.00,-356.00,124.00,0.00,-468.00,14,18.00,1.00,10.96,1.00,0.00,0.00,0,,,100,100,0,2,0,0,0,1,0,,,,,0.0,0.0,0.0,0.0,0.0,0.0,0
33.737642,-118.104800,1.80,2.20,0.00,1.11,1.90,1.90,0.62,1.11,5005,2022-06-09 00:49:23.892,2022-06-08 17:49:23.892,17,0,0,14.927,33.737633,-118.104806,0.00,0.00,0.00,3.90,-7.20,-36.30,0,1,0,40,100,-6976,1402,14927,3081.50,11,WP,1,0,0,0,0,0,0,1654735763892,3777,3776,3776,3768,0,0,27,,,,,,,0,0,0,-39.00,-72.00,-363.00,126.00,0.00,-468.00,14,18.00,0.00,11.05,0.00,0.00,0.00,0,,,100,100,0,2,0,0,0,1,0,,,,,0.0,0.0,0.0,0.0,0.0,0.0,0
33.737642,-118.104800,1.80,2.20,0.00,1.12,1.90,1.90,0.62,1.12,5106,2022-06-09 00:49:23.993,2022-06-08 17:49:23.993,17,0,0,14.927,33.737633,-118.104806,0.00,0.00,0.00,0.80,-6.00,-36.50,0,1,0,40,100,-6976,1402,14927,3081.50,11,WP,1,0,0,0,0,0,0,1654735763993,3777,3776,3776,3768,0,0,27,,,,,,,0,0,0,-8.00,-60.00,-365.00,102.00,0.00,-469.00,14,18.00,0.00,11.15,0.00,0.00,0.00,0,,,100,100,0,2,0,0,0,1,0,,,,,0.0,0.0,0.0,0.0,0.0,0.0,0
33.737642,-118.104800,1.80,2.20,0.00,1.12,1.90,1.90,0.62,1.12,5207,2022-06-09 00:49:24.094,2022-06-08 17:49:24.094,17,0,0,14.927,33.737633,-118.104806,0.00,0.00,0.00,-4.60,-6.00,-35.90,0,1,0,40,100,-6976,1402,14927,3081.50,11,WP,1,0,0,0,0,0,0,1654735764094,3777,3776,3776,3768,0,0,27,,,,,,,0,0,0,46.00,-60.00,-359.00,45.00,0.00,-472.00,14,18.00,0.00,11.23,0.00,0.00,0.00,0,,,100,100,0,2,0,0,0,1,0,,,,,0.0,0.0,0.0,0.0,0.0,0.0,0
33.737642,-118.104800,1.80,2.20,0.10,1.14,1.90,1.90,0.62,1.14,5305,2022-06-09 00:49:24.192,2022-06-08 17:49:24.192,17,0,0,14.927,33.737633,-118.104806,0.10,0.00,0.00,-9.00,-6.80,-35.60,0,1,0,40,100,-6976,1402,14927,3081.50,11,WP,1,0,0,0,0,0,0,1654735764192,3777,3776,3776,3768,0,0,27,,,,,,,0,0,0,90.00,-68.00,-356.00,0.00,0.00,-473.00,14,18.00,1.00,11.43,1.00,0.00,0.00,0,,,100,100,0,2,0,0,0,1,0,,,,,0.0,0.0,0.0,0.0,0.0,0.0,0
33.737642,-118.104800,1.80,2.20,0.32,1.16,1.90,1.90,0.62,1.16,5404,2022-06-09 00:49:24.292,2022-06-08 17:49:24.292,17,0,0,14.927,33.737633,-118.104806,0.30,-0.10,0.00,-11.60,-7.40,-35.50,0,1,0,40,100,-6976,1402,14927,3081.50,11,WP,1,0,0,0,0,0,0,1654735764291,3777,3776,3776,3768,0,0,27,,,,,,,0,0,0,116.00,-74.00,-355.00,-29.00,0.00,-474.00,14,18.00,3.16,11.64,3.00,-1.00,0.00,0,,,100,100,0,2,0,0,0,1,0,,,,,0.0,0.0,0.0,0.0,0.0,0.0,0
33.737643,-118.104800,1.80,2.20,0.54,1.18,1.90,1.90,0.62,1.18,5505,2022-06-09 00:49:24.392,2022-06-08 17:49:24.392,17,0,0,14.927,33.737633,-118.104806,0.50,-0.20,0.00,-13.20,-7.70,-35.40,0,1,0,40,100,-6976,1402,14927,3081.50,11,WP,1,0,0,0,0,0,0,1654735764392,3777,3776,3776,3768,0,0,27,,,,,,,0,0,0,132.00,-77.00,-354.00,-47.00,0.00,-474.00,14,18.00,5.39,11.76,5.00,-2.00,0.00,0,,,100,100,0,2,0,0,0,1,0,,,,,0.0,0.0,0.0,0.0,0.0,0.0,0
33.737643,-118.104801,1.80,2.20,0.81,1.22,1.90,1.90,0.81,1.22,5605,2022-06-09 00:49:24.492,2022-06-08 17:49:24.492,17,0,0,14.927,33.737633,-118.104806,0.70,-0.40,0.00,-13.90,-7.60,-35.40,0,1,0,40,100,-6976,1402,14927,3081.50,11,WP,1,0,0,0,0,0,0,1654735764492,3777,3776,3776,3768,0,0,27,,,,,,,0,0,0,139.00,-76.00,-354.00,-56.00,0.00,-474.00,14,18.00,8.06,12.15,7.00,-4.00,0.00,0,,,100,100,0,2,0,0,0,1,0,,,,,0.0,0.0,0.0,0.0,0.0,0.0,0
33.737644,-118.104801,1.80,2.20,0.94,1.26,1.90,1.90,0.94,1.26,5705,2022-06-09 00:49:24.592,2022-06-08 17:49:24.592,17,0,0,14.927,33.737633,-118.104806,0.80,-0.50,0.00,-13.70,-7.50,-35.40,0,1,0,40,100,-6976,1402,14927,3081.50,11,WP,1,0,0,0,0,0,0,1654735764592,3777,3776,3776,3768,0,0,27,,,,,,,0,0,0,137.00,-75.00,-354.00,-55.00,0.00,-474.00,14,18.00,9.43,12.61,8.00,-5.00,0.00,0,,,100,100,0,2,0,0,0,1,0,,,,,0.0,0.0,0.0,0.0,0.0,0.0,0
33.737645,-118.104802,1.80,2.20,1.22,1.34,1.90,1.90,1.22,1.34,5804,2022-06-09 00:49:24.691,2022-06-08 17:49:24.691,17,0,0,14.927,33.737633,-118.104806,1.00,-0.70,0.00,-13.70,-7.70,-35.50,0,1,0,40,100,-6976,1402,14927,3081.50,11,WP,1,0,0,0,0,0,0,1654735764691,3777,3776,3776,3768,0,0,27,,,,,,,0,0,0,137.00,-77.00,-355.00,-55.00,0.00,-475.00,14,18.00,12.21,13.35,10.00,-7.00,0.00,0,,,100,100,0,2,0,0,0,1,0,,,,,0.0,0.0,0.0,0.0,0.0,0.0,0
33.737646,-118.104803,1.80,2.20,1.44,1.44,1.90,1.90,1.44,1.44,5904,2022-06-09 00:49:24.792,2022-06-08 17:49:24.792,17,0,0,14.927,33.737633,-118.104806,1.20,-0.80,0.00,-13.40,-8.20,-35.50,0,1,0,40,100,-6976,1402,14927,3081.50,11,WP,1,0,0,0,0,0,0,1654735764791,3777,3776,3776,3768,0,0,27,,,,,,,0,0,0,134.00,-82.00,-355.00,-55.00,0.00,-475.00,14,18.00,14.42,14.39,12.00,-8.00,0.00,0,,,100,100,0,2,0,0,0,1,0,,,,,0.0,0.0,0.0,0.0,0.0,0.0,0
33.737647,-118.104804,1.80,2.20,1.66,1.56,1.90,1.90,1.66,1.56,6004,2022-06-09 00:49:24.892,2022-06-08 17:49:24.892,17,0,0,14.927,33.737633,-118.104806,1.40,-0.90,0.00,-12.40,-9.00,-35.50,0,1,0,40,100,-6976,1402,14927,3081.50,11,WP,1,0,0,0,0,0,0,1654735764891,3777,3776,3776,3768,0,0,27,,,,,,,0,0,0,124.00,-90.00,-355.00,-46.00,0.00,-475.00,14,18.00,16.64,15.55,14.00,-9.00,0.00,0,,,100,100,0,2,0,0,0,1,0,,,,,0.0,5.4,0.0,0.0,0.0,0.0,0
33.737648,-118.104804,1.80,2.20,1.94,1.71,1.90,1.90,1.94,1.71,6105,2022-06-09 00:49:24.993,2022-06-08 17:49:24.993,17,0,0,14.927,33.737633,-118.104806,1.60,-1.10,0.00,-8.90,-9.10,-35.80,0,1,0,40,100,-6976,1402,14927,3081.50,11,WP,1,0,0,0,0,0,0,1654735764992,3777,3776,3776,3768,0,0,27,,,,,,,0,0,0,89.00,-91.00,-358.00,-15.00,0.00,-475.00,14,18.00,19.42,17.12,16.00,-11.00,0.00,0,,,100,100,0,2,0,0,0,1,0,,,,,0.0,5.4,0.0,0.0,0.0,0.0,0
33.737650,-118.104805,1.80,2.20,2.00,1.87,1.90,1.90,2.00,1.87,6206,2022-06-09 00:49:25.094,2022-06-08 17:49:25.094,17,0,0,14.927,33.737633,-118.104806,1.60,-1.20,-0.10,-4.70,-9.70,-36.20,0,1,0,40,100,-6976,1402,14927,3081.50,11,WP,1,0,0,0,0,0,0,1654735765093,3777,3776,3776,3768,0,0,27,,,,,,,0,0,0,47.00,-97.00,-362.00,28.00,0.00,-475.00,14,18.00,20.02,18.68,16.00,-12.00,-1.00,0,,,100,100,0,2,0,0,0,1,0,,,,,0.0,0.0,0.0,0.0,0.0,0.0,0
33.737652,-118.104806,1.90,2.20,2.08,2.07,1.90,1.90,2.08,2.07,6305,2022-06-09 00:49:25.192,2022-06-08 17:49:25.192,17,0,0,14.927,33.737633,-118.104806,1.70,-1.20,0.00,-1.60,-9.90,-36.40,0,1,0,40,100,-6976,1402,14927,3081.50,11,WP,1,0,0,0,0,0,0,1654735765192,3777,3776,3776,3768,0,0,27,,,,,,,0,0,0,16.00,-99.00,-364.00,61.00,0.00,-475.00,14,19.00,20.81,20.65,17.00,-12.00,0.00,0,,,100,100,0,2,0,0,0,1,0,,,,,0.0,0.0,0.0,0.0,0.0,0.0,0
33.737653,-118.104807,1.90,2.20,2.00,2.24,1.90,1.90,2.08,2.24,6405,2022-06-09 00:49:25.292,2022-06-08 17:49:25.292,17,0,0,14.866,33.737633,-118.104806,1.60,-1.20,0.00,0.40,-10.80,-36.50,0,1,0,40,100,-7817,1397,14866,3081.50,11,WP,1,0,0,0,0,0,0,1654735765292,3777,3776,3776,3768,0,0,27,,,,,,,0,0,0,-4.00,-108.00,-365.00,84.00,0.00,-475.00,14,19.00,20.00,22.39,16.00,-12.00,0.00,0,,,100,100,0,2,0,0,0,1,0,,,,,0.0,0.0,0.0,0.0,0.0,0.0,0
33.737655,-118.104808,1.90,2.30,2.00,2.46,1.90,1.90,2.08,2.46,6506,2022-06-09 00:49:25.393,2022-06-08 17:49:25.393,17,0,0,14.866,33.737633,-118.104806,1.60,-1.20,0.00,1.60,-10.50,-36.50,0,1,0,40,100,-7817,1397,14866,3081.50,11,WP,1,0,0,0,0,0,0,1654735765393,3777,3776,3776,3768,0,0,27,,,,,,,0,0,0,-16.00,-105.00,-365.00,98.00,0.00,-475.00,14,19.00,20.00,24.56,16.00,-12.00,0.00,0,,,100,100,0,2,0,0,0,1,0,,,,,0.0,0.0,0.0,0.0,0.0,0.0,0
33.737657,-118.104809,1.90,2.30,1.92,2.63,1.90,1.90,2.08,2.63,6595,2022-06-09 00:49:25.482,2022-06-08 17:49:25.482,17,0,0,14.866,33.737633,-118.104806,1.50,-1.20,0.00,2.50,-11.40,-36.60,0,1,0,40,100,-7817,1397,14866,3081.50,11,WP,1,0,0,0,0,0,0,1654735765482,3777,3776,3776,3768,0,0,27,,,,,,,0,0,0,-25.00,-114.00,-366.00,108.00,0.00,-475.00,14,19.00,19.21,26.30,15.00,-12.00,0.00,0,,,100,100,0,2,0,0,0,1,0,,,,,0.0,0.0,0.0,0.0,0.0,0.0,0
33.737658,-118.104810,1.90,2.30,1.92,2.84,1.90,1.90,2.08,2.84,6705,2022-06-09 00:49:25.593,2022-06-08 17:49:25.593,17,0,0,14.866,33.737633,-118.104806,1.50,-1.20,0.00,2.90,-11.50,-36.50,0,1,0,40,100,-7817,1397,14866,3081.50,11,WP,1,0,0,0,0,0,0,1654735765592,3777,3776,3776,3768,0,0,27,,,,,,,0,0,0,-29.00,-115.00,-365.00,113.00,0.00,-475.00,14,19.00,19.21,28.36,15.00,-12.00,0.00,0,,,100,100,0,2,0,0,0,1,0,,,,,0.0,0.0,0.0,0.0,0.0,0.0,0
33.737660,-118.104811,1.90,2.30,1.84,3.00,1.90,1.90,2.08,3.00,6805,2022-06-09 00:49:25.693,2022-06-08 17:49:25.693,17,0,0,14.866,33.737633,-118.104806,1.40,-1.20,0.00,3.10,-11.80,-36.60,0,1,0,40,100,-7817,1397,14866,3081.50,11,WP,1,0,0,0,0,0,0,1654735765692,3777,3776,3776,3768,0,0,27,,,,,,,0,0,0,-31.00,-118.00,-366.00,117.00,0.00,-476.00,14,19.00,18.44,30.01,14.00,-12.00,0.00,0,,,100,100,0,2,0,0,0,1,0,,,,,0.0,0.0,0.0,0.0,0.0,0.0,0
33.737661,-118.104812,1.90,2.30,1.77,3.18,1.90,1.90,2.08,3.18,6905,2022-06-09 00:49:25.792,2022-06-08 17:49:25.793,17,0,0,14.866,33.737633,-118.104806,1.30,-1.20,0.00,3.50,-11.30,-36.60,0,1,0,40,100,-7817,1397,14866,3081.50,11,WP,1,0,0,0,0,0,0,1654735765792,3777,3776,3776,3768,0,0,27,,,,,,,0,0,0,-35.00,-113.00,-366.00,121.00,0.00,-476.00,14,19.00,17.69,31.75,13.00,-12.00,0.00,0,,,100,100,0,2,0,0,0,1,0,,,,,0.0,0.0,0.0,0.0,0.0,0.0,0
33.737662,-118.104813,1.90,2.30,1.63,3.33,1.90,1.90,2.08,3.33,7005,2022-06-09 00:49:25.892,2022-06-08 17:49:25.892,17,0,0,14.866,33.737633,-118.104806,1.10,-1.20,0.00,4.20,-11.30,-36.70,0,1,0,40,100,-7817,1397,14866,3081.50,11,WP,1,0,0,0,0,0,0,1654735765892,3777,3776,3776,3768,0,0,27,,,,,,,0,0,0,-42.00,-113.00,-367.00,128.00,0.00,-476.00,14,19.00,16.28,33.26,11.00,-12.00,0.00,0,,,100,100,0,2,0,0,0,1,0,,,,,0.0,0.0,0.0,0.0,0.0,0.0,0
33.737664,-118.104815,1.90,2.30,1.49,3.50,1.90,1.90,2.08,3.50,7098,2022-06-09 00:49:25.985,2022-06-08 17:49:25.985,17,0,0,14.866,33.737633,-118.104806,1.00,-1.10,0.00,4.90,-10.70,-36.80,0,1,0,40,100,-7817,1397,14866,3081.50,11,WP,1,0,0,0,0,0,0,1654735765985,3777,3776,3776,3768,0,0,27,,,,,,,0,0,0,-49.00,-107.00,-368.00,135.00,0.00,-476.00,14,19.00,14.87,34.99,10.00,-11.00,0.00,0,,,100,100,0,2,0,0,0,1,0,,,,,0.0,0.0,0.0,0.0,0.0,0.0,0
33.737665,-118.104816,1.90,2.30,1.42,3.63,1.90,1.90,2.08,3.63,7206,2022-06-09 00:49:26.093,2022-06-08 17:49:26.093,17,0,0,14.866,33.737633,-118.104806,0.90,-1.10,0.00,5.70,-10.20,-36.90,0,1,0,40,100,-7817,1397,14866,3081.50,11,WP,1,0,0,0,0,0,0,1654735766093,3777,3776,3776,3768,0,0,27,,,,,,,0,0,0,-57.00,-102.00,-369.00,144.00,0.00,-476.00,14,19.00,14.21,36.33,9.00,-11.00,0.00,0,,,100,100,0,2,0,0,0,1,0,,,,,0.0,0.0,0.0,0.0,0.0,0.0,0
33.737666,-118.104817,1.90,2.30,1.36,3.77,1.90,1.90,2.08,3.77,7305,2022-06-09 00:49:26.192,2022-06-08 17:49:26.192,17,0,0,14.866,33.737633,-118.104806,0.80,-1.10,0.00,5.30,-9.60,-36.80,0,1,0,40,100,-7817,1397,14866,3081.50,11,WP,1,0,0,0,0,0,0,1654735766192,3777,3776,3776,3768,0,0,27,,,,,,,0,0,0,-53.00,-96.00,-368.00,140.00,0.00,-476.00,14,19.00,13.60,37.68,8.00,-11.00,0.00,0,,,100,100,0,2,0,0,0,1,0,,,,,0.0,0.0,0.0,0.0,0.0,0.0,0
33.737667,-118.104818,1.90,2.30,1.22,3.88,1.90,1.90,2.08,3.88,7405,2022-06-09 00:49:26.293,2022-06-08 17:49:26.293,17,0,0,14.866,33.737633,-118.104806,0.70,-1.00,0.00,5.00,-9.10,-36.70,0,1,0,40,100,-7817,1397,14866,3081.50,11,WP,1,0,0,0,0,0,0,1654735766292,3777,3776,3776,3768,0,0,27,,,,,,,0,0,0,-50.00,-91.00,-367.00,137.00,0.00,-476.00,14,19.00,12.21,38.84,7.00,-10.00,0.00,0,,,100,100,0,2,0,0,0,1,0,,,,,0.0,0.0,0.0,0.0,0.0,0.0,0
33.737668,-118.104819,1.90,2.30,1.17,4.00,1.90,1.90,2.08,4.00,7506,2022-06-09 00:49:26.394,2022-06-08 17:49:26.394,17,0,0,14.866,33.737633,-118.104806,0.60,-1.00,0.00,4.30,-8.70,-36.50,0,1,0,40,100,-7817,1397,14866,3081.50,11,WP,1,0,0,0,0,0,0,1654735766393,3777,3776,3776,3768,0,0,27,,,,,,,0,0,0,-43.00,-87.00,-365.00,130.00,0.00,-476.00,14,19.00,11.66,40.02,6.00,-10.00,0.00,0,,,100,100,0,2,0,0,0,1,0,,,,,0.0,0.0,0.0,0.0,0.0,0.0,0
33.737668,-118.104820,1.90,2.40,1.12,4.10,1.90,1.90,2.08,4.10,7606,2022-06-09 00:49:26.493,2022-06-08 17:49:26.493,17,0,0,14.866,33.737633,-118.104806,0.50,-1.00,0.00,4.30,-7.80,-36.60,0,1,0,40,100,-7817,1397,14866,3081.50,11,WP,1,0,0,0,0,0,0,1654735766493,3777,3776,3776,3768,0,0,27,,,,,,,0,0,0,-43.00,-78.00,-366.00,130.00,0.00,-476.00,14,19.00,11.18,41.03,5.00,-10.00,0.00,0,,,100,100,0,2,0,0,0,1,0,,,,,0.0,0.0,0.0,0.0,0.0,0.0,0
33.737669,-118.104821,1.90,2.40,1.03,4.19,1.90,1.90,2.08,4.19,7705,2022-06-09 00:49:26.592,2022-06-08 17:49:26.592,17,0,0,14.866,33.737633,-118.104806,0.50,-0.90,0.00,4.00,-7.50,-36.50,0,1,0,40,100,-7817,1397,14866,3081.50,11,WP,1,0,0,0,0,0,0,1654735766592,3777,3776,3776,3768,0,0,27,,,,,,,0,0,0,-40.00,-75.00,-365.00,127.00,0.00,-476.00,14,19.00,10.30,41.88,5.00,-9.00,0.00,0,,,100,100,0,2,0,0,0,1,0,,,,,0.0,0.0,0.0,0.0,0.0,0.0,0
33.737669,-118.104822,1.90,2.40,0.98,4.28,1.90,1.90,2.08,4.28,7806,2022-06-09 00:49:26.694,2022-06-08 17:49:26.694,17,0,0,14.866,33.737633,-118.104806,0.40,-0.90,0.00,3.80,-6.70,-36.50,0,1,0,40,100,-7817,1397,14866,3081.50,11,WP,1,0,0,0,0,0,0,1654735766693,3777,3776,3776,3768,0,0,27,,,,,,,0,0,0,-38.00,-67.00,-365.00,125.00,0.00,-476.00,14,19.00,9.85,42.76,4.00,-9.00,0.00,0,,,100,100,0,2,0,0,0,1,0,,,,,0.0,0.0,0.0,0.0,0.0,0.0,0
33.737670,-118.104823,1.90,2.40,0.85,4.37,1.90,1.90,2.08,4.37,7907,2022-06-09 00:49:26.794,2022-06-08 17:49:26.794,17,0,0,14.866,33.737633,-118.104806,0.30,-0.80,0.00,3.40,-6.40,-36.60,0,1,0,40,100,-7817,1397,14866,3081.50,11,WP,1,0,0,0,0,0,0,1654735766794,3777,3776,3776,3768,0,0,27,,,,,,,0,0,0,-34.00,-64.00,-366.00,120.00,0.00,-476.00,14,19.00,8.54,43.67,3.00,-8.00,0.00,0,,,100,100,0,2,0,0,0,1,0,,,,,0.0,0.0,0.0,0.0,0.0,0.0,0
33.737670,-118.104824,1.90,2.40,0.76,4.45,1.90,1.90,2.08,4.45,8006,2022-06-09 00:49:26.894,2022-06-08 17:49:26.894,17,0,0,14.866,33.737633,-118.104806,0.30,-0.70,0.00,3.60,-5.20,-36.60,0,1,0,40,100,-7817,1397,14866,3081.50,11,WP,1,0,0,0,0,0,0,1654735766893,3777,3776,3776,3768,0,0,27,,,,,,,0,0,0,-36.00,-52.00,-366.00,122.00,0.00,-476.00,14,19.00,7.62,44.46,3.00,-7.00,0.00,0,,,100,100,0,2,0,0,0,1,0,,,,,0.0,0.0,0.0,0.0,0.0,0.0,0
33.737671,-118.104825,1.90,2.40,0.76,4.50,1.90,1.90,2.08,4.50,8105,2022-06-09 00:49:26.993,2022-06-08 17:49:26.993,17,0,0,14.866,33.737633,-118.104806,0.30,-0.70,0.00,3.10,-5.40,-36.50,0,1,0,40,100,-7817,1397,14866,3081.50,11,WP,1,0,0,0,0,0,0,1654735766992,3777,3776,3776,3768,0,0,27,,,,,,,0,0,0,-31.00,-54.00,-365.00,117.00,0.00,-476.00,14,19.00,7.62,44.98,3.00,-7.00,0.00,0,,,100,100,0,2,0,0,0,1,0,,,,,0.0,0.0,0.0,0.0,0.0,0.0,0
33.737671,-118.104825,1.90,2.40,0.63,4.57,1.90,1.90,2.08,4.57,8207,2022-06-09 00:49:27.094,2022-06-08 17:49:27.094,17,0,0,14.866,33.737633,-118.104806,0.20,-0.60,0.00,3.10,-4.60,-36.50,0,1,0,40,100,-7817,1397,14866,3081.50,11,WP,1,0,0,0,0,0,0,1654735767094,3777,3776,3776,3768,0,0,27,,,,,,,0,0,0,-31.00,-46.00,-365.00,115.00,0.00,-476.00,14,19.00,6.32,45.67,2.00,-6.00,0.00,0,,,100,100,0,2,0,0,0,1,0,,,,,0.0,0.0,0.0,0.0,0.0,0.0,0
33.737671,-118.104826,2.00,2.40,0.63,4.63,2.00,2.00,2.08,4.63,8307,2022-06-09 00:49:27.194,2022-06-08 17:49:27.194,17,0,0,14.866,33.737633,-118.104806,0.20,-0.60,0.00,3.70,-4.70,-36.50,0,1,0,40,100,-7817,1397,14866,3081.50,11,WP,1,0,0,0,0,0,0,1654735767194,3777,3776,3776,3768,0,0,27,,,,,,,0,0,0,-37.00,-47.00,-365.00,121.00,0.00,-476.00,14,20.00,6.32,46.32,2.00,-6.00,0.00,0,,,100,100,0,2,0,0,0,1,0,,,,,0.0,0.0,0.0,0.0,0.0,0.0,0
33.737672,-118.104827,2.00,2.40,0.54,4.69,2.00,2.00,2.08,4.69,8406,2022-06-09 00:49:27.294,2022-06-08 17:49:27.294,17,0,0,14.860,33.737633,-118.104806,0.20,-0.50,0.00,4.50,-4.20,-36.50,0,1,0,40,100,-7715,1393,14860,3081.50,11,WP,1,0,0,0,0,0,0,1654735767293,3777,3776,3776,3768,0,0,27,,,,,,,0,0,0,-45.00,-42.00,-365.00,129.00,0.00,-476.00,14,20.00,5.39,46.93,2.00,-5.00,0.00,0,,,100,100,0,2,0,0,0,1,0,,,,,0.0,0.0,0.0,0.0,0.0,0.0,0
33.737672,-118.104828,2.00,2.40,0.45,4.72,2.00,2.00,2.08,4.72,8506,2022-06-09 00:49:27.393,2022-06-08 17:49:27.393,17,0,0,14.860,33.737633,-118.104806,0.20,-0.40,0.00,5.00,-4.50,-36.50,0,1,0,40,100,-7715,1393,14860,3081.50,11,WP,1,0,0,0,0,0,0,1654735767393,3777,3776,3776,3768,0,0,27,,,,,,,0,0,0,-50.00,-45.00,-365.00,135.00,0.00,-476.00,14,20.00,4.47,47.24,2.00,-4.00,0.00,0,,,100,100,0,2,0,0,0,1,0,,,,,0.0,0.0,0.0,0.0,0.0,0.0,0
33.737672,-118.104828,2.00,2.40,0.32,4.77,2.00,2.00,2.08,4.77,8607,2022-06-09 00:49:27.495,2022-06-08 17:49:27.495,17,0,0,14.860,33.737633,-118.104806,0.10,-0.30,0.00,4.50,-3.50,-36.50,0,1,0,40,100,-7715,1393,14860,3081.50,11,WP,1,0,0,0,0,0,0,1654735767494,3777,3776,3776,3768,0,0,27,,,,,,,0,0,0,-45.00,-35.00,-365.00,130.00,0.00,-476.00,14,20.00,3.16,47.71,1.00,-3.00,0.00,0,,,100,100,0,2,0,0,0,1,0,,,,,0.0,0.0,0.0,0.0,0.0,0.0,0
33.737672,-118.104829,2.00,2.40,0.22,4.78,2.00,2.00,2.08,4.78,8706,2022-06-09 00:49:27.594,2022-06-08 17:49:27.594,17,0,0,14.860,33.737633,-118.104806,0.10,-0.20,0.00,4.60,-4.30,-36.50,0,1,0,40,100,-7715,1393,14860,3081.50,11,WP,1,0,0,0,0,0,0,1654735767593,3777,3776,3776,3768,0,0,27,,,,,,,0,0,0,-46.00,-43.00,-365.00,128.00,0.00,-477.00,14,20.00,2.24,47.83,1.00,-2.00,0.00,0,,,100,100,0,2,0,0,0,1,0,,,,,0.0,0.0,0.0,0.0,0.0,0.0,0
33.737672,-118.104829,2.00,2.40,0.14,4.82,2.00,2.00,2.08,4.82,8807,2022-06-09 00:49:27.695,2022-06-08 17:49:27.695,17,0,0,14.860,33.737633,-118.104806,0.10,-0.10,0.00,6.00,-3.60,-36.70,0,1,0,40,100,-7715,1393,14860,3081.50,11,WP,1,0,0,0,0,0,0,1654735767694,3777,3776,3776,3768,0,0,27,,,,,,,0,0,0,-60.00,-36.00,-367.00,149.00,0.00,-477.00,14,20.00,1.41,48.17,1.00,-1.00,0.00,0,,,100,100,0,2,0,0,0,1,0,,,,,0.0,0.0,0.0,0.0,0.0,0.0,0
33.737672,-118.104829,2.00,2.40,0.10,4.83,2.00,2.00,2.08,4.83,8908,2022-06-09 00:49:27.795,2022-06-08 17:49:27.795,17,0,0,14.860,33.737633,-118.104806,0.00,-0.10,0.00,4.60,-4.90,-37.00,0,1,0,40,100,-7715,1393,14860,3081.50,11,WP,1,0,0,0,0,0,0,1654735767795,3777,3776,3776,3768,0,0,27,,,,,,,0,0,0,-46.00,-49.00,-370.00,134.00,0.00,-477.00,14,20.00,1.00,48.35,0.00,-1.00,0.00,0,,,100,100,0,2,0,0,0,1,0,,,,,0.0,0.0,0.0,0.0,0.0,0.0,0
33.737672,-118.104829,2.00,2.40,0.00,4.85,2.00,2.00,2.08,4.85,9007,2022-06-09 00:49:27.894,2022-06-08 17:49:27.895,17,0,0,14.860,33.737633,-118.104806,0.00,0.00,0.00,3.50,-5.90,-37.00,0,1,0,40,100,-7715,1393,14860,3081.50,11,WP,1,0,0,0,0,0,0,1654735767894,3777,3776,3776,3768,0,0,27,,,,,,,0,0,0,-35.00,-59.00,-370.00,121.00,0.00,-477.00,14,20.00,0.00,48.55,0.00,0.00,0.00,0,,,100,100,0,2,0,0,0,1,0,,,,,0.0,0.0,0.0,0.0,0.0,0.0,0
33.737672,-118.104829,2.00,2.40,0.00,4.83,2.00,2.00,2.08,4.85,9107,2022-06-09 00:49:27.995,2022-06-08 17:49:27.995,17,0,0,14.860,33.737633,-118.104806,0.00,0.00,0.00,3.50,-5.60,-30.50,0,1,0,40,100,-7715,1393,14860,3081.50,11,WP,1,0,0,0,0,0,0,1654735767994,3719,3719,3714,3701,0,0,27,,,,,,,0,0,0,-35.00,-56.00,-305.00,116.00,0.00,-477.00,14,20.00,0.00,48.33,0.00,0.00,0.00,0,,,100,100,0,2,0,0,0,1,0,,,,,0.0,0.0,0.0,0.0,0.0,0.0,0
33.737672,-118.104829,2.00,2.40,0.00,4.84,2.00,2.00,2.08,4.85,9207,2022-06-09 00:49:28.094,2022-06-08 17:49:28.094,17,0,0,14.860,33.737633,-118.104806,0.00,0.00,0.00,2.80,-5.20,-24.60,0,1,0,40,100,-7715,1393,14860,3081.50,11,WP,1,0,0,0,0,0,0,1654735768094,3719,3719,3714,3701,0,0,27,,,,,,,0,0,0,-28.00,-52.00,-246.00,106.00,0.00,-460.00,14,20.00,0.00,48.43,0.00,0.00,0.00,0,,,100,100,0,2,0,0,0,1,0,,,,,0.0,0.0,0.0,0.0,0.0,0.0,0
33.737672,-118.104830,2.00,2.40,0.00,4.83,2.00,2.00,2.08,4.85,9307,2022-06-09 00:49:28.194,2022-06-08 17:49:28.194,17,0,0,14.860,33.737633,-118.104806,0.00,0.00,0.00,2.80,-5.00,-19.70,0,1,0,40,100,-7715,1393,14860,3081.50,11,WP,1,0,0,0,0,0,0,1654735768194,3719,3719,3714,3701,0,0,27,,,,,,,0,0,0,-28.00,-50.00,-197.00,107.00,1.00,-407.00,14,20.00,0.00,48.28,0.00,0.00,0.00,0,,,100,100,0,2,0,0,0,1,0,,,,,0.0,0.0,0.0,0.0,0.0,0.0,0
33.737672,-118.104830,2.00,2.40,0.00,4.84,2.00,2.00,2.08,4.85,9407,2022-06-09 00:49:28.295,2022-06-08 17:49:28.295,17,0,0,14.860,33.737633,-118.104806,0.00,0.00,0.00,3.20,-5.20,-16.00,0,1,0,40,100,-7715,1393,14860,3081.50,11,WP,1,0,0,0,0,0,0,1654735768294,3719,3719,3714,3701,0,0,27,,,,,,,0,0,0,-32.00,-52.00,-160.00,110.00,1.00,-351.00,14,20.00,0.00,48.36,0.00,0.00,0.00,0,,,100,100,0,2,0,0,0,1,0,,,,,0.0,0.0,0.0,0.0,0.0,0.0,0
33.737672,-118.104830,2.00,2.40,0.00,4.81,2.00,2.00,2.08,4.85,9508,2022-06-09 00:49:28.395,2022-06-08 17:49:28.395,17,0,0,14.860,33.737633,-118.104806,0.00,0.00,0.00,3.80,-5.10,-13.00,0,1,0,40,100,-7715,1393,14860,3081.50,11,WP,1,0,0,0,0,0,0,1654735768395,3719,3719,3714,3701,0,0,27,,,,,,,0,0,0,-38.00,-51.00,-130.00,117.00,1.00,-306.00,14,20.00,0.00,48.13,0.00,0.00,0.00,0,,,100,100,0,2,0,0,0,1,0,,,,,0.0,0.0,0.0,0.0,0.0,0.0,0
33.737672,-118.104830,2.00,2.40,0.00,4.82,2.00,2.00,2.08,4.85,9593,2022-06-09 00:49:28.480,2022-06-08 17:49:28.480,17,0,0,14.860,33.737633,-118.104806,0.00,0.00,0.00,4.10,-4.70,-10.40,0,1,0,40,100,-7715,1393,14860,3081.50,11,WP,1,0,0,0,0,0,0,1654735768480,3719,3719,3714,3701,0,0,27,,,,,,,0,0,0,-41.00,-47.00,-104.00,121.00,1.00,-272.00,14,20.00,0.00,48.18,0.00,0.00,0.00,0,,,100,100,0,2,0,0,0,1,0,,,,,0.0,0.0,0.0,0.0,0.0,0.0,0
33.737672,-118.104829,2.00,2.40,0.00,4.80,2.00,2.00,2.08,4.85,9706,2022-06-09 00:49:28.594,2022-06-08 17:49:28.594,17,0,0,14.860,33.737633,-118.104806,0.00,0.00,0.00,4.00,-5.00,-8.40,0,1,0,40,100,-7715,1393,14860,3081.50,11,WP,1,0,0,0,0,0,0,1654735768593,3719,3719,3714,3701,0,0,27,,,,,,,0,0,0,-40.00,-50.00,-84.00,120.00,1.00,-245.00,14,20.00,0.00,48.01,0.00,0.00,0.00,0,,,100,100,0,2,0,0,0,1,0,,,,,0.0,0.0,0.0,0.0,0.0,0.0,0
33.737672,-118.104829,2.00,2.40,0.00,4.80,2.00,2.00,2.08,4.85,9807,2022-06-09 00:49:28.694,2022-06-08 17:49:28.694,17,0,0,14.860,33.737633,-118.104806,0.00,0.00,0.00,4.10,-4.90,-6.70,0,1,0,40,100,-7715,1393,14860,3081.50,11,WP,1,0,0,0,0,0,0,1654735768694,3719,3719,3714,3701,0,0,27,,,,,,,0,0,0,-41.00,-49.00,-67.00,121.00,0.00,-224.00,14,20.00,0.00,48.03,0.00,0.00,0.00,0,,,100,100,0,2,0,0,0,1,0,,,,,0.0,0.0,0.0,0.0,0.0,0.0,0
33.737672,-118.104829,2.00,2.40,0.00,4.79,2.00,2.00,2.08,4.85,9908,2022-06-09 00:49:28.795,2022-06-08 17:49:28.795,17,0,0,14.860,33.737633,-118.104806,0.00,0.00,0.00,4.20,-4.70,-5.30,0,1,0,40,100,-7715,1393,14860,3081.50,11,WP,1,0,0,0,0,0,0,1654735768795,3719,3719,3714,3701,0,0,27,,,,,,,0,0,0,-42.00,-47.00,-53.00,123.00,0.00,-206.00,14,20.00,0.00,47.89,0.00,0.00,0.00,0,,,100,100,0,2,0,0,0,1,0,,,,,0.0,0.0,0.0,0.0,0.0,0.0,0
33.737672,-118.104829,2.00,2.50,0.00,4.79,2.00,2.00,2.08,4.85,10007,2022-06-09 00:49:28.895,2022-06-08 17:49:28.895,17,0,0,14.860,33.737633,-118.104806,0.00,0.00,0.00,4.70,-4.20,-4.20,0,1,0,40,100,-7715,1393,14860,3081.50,11,WP,1,0,0,0,0,0,0,1654735768894,3719,3719,3714,3701,0,0,27,,,,,,,0,0,0,-47.00,-42.00,-42.00,128.00,0.00,-192.00,14,20.00,0.00,47.89,0.00,0.00,0.00,0,,,100,100,0,2,0,0,0,1,0,,,,,0.0,0.0,0.0,0.0,0.0,0.0,0
33.737672,-118.104829,2.00,2.50,0.00,4.78,2.00,2.00,2.08,4.85,10107,2022-06-09 00:49:28.995,2022-06-08 17:49:28.995,17,0,0,14.860,33.737633,-118.104806,0.00,0.00,0.00,4.90,-3.70,-1.70,0,1,0,40,100,-7715,1393,14860,3081.50,11,WP,1,0,0,0,0,0,0,1654735768994,3719,3719,3714,3701,0,0,27,,,,,,,0,0,0,-49.00,-37.00,-17.00,130.00,0.00,-181.00,14,20.00,0.00,47.80,0.00,0.00,0.00,0,,,100,100,0,2,0,0,0,1,0,,,,,0.0,0.0,0.0,0.0,0.0,0.0,0
33.737672,-118.104829,2.00,2.50,0.00,4.78,2.00,2.00,2.08,4.85,10207,2022-06-09 00:49:29.095,2022-06-08 17:49:29.095,17,0,0,14.860,33.737633,-118.104806,0.00,0.00,0.00,4.40,-3.60,0.30,0,1,0,40,100,-7715,1393,14860,3081.50,11,WP,1,0,0,0,0,0,0,1654735769094,3719,3719,3714,3701,0,0,27,,,,,,,0,0,0,-44.00,-36.00,3.00,125.00,0.00,-163.00,14,20.00,0.00,47.76,0.00,0.00,0.00,0,,,100,100,0,2,0,0,0,1,0,,,,,0.0,0.0,0.0,0.0,0.0,0.0,0
33.737671,-118.104829,2.00,2.50,0.00,4.76,2.00,2.00,2.08,4.85,10308,2022-06-09 00:49:29.195,2022-06-08 17:49:29.195,17,0,0,14.841,33.737633,-118.104806,0.00,0.00,0.00,4.10,-3.70,1.60,0,1,0,40,100,-8130,1389,14841,3081.50,11,WP,1,0,0,0,0,0,0,1654735769195,3719,3719,3714,3701,0,0,27,,,,,,,0,0,0,-41.00,-37.00,16.00,123.00,0.00,-142.00,14,20.00,0.00,47.55,0.00,0.00,0.00,0,,,100,100,0,2,0,0,0,1,0,,,,,0.0,0.0,0.0,0.0,0.0,0.0,0
33.737671,-118.104829,2.00,2.50,0.00,4.75,2.00,2.00,2.08,4.85,10408,2022-06-09 00:49:29.295,2022-06-08 17:49:29.295,17,0,0,14.841,33.737633,-118.104806,0.00,0.00,0.00,4.50,-3.70,2.60,0,1,0,40,100,-8130,1389,14841,3081.50,11,WP,1,0,0,0,0,0,0,1654735769295,3719,3719,3714,3701,0,0,27,,,,,,,0,0,0,-45.00,-37.00,26.00,126.00,0.00,-126.00,14,20.00,0.00,47.49,0.00,0.00,0.00,0,,,100,100,0,2,0,0,0,1,0,,,,,0.0,0.0,0.0,0.0,0.0,0.0,0
33.737671,-118.104829,2.00,2.50,0.00,4.75,2.00,2.00,2.08,4.85,10507,2022-06-09 00:49:29.395,2022-06-08 17:49:29.395,17,0,0,14.841,33.737633,-118.104806,0.00,0.00,0.00,4.80,-3.60,3.40,0,1,0,40,100,-8130,1389,14841,3081.50,11,WP,1,0,0,0,0,0,0,1654735769394,3719,3719,3714,3701,0,0,27,,,,,,,0,0,0,-48.00,-36.00,34.00,130.00,0.00,-114.00,14,20.00,0.00,47.51,0.00,0.00,0.00,0,,,100,100,0,2,0,0,0,1,0,,,,,0.0,0.0,0.0,0.0,0.0,0.0,0
33.737671,-118.104829,2.00,2.50,0.00,4.74,2.00,2.00,2.08,4.85,10657,2022-06-09 00:49:29.544,2022-06-08 17:49:29.545,17,0,0,14.841,33.737633,-118.104806,0.00,0.00,0.00,5.10,-3.70,4.00,0,1,0,40,100,-8130,1389,14841,3081.50,11,WP,1,0,0,0,0,0,0,1654735769544,3719,3719,3714,3701,0,0,27,,,,,,,0,0,0,-51.00,-37.00,40.00,132.00,0.00,-105.00,14,20.00,0.00,47.45,0.00,0.00,0.00,0,,,100,100,0,2,0,0,0,1,0,,,,,0.0,0.0,0.0,0.0,0.0,0.0,0
33.737671,-118.104829,2.00,2.50,0.00,4.73,2.00,2.00,2.08,4.85,10708,2022-06-09 00:49:29.595,2022-06-08 17:49:29.595,17,0,0,14.841,33.737633,-118.104806,0.00,0.00,0.00,5.20,-3.90,4.40,0,1,0,40,100,-8130,1389,14841,3081.50,11,WP,1,0,0,0,0,0,0,1654735769595,3719,3719,3714,3701,0,0,27,,,,,,,0,0,0,-52.00,-39.00,44.00,133.00,0.00,-99.00,14,20.00,0.00,47.35,0.00,0.00,0.00,0,,,100,100,0,2,0,0,0,1,0,,,,,0.0,0.0,0.0,0.0,0.0,0.0,0
33.737671,-118.104829,2.00,2.50,0.00,4.73,2.00,2.00,2.08,4.85,10809,2022-06-09 00:49:29.697,2022-06-08 17:49:29.697,17,0,0,14.841,33.737633,-118.104806,0.00,0.00,0.00,5.50,-4.00,4.60,0,1,0,40,100,-8130,1389,14841,3081.50,11,WP,1,0,0,0,0,0,0,1654735769696,3719,3719,3714,3701,0,0,27,,,,,,,0,0,0,-55.00,-40.00,46.00,137.00,0.00,-94.00,14,20.00,0.00,47.28,0.00,0.00,0.00,0,,,100,100,0,2,0,0,0,1,0,,,,,0.0,0.0,0.0,0.0,0.0,0.0,0
33.737671,-118.104829,2.00,2.50,0.00,4.72,2.00,2.00,2.08,4.85,10908,2022-06-09 00:49:29.796,2022-06-08 17:49:29.796,17,0,0,14.841,33.737633,-118.104806,0.00,0.00,0.00,5.60,-4.00,4.70,0,1,0,40,100,-8130,1389,14841,3081.50,11,WP,1,0,0,0,0,0,0,1654735769795,3719,3719,3714,3701,0,0,27,,,,,,,0,0,0,-56.00,-40.00,47.00,138.00,0.00,-90.00,14,20.00,0.00,47.19,0.00,0.00,0.00,0,,,100,100,0,2,0,0,0,1,0,,,,,0.0,0.0,0.0,0.0,0.0,0.0,0
33.737671,-118.104829,2.00,2.50,0.00,4.71,2.00,2.00,2.08,4.85,11009,2022-06-09 00:49:29.897,2022-06-08 17:49:29.897,17,0,0,14.841,33.737633,-118.104806,0.00,0.00,0.00,5.40,-3.80,4.70,0,1,0,40,100,-8130,1389,14841,3081.50,11,WP,1,0,0,0,0,0,0,1654735769896,3719,3719,3714,3701,0,0,27,,,,,,,0,0,0,-54.00,-38.00,47.00,137.00,0.00,-86.00,14,20.00,0.00,47.11,0.00,0.00,0.00,0,,,100,100,0,2,0,0,0,1,0,,,,,0.0,0.0,0.0,0.0,0.0,0.0,0
33.737671,-118.104829,2.00,2.50,0.00,4.71,2.00,2.00,2.08,4.85,11109,2022-06-09 00:49:29.997,2022-06-08 17:49:29.997,17,0,0,14.841,33.737633,-118.104806,0.00,0.00,0.00,5.40,-3.90,4.90,0,1,0,40,100,-8130,1389,14841,3081.50,11,WP,1,0,0,0,0,0,0,1654735769996,3719,3719,3714,3701,0,0,27,,,,,,,0,0,0,-54.00,-39.00,49.00,136.00,0.00,-83.00,14,20.00,0.00,47.12,0.00,0.00,0.00,0,,,100,100,0,2,0,0,0,1,0,,,,,0.0,0.0,0.0,0.0,0.0,0.0,0
33.737671,-118.104829,2.00,2.50,0.00,4.70,2.00,2.00,2.08,4.85,11209,2022-06-09 00:49:30.096,2022-06-08 17:49:30.096,17,0,0,14.841,33.737633,-118.104806,0.00,0.00,0.00,5.40,-3.80,4.90,0,1,0,40,100,-8130,1389,14841,3081.50,11,WP,1,0,0,0,0,0,0,1654735770096,3719,3719,3714,3701,0,0,27,,,,,,,0,0,0,-54.00,-38.00,49.00,137.00,0.00,-81.00,14,20.00,0.00,47.04,0.00,0.00,0.00,0,,,100,100,0,2,0,0,0,1,0,,,,,0.0,0.0,0.0,0.0,0.0,0.0,0
33.737671,-118.104828,2.00,2.50,0.00,4.70,2.00,2.00,2.08,4.85,11308,2022-06-09 00:49:30.195,2022-06-08 17:49:30.195,17,0,0,14.841,33.737633,-118.104806,0.00,0.00,0.00,5.30,-3.90,4.80,0,1,0,40,100,-8130,1389,14841,3081.50,11,WP,1,0,0,0,0,0,0,1654735770195,3719,3719,3714,3701,0,0,27,,,,,,,0,0,0,-53.00,-39.00,48.00,135.00,0.00,-79.00,14,20.00,0.00,47.03,0.00,0.00,0.00,0,,,100,100,0,2,0,0,0,1,0,,,,,0.0,0.0,0.0,0.0,0.0,0.0,0
33.737671,-118.104828,2.00,2.50,0.00,4.69,2.00,2.00,2.08,4.85,11409,2022-06-09 00:49:30.296,2022-06-08 17:49:30.296,17,0,0,14.841,33.737633,-118.104806,0.00,0.00,0.00,5.00,-4.20,4.80,0,1,0,40,100,-8130,1389,14841,3081.50,11,WP,1,0,0,0,0,0,0,1654735770296,3719,3719,3714,3701,0,0,27,,,,,,,0,0,0,-50.00,-42.00,48.00,133.00,0.00,-78.00,14,20.00,0.00,46.94,0.00,0.00,0.00,0,,,100,100,0,2,0,0,0,1,0,,,,,0.0,0.0,0.0,0.0,0.0,0.0,0
33.737671,-118.104828,2.00,2.50,0.00,4.68,2.00,2.00,2.08,4.85,11508,2022-06-09 00:49:30.396,2022-06-08 17:49:30.396,17,0,0,14.841,33.737633,-118.104806,0.00,0.00,0.00,4.80,-4.00,4.80,0,1,0,40,100,-8130,1389,14841,3081.50,11,WP,1,0,0,0,0,0,0,1654735770395,3719,3719,3714,3701,0,0,27,,,,,,,0,0,0,-48.00,-40.00,48.00,131.00,0.00,-77.00,14,20.00,0.00,46.79,0.00,0.00,0.00,0,,,100,100,0,2,0,0,0,1,0,,,,,0.0,0.0,0.0,0.0,0.0,0.0,0
33.737671,-118.104828,2.00,2.50,0.00,4.67,2.00,2.00,2.08,4.85,11608,2022-06-09 00:49:30.495,2022-06-08 17:49:30.495,17,0,0,14.841,33.737633,-118.104806,0.00,0.00,0.00,4.70,-4.20,4.80,0,1,0,40,100,-8130,1389,14841,3081.50,11,WP,1,0,0,0,0,0,0,1654735770495,3719,3719,3714,3701,0,0,27,,,,,,,0,0,0,-47.00,-42.00,48.00,130.00,0.00,-76.00,14,20.00,0.00,46.70,0.00,0.00,0.00,0,,,100,100,0,2,0,0,0,1,0,,,,,0.0,0.0,0.0,0.0,0.0,0.0,0
33.737671,-118.104828,2.00,2.50,0.00,4.68,2.00,2.00,2.08,4.85,11709,2022-06-09 00:49:30.596,2022-06-08 17:49:30.596,17,0,0,14.841,33.737633,-118.104806,0.00,0.00,0.00,4.80,-4.30,4.80,0,1,0,40,100,-8130,1389,14841,3081.50,11,WP,1,0,0,0,0,0,0,1654735770596,3719,3719,3714,3701,0,0,27,,,,,,,0,0,0,-48.00,-43.00,48.00,129.00,0.00,-75.00,14,20.00,0.00,46.81,0.00,0.00,0.00,0,,,100,100,0,2,0,0,0,1,0,,,,,0.0,0.0,0.0,0.0,0.0,0.0,0
33.737671,-118.104828,2.00,2.50,0.00,4.67,2.00,2.00,2.08,4.85,11808,2022-06-09 00:49:30.696,2022-06-08 17:49:30.696,17,0,0,14.841,33.737633,-118.104806,0.00,0.00,0.00,4.70,-4.60,4.80,0,1,0,40,100,-8130,1389,14841,3081.50,11,WP,1,0,0,0,0,0,0,1654735770695,3719,3719,3714,3701,0,0,27,,,,,,,0,0,0,-47.00,-46.00,48.00,129.00,0.00,-74.00,14,20.00,0.00,46.75,0.00,0.00,0.00,0,,,100,100,0,2,0,0,0,1,0,,,,,0.0,0.0,0.0,0.0,0.0,0.0,0
33.737671,-118.104828,2.00,2.50,0.00,4.67,2.00,2.00,2.08,4.85,11908,2022-06-09 00:49:30.796,2022-06-08 17:49:30.796,17,0,0,14.841,33.737633,-118.104806,0.00,0.00,0.00,5.30,-4.80,4.80,0,1,0,40,100,-8130,1389,14841,3081.50,11,WP,1,0,0,0,0,0,0,1654735770795,3719,3719,3714,3701,0,0,27,,,,,,,0,0,0,-53.00,-48.00,48.00,133.00,0.00,-74.00,14,20.00,0.00,46.65,0.00,0.00,0.00,0,,,100,100,0,2,0,0,0,1,0,,,,,0.0,0.0,0.0,0.0,0.0,0.0,0
33.737671,-118.104828,2.00,2.50,0.00,4.66,2.00,2.00,2.08,4.85,12009,2022-06-09 00:49:30.897,2022-06-08 17:49:30.897,17,0,0,14.841,33.737633,-118.104806,0.00,0.00,0.00,5.40,-4.40,4.70,0,1,0,40,100,-8130,1389,14841,3081.50,11,WP,1,0,0,0,0,0,0,1654735770896,3719,3719,3714,3701,0,0,27,,,,,,,0,0,0,-54.00,-44.00,47.00,136.00,0.00,-73.00,14,20.00,0.00,46.60,0.00,0.00,0.00,0,,,100,100,0,2,0,0,0,1,0,,,,,0.0,0.0,0.0,0.0,0.0,0.0,0
33.737671,-118.104828,2.00,2.50,0.00,4.66,2.00,2.00,2.08,4.85,12110,2022-06-09 00:49:30.998,2022-06-08 17:49:30.998,17,0,0,14.841,33.737633,-118.104806,0.00,0.00,0.00,5.20,-4.20,4.70,0,1,0,40,100,-8130,1389,14841,3081.50,11,WP,1,0,0,0,0,0,0,1654735770997,3719,3719,3714,3701,0,0,27,,,,,,,0,0,0,-52.00,-42.00,47.00,134.00,0.00,-72.00,14,20.00,0.00,46.63,0.00,0.00,0.00,0,,,100,100,0,2,0,0,0,1,0,,,,,0.0,0.0,0.0,0.0,0.0,0.0,0
33.737671,-118.104828,2.00,2.50,0.00,4.66,2.00,2.00,2.08,4.85,12208,2022-06-09 00:49:31.096,2022-06-08 17:49:31.096,17,0,0,14.841,33.737633,-118.104806,0.00,0.00,0.00,4.70,-4.20,4.70,0,1,0,40,100,-8130,1389,14841,3081.50,11,WP,1,0,0,0,0,0,0,1654735771095,3719,3719,3714,3701,0,0,27,,,,,,,0,0,0,-47.00,-42.00,47.00,129.00,0.00,-72.00,14,20.00,0.00,46.57,0.00,0.00,0.00,0,,,100,100,0,2,0,0,0,1,0,,,,,0.0,0.0,0.0,0.0,0.0,0.0,0
33.737671,-118.104828,2.00,2.50,0.00,4.66,2.00,2.00,2.08,4.85,12309,2022-06-09 00:49:31.196,2022-06-08 17:49:31.196,17,0,0,14.837,33.737633,-118.104806,0.00,0.00,0.00,4.30,-4.50,4.80,0,1,0,40,100,-7588,1384,14837,3091.50,11,WP,1,0,0,0,0,0,0,1654735771196,3719,3719,3714,3701,0,0,27,,,,,,,0,0,0,-43.00,-45.00,48.00,124.00,0.00,-72.00,14,20.00,0.00,46.58,0.00,0.00,0.00,0,,,100,100,0,2,0,0,0,1,0,,,,,0.0,0.0,0.0,0.0,0.0,0.0,0
33.737671,-118.104828,2.00,2.50,0.00,4.65,2.00,2.00,2.08,4.85,12409,2022-06-09 00:49:31.297,2022-06-08 17:49:31.297,17,0,0,14.837,33.737633,-118.104806,0.00,0.00,0.00,4.50,-4.80,4.80,0,1,0,40,100,-7588,1384,14837,3091.50,11,WP,1,0,0,0,0,0,0,1654735771296,3719,3719,3714,3701,0,0,27,,,,,,,0,0,0,-45.00,-48.00,48.00,126.00,0.00,-71.00,14,20.00,0.00,46.54,0.00,0.00,0.00,0,,,100,100,0,2,0,0,0,1,0,,,,,0.0,0.0,0.0,0.0,0.0,0.0,0
33.737671,-118.104828,2.00,2.50,0.00,4.64,2.00,2.00,2.08,4.85,12508,2022-06-09 00:49:31.396,2022-06-08 17:49:31.396,17,0,0,14.837,33.737633,-118.104806,0.00,0.00,0.00,4.50,-4.30,4.70,0,1,0,40,100,-7588,1384,14837,3091.50,11,WP,1,0,0,0,0,0,0,1654735771395,3719,3719,3714,3701,0,0,27,,,,,,,0,0,0,-45.00,-43.00,47.00,127.00,0.00,-71.00,14,20.00,0.00,46.44,0.00,0.00,0.00,0,,,100,100,0,2,0,0,0,1,0,,,,,0.0,0.0,0.0,0.0,0.0,0.0,0
33.737671,-118.104828,2.00,2.50,0.00,4.64,2.00,2.00,2.08,4.85,12609,2022-06-09 00:49:31.496,2022-06-08 17:49:31.496,17,0,0,14.837,33.737633,-118.104806,0.00,0.00,0.00,4.40,-4.40,4.80,0,1,0,40,100,-7588,1384,14837,3091.50,11,WP,1,0,0,0,0,0,0,1654735771496,3719,3719,3714,3701,0,0,27,,,,,,,0,0,0,-44.00,-44.00,48.00,125.00,0.00,-71.00,14,20.00,0.00,46.39,0.00,0.00,0.00,0,,,100,100,0,2,0,0,0,1,0,,,,,0.0,0.0,0.0,0.0,0.0,0.0,0
33.737671,-118.104827,2.10,2.50,0.00,4.65,2.10,2.10,2.08,4.85,12709,2022-06-09 00:49:31.597,2022-06-08 17:49:31.597,17,0,0,14.837,33.737633,-118.104806,0.00,0.00,0.00,4.50,-4.30,4.70,0,1,0,40,100,-7588,1384,14837,3091.50,11,WP,1,0,0,0,0,0,0,1654735771596,3719,3719,3714,3701,0,0,27,,,,,,,0,0,0,-45.00,-43.00,47.00,126.00,0.00,-70.00,14,21.00,0.00,46.47,0.00,0.00,0.00,0,,,100,100,0,2,0,0,0,1,0,,,,,0.0,0.0,0.0,0.0,0.0,0.0,0
33.737671,-118.104827,2.10,2.50,0.00,4.65,2.10,2.10,2.08,4.85,12809,2022-06-09 00:49:31.697,2022-06-08 17:49:31.697,17,0,0,14.837,33.737633,-118.104806,0.00,0.00,0.00,4.60,-4.30,4.90,0,1,0,40,100,-7588,1384,14837,3091.50,11,WP,1,0,0,0,0,0,0,1654735771696,3719,3719,3714,3701,0,0,27,,,,,,,0,0,0,-46.00,-43.00,49.00,127.00,0.00,-70.00,14,21.00,0.00,46.45,0.00,0.00,0.00,0,,,100,100,0,2,0,0,0,1,0,,,,,0.0,0.0,0.0,0.0,0.0,0.0,0
33.737671,-118.104827,2.10,2.50,0.00,4.63,2.10,2.10,2.08,4.85,12910,2022-06-09 00:49:31.797,2022-06-08 17:49:31.797,17,0,0,14.837,33.737633,-118.104806,0.00,0.00,0.00,4.00,-3.90,5.10,0,1,0,40,100,-7588,1384,14837,3091.50,11,WP,1,0,0,0,0,0,0,1654735771797,3719,3719,3714,3701,0,0,27,,,,,,,0,0,0,-40.00,-39.00,51.00,122.00,0.00,-70.00,14,21.00,0.00,46.35,0.00,0.00,0.00,0,,,100,100,0,2,0,0,0,1,0,,,,,0.0,0.0,0.0,0.0,0.0,0.0,0
33.737671,-118.104827,2.10,2.50,0.00,4.63,2.10,2.10,2.08,4.85,13020,2022-06-09 00:49:31.907,2022-06-08 17:49:31.907,17,0,0,14.837,33.737633,-118.104806,0.00,0.00,0.00,4.10,-3.80,5.20,0,1,0,40,100,-7588,1384,14837,3091.50,11,WP,1,0,0,0,0,0,0,1654735771907,3719,3719,3714,3701,0,0,27,,,,,,,0,0,0,-41.00,-38.00,52.00,122.00,0.00,-70.00,14,21.00,0.00,46.33,0.00,0.00,0.00,0,,,100,100,0,2,0,0,0,1,0,,,,,0.0,0.0,0.0,0.0,0.0,0.0,0
33.737671,-118.104827,2.10,2.50,0.00,4.64,2.10,2.10,2.08,4.85,13109,2022-06-09 00:49:31.996,2022-06-08 17:49:31.997,17,0,0,14.837,33.737633,-118.104806,0.00,0.00,0.00,4.20,-3.90,5.10,0,1,0,40,100,-7588,1384,14837,3091.50,11,WP,1,0,0,0,0,0,0,1654735771996,3719,3719,3714,3701,0,0,27,,,,,,,0,0,0,-42.00,-39.00,51.00,123.00,0.00,-69.00,14,21.00,0.00,46.41,0.00,0.00,0.00,0,,,100,100,0,2,0,0,0,1,0,,,,,0.0,0.0,0.0,0.0,0.0,0.0,0
33.737671,-118.104827,2.10,2.60,0.00,4.64,2.10,2.10,2.08,4.85,13210,2022-06-09 00:49:32.098,2022-06-08 17:49:32.098,17,0,0,14.837,33.737633,-118.104806,0.00,0.00,0.00,4.50,-4.00,5.00,0,1,0,40,100,-7588,1384,14837,3091.50,11,WP,1,0,0,0,0,0,0,1654735772097,3719,3719,3714,3701,0,0,27,,,,,,,0,0,0,-45.00,-40.00,50.00,126.00,0.00,-69.00,14,21.00,0.00,46.41,0.00,0.00,0.00,0,,,100,100,0,2,0,0,0,1,0,,,,,0.0,0.0,0.0,0.0,0.0,0.0,0
33.737671,-118.104827,2.10,2.60,0.00,4.64,2.10,2.10,2.08,4.85,13310,2022-06-09 00:49:32.197,2022-06-08 17:49:32.198,17,0,0,14.837,33.737633,-118.104806,0.00,0.00,0.00,4.70,-4.00,5.10,0,1,0,40,100,-7588,1384,14837,3091.50,11,WP,1,0,0,0,0,0,0,1654735772197,3719,3719,3714,3701,0,0,27,,,,,,,0,0,0,-47.00,-40.00,51.00,128.00,0.00,-68.00,14,21.00,0.00,46.44,0.00,0.00,0.00,0,,,100,100,0,2,0,0,0,1,0,,,,,0.0,0.0,0.0,0.0,0.0,0.0,0
33.737671,-118.104827,2.10,2.60,0.00,4.64,2.10,2.10,2.08,4.85,13409,2022-06-09 00:49:32.297,2022-06-08 17:49:32.297,17,0,0,14.837,33.737633,-118.104806,0.00,0.00,0.00,4.80,-3.80,5.10,0,1,0,40,100,-7588,1384,14837,3091.50,11,WP,1,0,0,0,0,0,0,1654735772296,3719,3719,3714,3701,0,0,27,,,,,,,0,0,0,-48.00,-38.00,51.00,129.00,0.00,-68.00,14,21.00,0.00,46.45,0.00,0.00,0.00,0,,,100,100,0,2,0,0,0,1,0,,,,,0.0,0.0,0.0,0.0,0.0,0.0,0
33.737671,-118.104827,2.10,2.60,0.00,4.64,2.10,2.10,2.08,4.85,13499,2022-06-09 00:49:32.386,2022-06-08 17:49:32.387,17,0,0,14.837,33.737633,-118.104806,0.00,0.00,0.00,4.80,-3.70,5.20,0,1,0,40,100,-7588,1384,14837,3091.50,11,WP,1,0,0,0,0,0,0,1654735772386,3719,3719,3714,3701,0,0,27,,,,,,,0,0,0,-48.00,-37.00,52.00,129.00,0.00,-68.00,14,21.00,0.00,46.45,0.00,0.00,0.00,0,,,100,100,0,2,0,0,0,1,0,,,,,0.0,0.0,0.0,0.0,0.0,0.0,0
