latitude,longitude,altitude(m),ultrasonicHeight(m),speed(mps),distance(m),max_altitude(m),max_ascent(m),max_speed(mps),max_distance(m),time(millisecond),datetime(utc),datetime(local),satellites,pressure(Pa),temperature(F),voltage(v),home_latitude,home_longitude,velocityX(mps),velocityY(mps),velocityZ(mps),pitch(deg),roll(deg),yaw(deg),powerlevel,isflying,istakingphoto,remainPowerPercent,remainLifePercent,currentCurrent,currentElectricity,currentVoltage,batteryTemperature,dischargeCount,flightmode,isMotorsOn,isTakingVideo,Rc_elevator,Rc_aileron,Rc_throttle,Rc_rudder,Rc_gyro,timestamp,Battery_Cell1,Battery_Cell2,Battery_Cell3,Battery_Cell4,Battery_Cell5,Battery_Cell6,Dronetype,AppVersion,Planename,FlyControllerSerialNumber,RemoteSerialNumber,BatterySerialNumber,CENTER_BATTERY.productDate,CENTER_BATTERY.serialNo,CENTER_BATTERY.fullCapacity,CENTER_BATTERY.productDateRaw,pitchRaw,rollRaw,yawRaw,gimbalPitchRaw,gimbalRollRaw,gimbalYawRaw,flyState,altitudeRaw,speedRaw,distanceRaw,velocityXRaw,velocityYRaw,velocityZRaw,data_reuse,App_Tip,App_Warning,downlinkSignalQuality,uplinkSignalQuality,transmissionChannel,rcModeSwitch,rcHome,rcPause,rcTransform,rcJoystickMode,appMode,FlyControllerSerialNumber_legacy,RemoteSerialNumber_legacy,BatterySerialNumber_legacy,Battery2SerialNumber,frontAvoidDist,backAvoidDist,rightAvoidDist,leftAvoidDist,upAvoidDist,downAvoidDist,isBrakingToAvoid
34.182601,-118.129088,0.30,0.30,0.40,0.13,0.30,0.30,0.40,0.13,1,2022-06-08 00:06:56.489,2022-06-07 17:06:56.489,15,0,0,15.385,34.182600,-118.129088,0.00,0.00,-0.40,0.80,-1.30,-30.10,0,1,0,48,100,-2349,1664,15385,3201.50,10,TakeOff,1,0,0,0,0,0,0,1654646816489,3863,3865,3865,3857,0,0,27,Litchi_iOS_2.14.0,Brian-MAVIC 2,163DFCK001S13F,1DUCFB800104PR,0P2AFBV5340045,,0,3507,0,-8.00,-13.00,-301.00,0.00,0.00,-337.00,11,3.00,4.00,1.31,0.00,0.00,-4.00,0,,,100,100,0,2,0,0,0,1,0,(null),(null),(null),(null),0.0,0.0,0.0,0.0,0.0,0.0,0
34.182601,-118.129087,0.40,0.40,0.40,0.14,0.40,0.40,0.40,0.14,100,2022-06-08 00:06:56.588,2022-06-07 17:06:56.588,15,0,0,15.285,34.182600,-118.129088,0.00,0.00,-0.40,0.80,-1.60,-30.10,0,1,0,48,100,-5481,1661,15285,3201.50,10,TakeOff,1,0,0,0,0,0,0,1654646816588,3863,3865,3865,3857,0,0,27,,,,,,,0,0,0,-8.00,-16.00,-301.00,0.00,0.00,-337.00,11,4.00,4.00,1.37,0.00,0.00,-4.00,0,,,100,100,0,2,0,0,0,1,0,,,,,0.0,0.0,0.0,0.0,0.0,0.0,0
34.182601,-118.129088,0.40,0.40,0.40,0.13,0.40,0.40,0.40,0.14,151,2022-06-08 00:06:56.639,2022-06-07 17:06:56.639,15,0,0,15.285,34.182600,-118.129088,0.00,0.00,-0.40,0.50,-1.60,-30.20,0,1,0,48,100,-5481,1661,15285,3201.50,10,TakeOff,1,0,0,0,0,0,0,1654646816639,3863,3865,3865,3857,0,0,27,,,,,,,0,0,0,-5.00,-16.00,-302.00,0.00,0.00,-337.00,11,4.00,4.00,1.28,0.00,0.00,-4.00,0,,,100,100,0,2,0,0,0,1,0,,,,,0.0,0.0,0.0,0.0,0.0,0.0,0
34.182601,-118.129087,0.40,0.50,0.40,0.13,0.40,0.40,0.40,0.14,251,2022-06-08 00:06:56.740,2022-06-07 17:06:56.740,15,0,0,15.285,34.182600,-118.129088,0.00,0.00,-0.40,0.40,-1.60,-30.20,0,1,0,48,100,-5481,1661,15285,3201.50,10,TakeOff,1,0,0,0,0,0,0,1654646816739,3863,3865,3865,3857,0,0,27,,,,,,,0,0,0,-4.00,-16.00,-302.00,0.00,0.00,-337.00,11,4.00,4.00,1.30,0.00,0.00,-4.00,0,,,100,100,0,2,0,0,0,1,0,,,,,0.0,0.0,0.0,0.0,0.0,0.0,0
34.182601,-118.129087,0.50,0.50,0.50,0.12,0.50,0.50,0.50,0.14,400,2022-06-08 00:06:56.889,2022-06-07 17:06:56.889,15,0,0,15.285,34.182600,-118.129088,0.00,0.00,-0.50,0.30,-1.50,-30.20,0,1,0,48,100,-5481,1661,15285,3201.50,10,TakeOff,1,0,0,0,0,0,0,1654646816888,3863,3865,3865,3857,0,0,27,,,,,,,0,0,0,-3.00,-15.00,-302.00,0.00,0.00,-337.00,11,5.00,5.00,1.18,0.00,0.00,-5.00,0,,,100,100,0,2,0,0,0,1,0,,,,,0.0,0.0,0.0,0.0,0.0,0.0,0
34.182601,-118.129087,0.50,0.60,0.50,0.12,0.50,0.50,0.50,0.14,502,2022-06-08 00:06:56.991,2022-06-07 17:06:56.991,15,0,0,15.285,34.182600,-118.129088,0.00,0.00,-0.50,0.10,-1.30,-30.20,0,1,0,48,100,-5481,1661,15285,3201.50,10,TakeOff,1,0,0,0,0,0,0,1654646816990,3863,3865,3865,3857,0,0,27,,,,,,,0,0,0,-1.00,-13.00,-302.00,0.00,0.00,-337.00,11,5.00,5.00,1.19,0.00,0.00,-5.00,0,,,100,100,0,2,0,0,0,1,0,,,,,0.0,0.0,0.0,0.0,0.0,0.0,0
34.182601,-118.129088,0.60,0.60,0.50,0.11,0.60,0.60,0.50,0.14,635,2022-06-08 00:06:57.124,2022-06-07 17:06:57.124,14,0,0,15.285,34.182600,-118.129088,0.00,0.00,-0.50,0.00,-1.50,-30.20,0,1,0,48,100,-5481,1661,15285,3201.50,10,TakeOff,1,0,0,0,0,0,0,1654646817123,3863,3865,3865,3857,0,0,27,,,,,,,0,0,0,-0.00,-15.00,-302.00,0.00,0.00,-338.00,11,6.00,5.00,1.11,0.00,0.00,-5.00,0,,,100,100,0,2,0,0,0,1,0,,,,,0.0,0.0,0.0,0.0,0.0,0.0,0
34.182601,-118.129088,0.60,0.70,0.50,0.11,0.60,0.60,0.50,0.14,701,2022-06-08 00:06:57.189,2022-06-07 17:06:57.189,14,0,0,15.285,34.182600,-118.129088,0.00,0.00,-0.50,0.30,-1.40,-30.20,0,1,0,48,100,-5481,1661,15285,3201.50,10,TakeOff,1,0,0,0,0,0,0,1654646817189,3863,3865,3865,3857,0,0,27,,,,,,,0,0,0,-3.00,-14.00,-302.00,0.00,0.00,-338.00,11,6.00,5.00,1.11,0.00,0.00,-5.00,0,,,100,100,0,2,0,0,0,1,0,,,,,0.0,0.0,0.0,0.0,0.0,0.0,0
34.182601,-118.129088,0.70,0.80,0.50,0.13,0.70,0.70,0.50,0.14,800,2022-06-08 00:06:57.289,2022-06-07 17:06:57.289,14,0,0,15.285,34.182600,-118.129088,0.00,0.00,-0.50,0.50,-1.40,-30.20,0,1,0,48,100,-5481,1661,15285,3201.50,10,TakeOff,1,0,0,0,0,0,0,1654646817288,3863,3865,3865,3857,0,0,27,,,,,,,0,0,0,-5.00,-14.00,-302.00,0.00,0.00,-338.00,11,7.00,5.00,1.29,0.00,0.00,-5.00,0,,,100,100,0,2,0,0,0,1,0,,,,,0.0,0.0,0.0,0.0,0.0,0.0,0
34.182601,-118.129087,0.70,0.80,0.50,0.13,0.70,0.70,0.50,0.14,852,2022-06-08 00:06:57.340,2022-06-07 17:06:57.340,14,0,0,15.285,34.182600,-118.129088,0.00,0.00,-0.50,0.70,-1.40,-30.20,0,1,0,48,100,-5481,1661,15285,3201.50,10,TakeOff,1,0,0,0,0,0,0,1654646817340,3863,3865,3865,3857,0,0,27,,,,,,,0,0,0,-7.00,-14.00,-302.00,0.00,0.00,-338.00,11,7.00,5.00,1.30,0.00,0.00,-5.00,0,,,100,100,0,2,0,0,0,1,0,,,,,0.0,0.0,0.0,0.0,0.0,0.0,0
34.182601,-118.129088,0.80,0.80,0.50,0.11,0.80,0.80,0.50,0.14,1001,2022-06-08 00:06:57.489,2022-06-07 17:06:57.489,15,0,0,15.285,34.182600,-118.129088,0.00,0.00,-0.50,0.70,-1.20,-30.20,0,1,0,48,100,-5481,1661,15285,3201.50,10,TakeOff,1,0,0,0,0,0,0,1654646817489,3863,3865,3865,3857,0,0,27,,,,,,,0,0,0,-7.00,-12.00,-302.00,0.00,0.00,-338.00,11,8.00,5.00,1.09,0.00,0.00,-5.00,0,,,100,100,0,2,0,0,0,1,0,,,,,0.0,0.0,0.0,0.0,0.0,0.0,0
34.182601,-118.129088,0.80,0.90,0.50,0.11,0.80,0.80,0.50,0.14,1101,2022-06-08 00:06:57.589,2022-06-07 17:06:57.590,15,0,0,15.285,34.182600,-118.129088,0.00,0.00,-0.50,0.60,-1.00,-30.20,0,1,0,48,100,-5481,1661,15285,3201.50,10,TakeOff,1,0,0,0,0,0,0,1654646817589,3863,3865,3865,3857,0,0,27,,,,,,,0,0,0,-6.00,-10.00,-302.00,0.00,0.00,-338.00,11,8.00,5.00,1.07,0.00,0.00,-5.00,0,,,100,100,0,2,0,0,0,1,0,,,,,0.0,0.0,0.0,0.0,0.0,0.0,0
34.182601,-118.129087,0.90,1.00,0.50,0.13,0.90,0.90,0.50,0.14,1201,2022-06-08 00:06:57.690,2022-06-07 17:06:57.690,15,0,0,15.285,34.182600,-118.129088,0.00,0.00,-0.50,0.30,-1.10,-30.30,0,1,0,48,100,-5481,1661,15285,3201.50,10,TakeOff,1,0,0,0,0,0,0,1654646817689,3863,3865,3865,3857,0,0,27,,,,,,,0,0,0,-3.00,-11.00,-303.00,0.00,0.00,-338.00,11,9.00,5.00,1.26,0.00,0.00,-5.00,0,,,100,100,0,2,0,0,0,1,0,,,,,0.0,0.0,0.0,0.0,0.0,0.0,0
34.182601,-118.129087,0.90,1.00,0.50,0.13,0.90,0.90,0.50,0.14,1303,2022-06-08 00:06:57.791,2022-06-07 17:06:57.791,15,0,0,15.285,34.182600,-118.129088,0.00,0.00,-0.50,0.20,-1.40,-30.40,0,1,0,48,100,-5481,1661,15285,3201.50,10,TakeOff,1,0,0,0,0,0,0,1654646817791,3863,3865,3865,3857,0,0,27,,,,,,,0,0,0,-2.00,-14.00,-304.00,0.00,0.00,-338.00,11,9.00,5.00,1.25,0.00,0.00,-5.00,0,,,100,100,0,2,0,0,0,1,0,,,,,0.0,0.0,0.0,0.0,0.0,0.0,0
34.182601,-118.129088,1.00,1.10,0.50,0.10,1.00,1.00,0.50,0.14,1352,2022-06-08 00:06:57.841,2022-06-07 17:06:57.841,15,0,0,15.285,34.182600,-118.129088,0.00,0.00,-0.50,0.20,-1.40,-30.40,0,1,0,48,100,-5481,1661,15285,3201.50,10,TakeOff,1,0,0,0,0,0,0,1654646817840,3863,3865,3865,3857,0,0,27,,,,,,,0,0,0,-2.00,-14.00,-304.00,0.00,0.00,-338.00,11,10.00,5.00,1.03,0.00,0.00,-5.00,0,,,100,100,0,2,0,0,0,1,0,,,,,0.0,0.0,0.0,0.0,0.0,0.0,0
34.182601,-118.129088,1.00,1.10,0.40,0.10,1.00,1.00,0.50,0.14,1501,2022-06-08 00:06:57.990,2022-06-07 17:06:57.990,15,0,0,15.285,34.182600,-118.129088,0.00,0.00,-0.40,0.00,-1.00,-30.30,0,1,0,48,100,-5481,1661,15285,3201.50,10,WP,1,0,0,0,0,0,0,1654646817989,3863,3865,3865,3857,0,0,27,,,,,,,0,0,0,-0.00,-10.00,-303.00,0.00,0.00,-338.00,14,10.00,4.00,0.99,0.00,0.00,-4.00,0,,,100,100,0,2,0,0,0,1,0,,,,,0.0,0.0,0.0,0.0,0.0,0.0,0
34.182601,-118.129088,1.10,1.20,0.40,0.12,1.10,1.10,0.50,0.14,1602,2022-06-08 00:06:58.090,2022-06-07 17:06:58.090,14,0,0,15.285,34.182600,-118.129088,0.00,0.00,-0.40,0.00,-0.80,-30.30,0,1,0,48,100,-5481,1661,15285,3201.50,10,WP,1,0,0,0,0,0,0,1654646818090,3863,3865,3865,3857,0,0,27,,,,,,,0,0,0,-0.00,-8.00,-303.00,0.00,0.00,-338.00,14,11.00,4.00,1.19,0.00,0.00,-4.00,0,,,100,100,0,2,0,0,0,1,0,,,,,0.0,0.0,0.0,0.0,0.0,0.0,0
34.182601,-118.129088,1.10,1.20,0.40,0.12,1.10,1.10,0.50,0.14,1703,2022-06-08 00:06:58.191,2022-06-07 17:06:58.191,14,0,0,15.285,34.182600,-118.129088,0.00,0.00,-0.40,0.10,-0.80,-30.40,0,1,0,48,100,-5481,1661,15285,3201.50,10,WP,1,0,0,0,0,0,0,1654646818191,3863,3865,3865,3857,0,0,27,,,,,,,0,0,0,-1.00,-8.00,-304.00,0.00,0.00,-338.00,14,11.00,4.00,1.18,0.00,0.00,-4.00,0,,,100,100,0,2,0,0,0,1,0,,,,,0.0,0.0,0.0,0.0,0.0,0.0,0
34.182601,-118.129088,1.20,1.30,0.50,0.10,1.20,1.20,0.50,0.14,1802,2022-06-08 00:06:58.290,2022-06-07 17:06:58.290,14,0,0,15.285,34.182600,-118.129088,0.00,0.00,-0.50,0.10,-1.00,-30.50,0,1,0,48,100,-5481,1661,15285,3201.50,10,WP,1,0,0,0,0,0,0,1654646818290,3863,3865,3865,3857,0,0,27,,,,,,,0,0,0,-1.00,-10.00,-305.00,0.00,0.00,-338.00,14,12.00,5.00,1.05,0.00,0.00,-5.00,0,,,100,100,0,2,0,0,0,1,0,,,,,0.0,0.0,0.0,0.0,0.0,0.0,0
34.182601,-118.129088,1.20,1.30,0.40,0.10,1.20,1.20,0.50,0.14,1903,2022-06-08 00:06:58.392,2022-06-07 17:06:58.392,14,0,0,15.285,34.182600,-118.129088,0.00,0.00,-0.40,0.00,-0.90,-30.40,0,1,0,48,100,-5481,1661,15285,3201.50,10,WP,1,0,0,0,0,0,0,1654646818391,3863,3865,3865,3857,0,0,27,,,,,,,0,0,0,-0.00,-9.00,-304.00,0.00,0.00,-339.00,14,12.00,4.00,1.04,0.00,0.00,-4.00,0,,,100,100,0,2,0,0,0,1,0,,,,,0.0,0.0,0.0,0.0,0.0,0.0,0
34.182601,-118.129087,1.30,1.40,0.40,0.12,1.30,1.30,0.50,0.14,1952,2022-06-08 00:06:58.441,2022-06-07 17:06:58.441,15,0,0,15.285,34.182600,-118.129088,0.00,0.00,-0.40,-0.10,-1.30,-30.30,0,1,0,48,100,-5481,1661,15285,3201.50,10,WP,1,0,0,0,0,0,0,1654646818440,3863,3865,3865,3857,0,0,27,,,,,,,0,0,0,1.00,-13.00,-303.00,0.00,0.00,-339.00,14,13.00,4.00,1.15,0.00,0.00,-4.00,0,,,100,100,0,2,0,0,0,1,0,,,,,0.0,0.0,0.0,0.0,0.0,0.0,0
34.182601,-118.129087,1.30,1.40,0.40,0.12,1.30,1.30,0.50,0.14,2053,2022-06-08 00:06:58.541,2022-06-07 17:06:58.541,15,0,0,15.285,34.182600,-118.129088,0.00,0.00,-0.40,0.00,-1.50,-30.20,0,1,0,48,100,-5481,1661,15285,3201.50,10,WP,1,0,0,0,0,0,0,1654646818541,3863,3865,3865,3857,0,0,27,,,,,,,0,0,0,-0.00,-15.00,-302.00,0.00,0.00,-339.00,14,13.00,4.00,1.16,0.00,0.00,-4.00,0,,,100,100,0,2,0,0,0,1,0,,,,,0.0,0.0,0.0,0.0,0.0,0.0,0
34.182601,-118.129087,1.40,1.50,0.40,0.12,1.40,1.40,0.50,0.14,2203,2022-06-08 00:06:58.691,2022-06-07 17:06:58.691,15,0,0,15.226,34.182600,-118.129088,0.00,0.00,-0.40,0.20,-1.50,-30.30,0,1,0,48,100,-8145,1656,15226,3201.50,10,WP,1,0,0,0,0,0,0,1654646818691,3863,3865,3865,3857,0,0,27,,,,,,,0,0,0,-2.00,-15.00,-303.00,0.00,0.00,-339.00,14,14.00,4.00,1.19,0.00,0.00,-4.00,0,,,100,100,0,2,0,0,0,1,0,,,,,0.0,0.0,0.0,0.0,0.0,0.0,0
34.182601,-118.129087,1.40,1.50,0.40,0.12,1.40,1.40,0.50,0.14,2303,2022-06-08 00:06:58.791,2022-06-07 17:06:58.792,15,0,0,15.226,34.182600,-118.129088,0.00,0.00,-0.40,0.40,-1.50,-30.30,0,1,0,48,100,-8145,1656,15226,3201.50,10,WP,1,0,0,0,0,0,0,1654646818791,3863,3865,3865,3857,0,0,27,,,,,,,0,0,0,-4.00,-15.00,-303.00,0.00,0.00,-340.00,14,14.00,4.00,1.20,0.00,0.00,-4.00,0,,,100,100,0,2,0,0,0,1,0,,,,,0.0,0.0,0.0,0.0,0.0,0.0,0
34.182601,-118.129087,1.50,1.50,0.50,0.12,1.50,1.50,0.50,0.14,2403,2022-06-08 00:06:58.891,2022-06-07 17:06:58.892,15,0,0,15.226,34.182600,-118.129088,0.00,0.00,-0.50,0.60,-1.40,-30.50,0,1,0,48,100,-8145,1656,15226,3201.50,10,WP,1,0,0,0,0,0,0,1654646818891,3863,3865,3865,3857,0,0,27,,,,,,,0,0,0,-6.00,-14.00,-305.00,0.00,0.00,-340.00,14,15.00,5.00,1.20,0.00,0.00,-5.00,0,,,100,100,0,2,0,0,0,1,0,,,,,0.0,0.0,0.0,0.0,0.0,0.0,0
34.182601,-118.129087,1.50,1.60,0.40,0.12,1.50,1.50,0.50,0.14,2503,2022-06-08 00:06:58.991,2022-06-07 17:06:58.991,15,0,0,15.226,34.182600,-118.129088,0.00,0.00,-0.40,0.40,-1.10,-30.60,0,1,0,48,100,-8145,1656,15226,3201.50,10,WP,1,0,0,0,0,0,0,1654646818991,3863,3865,3865,3857,0,0,27,,,,,,,0,0,0,-4.00,-11.00,-306.00,0.00,0.00,-340.00,14,15.00,4.00,1.21,0.00,0.00,-4.00,0,,,100,100,0,2,0,0,0,1,0,,,,,0.0,0.0,0.0,0.0,0.0,0.0,0
34.182601,-118.129088,1.60,1.60,0.40,0.12,1.60,1.60,0.50,0.14,2552,2022-06-08 00:06:59.040,2022-06-07 17:06:59.040,15,0,0,15.226,34.182600,-118.129088,0.00,0.00,-0.40,0.40,-0.60,-30.60,0,1,0,48,100,-8145,1656,15226,3201.50,10,WP,1,0,0,0,0,0,0,1654646819040,3863,3865,3865,3857,0,0,27,,,,,,,0,0,0,-4.00,-6.00,-306.00,0.00,0.00,-341.00,14,16.00,4.00,1.16,0.00,0.00,-4.00,0,,,100,100,0,2,0,0,0,1,0,,,,,0.0,0.0,0.0,0.0,0.0,0.0,0
34.182601,-118.129088,1.60,1.70,0.30,0.12,1.60,1.60,0.50,0.14,2702,2022-06-08 00:06:59.190,2022-06-07 17:06:59.190,15,0,0,15.226,34.182600,-118.129088,0.00,0.00,-0.30,0.60,-0.90,-30.60,0,1,0,48,100,-8145,1656,15226,3201.50,10,WP,1,0,0,0,0,0,0,1654646819190,3863,3865,3865,3857,0,0,27,,,,,,,0,0,0,-6.00,-9.00,-306.00,0.00,0.00,-341.00,14,16.00,3.00,1.18,0.00,0.00,-3.00,0,,,100,100,0,2,0,0,0,1,0,,,,,0.0,0.0,0.0,0.0,0.0,0.0,0
34.182601,-118.129087,1.60,1.70,0.30,0.12,1.60,1.60,0.50,0.14,2802,2022-06-08 00:06:59.291,2022-06-07 17:06:59.291,15,0,0,15.226,34.182600,-118.129088,0.00,0.00,-0.30,0.50,-1.60,-30.50,0,1,0,48,100,-8145,1656,15226,3201.50,10,WP,1,0,0,0,0,0,0,1654646819290,3863,3865,3865,3857,0,0,27,,,,,,,0,0,0,-5.00,-16.00,-305.00,0.00,0.00,-341.00,14,16.00,3.00,1.23,0.00,0.00,-3.00,0,,,100,100,0,2,0,0,0,1,0,,,,,0.0,0.0,0.0,0.0,0.0,0.0,0
34.182601,-118.129087,1.70,1.80,0.40,0.13,1.70,1.70,0.50,0.14,2906,2022-06-08 00:06:59.394,2022-06-07 17:06:59.394,15,0,0,15.226,34.182600,-118.129088,0.00,0.00,-0.40,0.30,-2.10,-30.40,0,1,0,48,100,-8145,1656,15226,3201.50,10,WP,1,0,0,0,0,0,0,1654646819394,3863,3865,3865,3857,0,0,27,,,,,,,0,0,0,-3.00,-21.00,-304.00,0.00,0.00,-341.00,14,17.00,4.00,1.26,0.00,0.00,-4.00,0,,,100,100,0,2,0,0,0,1,0,,,,,0.0,0.0,0.0,0.0,0.0,0.0,0
34.182601,-118.129087,1.70,1.80,0.40,0.15,1.70,1.70,0.50,0.15,3023,2022-06-08 00:06:59.511,2022-06-07 17:06:59.511,15,0,0,15.226,34.182600,-118.129088,0.00,0.00,-0.40,0.00,-1.70,-30.50,0,1,0,48,100,-8145,1656,15226,3201.50,10,WP,1,0,0,0,0,0,0,1654646819511,3863,3865,3865,3857,0,0,27,,,,,,,0,0,0,-0.00,-17.00,-305.00,0.00,0.00,-342.00,14,17.00,4.00,1.48,0.00,0.00,-4.00,0,,,100,100,0,2,0,0,0,1,0,,,,,0.0,0.0,0.0,0.0,0.0,0.0,0
34.182601,-118.129087,1.80,1.80,0.30,0.15,1.80,1.80,0.50,0.15,3056,2022-06-08 00:06:59.545,2022-06-07 17:06:59.545,15,0,0,15.226,34.182600,-118.129088,0.00,0.00,-0.30,0.10,-1.70,-31.30,0,1,0,48,100,-8145,1656,15226,3201.50,10,WP,1,0,0,0,0,0,0,1654646819544,3863,3865,3865,3857,0,0,27,,,,,,,0,0,0,-1.00,-17.00,-313.00,0.00,0.00,-342.00,14,18.00,3.00,1.53,0.00,0.00,-3.00,0,,,100,100,0,2,0,0,0,1,0,,,,,0.0,0.0,0.0,0.0,0.0,0.0,0
34.182601,-118.129087,1.80,1.90,0.20,0.13,1.80,1.80,0.50,0.15,3206,2022-06-08 00:06:59.694,2022-06-07 17:06:59.695,15,0,0,15.226,34.182600,-118.129088,0.00,0.00,-0.20,0.20,-1.90,-32.70,0,1,0,48,100,-8145,1656,15226,3201.50,10,WP,1,0,0,0,0,0,0,1654646819694,3863,3865,3865,3857,0,0,27,,,,,,,0,0,0,-2.00,-19.00,-327.00,0.00,0.00,-342.00,14,18.00,2.00,1.31,0.00,0.00,-2.00,0,,,100,100,0,2,0,0,0,1,0,,,,,0.0,0.0,0.0,0.0,0.0,0.0,0
34.182601,-118.129087,1.80,1.90,0.10,0.14,1.80,1.80,0.50,0.15,3256,2022-06-08 00:06:59.745,2022-06-07 17:06:59.745,15,0,0,15.226,34.182600,-118.129088,0.00,0.00,-0.10,0.10,-2.20,-34.70,0,1,0,48,100,-8145,1656,15226,3201.50,10,WP,1,0,0,0,0,0,0,1654646819744,3863,3865,3865,3857,0,0,27,,,,,,,0,0,0,-1.00,-22.00,-347.00,0.00,0.00,-344.00,14,18.00,1.00,1.36,0.00,0.00,-1.00,0,,,100,100,0,2,0,0,0,1,0,,,,,0.0,0.0,0.0,0.0,0.0,0.0,0
34.182601,-118.129087,1.80,1.90,0.10,0.16,1.80,1.80,0.50,0.16,3356,2022-06-08 00:06:59.845,2022-06-07 17:06:59.845,15,0,0,15.226,34.182600,-118.129088,0.00,0.00,-0.10,0.00,-2.30,-37.30,0,1,0,48,100,-8145,1656,15226,3201.50,10,WP,1,0,0,0,0,0,0,1654646819844,3807,3807,3805,3797,0,0,27,,,,,,,0,0,0,-0.00,-23.00,-373.00,0.00,0.00,-351.00,14,18.00,1.00,1.59,0.00,0.00,-1.00,0,,,100,100,0,2,0,0,0,1,0,,,,,0.0,0.0,0.0,0.0,0.0,0.0,0
34.182601,-118.129087,1.80,1.90,0.10,0.16,1.80,1.80,0.50,0.16,3457,2022-06-08 00:06:59.945,2022-06-07 17:06:59.945,15,0,0,15.226,34.182600,-118.129088,0.00,0.00,-0.10,0.20,-2.20,-40.30,0,1,0,48,100,-8145,1656,15226,3201.50,10,WP,1,0,0,0,0,0,0,1654646819945,3807,3807,3805,3797,0,0,27,,,,,,,0,0,0,-2.00,-22.00,-403.00,0.00,0.00,-367.00,14,18.00,1.00,1.65,0.00,0.00,-1.00,0,,,100,100,0,2,0,0,0,1,0,,,,,0.0,0.0,0.0,0.0,0.0,0.0,0
34.182601,-118.129087,1.80,1.90,0.00,0.15,1.80,1.80,0.50,0.16,3556,2022-06-08 00:07:00.045,2022-06-07 17:07:00.045,15,0,0,15.226,34.182600,-118.129088,0.00,0.00,0.00,0.30,-2.00,-43.80,0,1,0,48,100,-8145,1656,15226,3201.50,10,WP,1,0,0,0,0,0,0,1654646820044,3807,3807,3805,3797,0,0,27,,,,,,,0,0,0,-3.00,-20.00,-438.00,0.00,0.00,-392.00,14,18.00,0.00,1.48,0.00,0.00,0.00,0,,,100,100,0,2,0,0,0,1,0,,,,,0.0,0.0,0.0,0.0,0.0,0.0,0
34.182601,-118.129087,1.80,1.90,0.00,0.15,1.80,1.80,0.50,0.16,3654,2022-06-08 00:07:00.142,2022-06-07 17:07:00.142,15,0,0,15.226,34.182600,-118.129088,0.00,0.00,0.00,0.40,-2.00,-48.00,0,1,0,48,100,-8145,1656,15226,3201.50,10,WP,1,0,0,0,0,0,0,1654646820142,3807,3807,3805,3797,0,0,27,,,,,,,0,0,0,-4.00,-20.00,-480.00,0.00,0.00,-425.00,14,18.00,0.00,1.51,0.00,0.00,0.00,0,,,100,100,0,2,0,0,0,1,0,,,,,0.0,0.0,0.0,0.0,0.0,0.0,0
34.182601,-118.129087,1.80,1.90,0.00,0.16,1.80,1.80,0.50,0.16,3754,2022-06-08 00:07:00.242,2022-06-07 17:07:00.242,15,0,0,15.226,34.182600,-118.129088,0.00,0.00,0.00,0.10,-1.90,-52.60,0,1,0,48,100,-8145,1656,15226,3201.50,10,WP,1,0,0,0,0,0,0,1654646820242,3807,3807,3805,3797,0,0,27,,,,,,,0,0,0,-1.00,-19.00,-526.00,0.00,0.00,-465.00,14,18.00,0.00,1.61,0.00,0.00,0.00,0,,,100,100,0,2,0,0,0,1,0,,,,,0.0,0.0,0.0,0.0,0.0,0.0,0
34.182601,-118.129087,1.80,1.90,0.00,0.16,1.80,1.80,0.50,0.16,3853,2022-06-08 00:07:00.342,2022-06-07 17:07:00.342,15,0,0,15.226,34.182600,-118.129088,0.00,0.00,0.00,-0.10,-1.90,-57.90,0,1,0,48,100,-8145,1656,15226,3201.50,10,WP,1,0,0,0,0,0,0,1654646820341,3807,3807,3805,3797,0,0,27,,,,,,,0,0,0,1.00,-19.00,-579.00,0.00,0.00,-511.00,14,18.00,0.00,1.64,0.00,0.00,0.00,0,,,100,100,0,2,0,0,0,1,0,,,,,0.0,0.0,0.0,0.0,0.0,0.0,0
34.182601,-118.129087,1.90,1.90,0.00,0.17,1.90,1.90,0.50,0.17,3954,2022-06-08 00:07:00.442,2022-06-07 17:07:00.442,15,0,0,15.226,34.182600,-118.129088,0.00,0.00,0.00,-0.60,-1.90,-63.70,0,1,0,48,100,-8145,1656,15226,3201.50,10,WP,1,0,0,0,0,0,0,1654646820442,3807,3807,3805,3797,0,0,27,,,,,,,0,0,0,6.00,-19.00,-637.00,0.00,0.00,-562.00,14,19.00,0.00,1.72,0.00,0.00,0.00,0,,,100,100,0,2,0,0,0,1,0,,,,,0.0,0.0,0.0,0.0,0.0,0.0,0
34.182601,-118.129086,1.90,1.90,0.00,0.18,1.90,1.90,0.50,0.18,4103,2022-06-08 00:07:00.592,2022-06-07 17:07:00.592,15,0,0,15.226,34.182600,-118.129088,0.00,0.00,0.00,-0.90,-1.90,-70.10,0,1,0,48,100,-8145,1656,15226,3201.50,10,WP,1,0,0,0,0,0,0,1654646820591,3807,3807,3805,3797,0,0,27,,,,,,,0,0,0,9.00,-19.00,-701.00,0.00,0.00,-620.00,14,19.00,0.00,1.75,0.00,0.00,0.00,0,,,100,100,0,2,0,0,0,1,0,,,,,0.0,0.0,0.0,0.0,0.0,0.0,0
34.182601,-118.129086,1.90,1.90,0.00,0.19,1.90,1.90,0.50,0.19,4155,2022-06-08 00:07:00.643,2022-06-07 17:07:00.643,15,0,0,15.221,34.182600,-118.129088,0.00,0.00,0.00,-1.10,-1.80,-77.10,0,1,0,48,100,-7555,1652,15221,3201.50,10,WP,1,0,0,0,0,0,0,1654646820643,3807,3807,3805,3797,0,0,27,,,,,,,0,0,0,11.00,-18.00,-771.00,0.00,0.00,-682.00,14,19.00,0.00,1.86,0.00,0.00,0.00,0,,,100,100,0,2,0,0,0,1,0,,,,,0.0,0.0,0.0,0.0,0.0,0.0,0
34.182601,-118.129086,1.90,2.00,0.00,0.19,1.90,1.90,0.50,0.19,4254,2022-06-08 00:07:00.742,2022-06-07 17:07:00.742,15,0,0,15.221,34.182600,-118.129088,0.00,0.00,0.00,-1.30,-1.60,-84.60,0,1,0,48,100,-7555,1652,15221,3201.50,10,WP,1,0,0,0,0,0,0,1654646820742,3807,3807,3805,3797,0,0,27,,,,,,,0,0,0,13.00,-16.00,-846.00,0.00,0.00,-752.00,14,19.00,0.00,1.89,0.00,0.00,0.00,0,,,100,100,0,2,0,0,0,1,0,,,,,0.0,0.0,0.0,0.0,0.0,0.0,0
34.182601,-118.129086,1.90,2.00,0.00,0.18,1.90,1.90,0.50,0.19,4404,2022-06-08 00:07:00.892,2022-06-07 17:07:00.892,15,0,0,15.221,34.182600,-118.129088,0.00,0.00,0.00,-1.20,-1.30,-92.00,0,1,0,48,100,-7555,1652,15221,3201.50,10,WP,1,0,0,0,0,0,0,1654646820892,3807,3807,3805,3797,0,0,27,,,,,,,0,0,0,12.00,-13.00,-920.00,0.00,0.00,-826.00,14,19.00,0.00,1.78,0.00,0.00,0.00,0,,,100,100,0,2,0,0,0,1,0,,,,,0.0,0.0,0.0,0.0,0.0,0.0,0
34.182601,-118.129086,1.90,2.00,0.00,0.18,1.90,1.90,0.50,0.19,4507,2022-06-08 00:07:00.995,2022-06-07 17:07:00.995,15,0,0,15.221,34.182600,-118.129088,0.00,0.00,0.00,-1.10,-1.10,-99.40,0,1,0,48,100,-7555,1652,15221,3201.50,10,WP,1,0,0,0,0,0,0,1654646820995,3807,3807,3805,3797,0,0,27,,,,,,,0,0,0,11.00,-11.00,-994.00,0.00,0.00,-902.00,14,19.00,0.00,1.79,0.00,0.00,0.00,0,,,100,100,0,2,0,0,0,1,0,,,,,0.0,0.0,0.0,0.0,0.0,0.0,0
34.182601,-118.129086,1.90,2.00,0.00,0.18,1.90,1.90,0.50,0.19,4604,2022-06-08 00:07:01.093,2022-06-07 17:07:01.093,15,0,0,15.221,34.182600,-118.129088,0.00,0.00,0.00,-1.20,-1.10,-106.90,0,1,0,48,100,-7555,1652,15221,3201.50,10,WP,1,0,0,0,0,0,0,1654646821092,3807,3807,3805,3797,0,0,27,,,,,,,0,0,0,12.00,-11.00,-1069.00,0.00,0.00,-978.00,14,19.00,0.00,1.82,0.00,0.00,0.00,0,,,100,100,0,2,0,0,0,1,0,,,,,0.0,0.0,0.0,0.0,0.0,0.0,0
34.182601,-118.129086,1.90,2.00,0.00,0.18,1.90,1.90,0.50,0.19,4704,2022-06-08 00:07:01.192,2022-06-07 17:07:01.192,15,0,0,15.221,34.182600,-118.129088,0.00,0.00,0.00,-1.20,-1.30,-114.40,0,1,0,48,100,-7555,1652,15221,3201.50,10,WP,1,0,0,0,0,0,0,1654646821192,3807,3807,3805,3797,0,0,27,,,,,,,0,0,0,12.00,-13.00,-1144.00,0.00,0.00,-1054.00,14,19.00,0.00,1.81,0.00,0.00,0.00,0,,,100,100,0,2,0,0,0,1,0,,,,,0.0,0.0,0.0,0.0,0.0,0.0,0
34.182601,-118.129086,1.90,2.00,0.00,0.19,1.90,1.90,0.50,0.19,4756,2022-06-08 00:07:01.245,2022-06-07 17:07:01.245,15,0,0,15.221,34.182600,-118.129088,0.00,0.00,0.00,-1.30,-1.20,-121.90,0,1,0,48,100,-7555,1652,15221,3201.50,10,WP,1,0,0,0,0,0,0,1654646821244,3807,3807,3805,3797,0,0,27,,,,,,,0,0,0,13.00,-12.00,-1219.00,0.00,0.00,-1130.00,14,19.00,0.00,1.86,0.00,0.00,0.00,0,,,100,100,0,2,0,0,0,1,0,,,,,0.0,0.0,0.0,0.0,0.0,0.0,0
34.182601,-118.129086,1.90,2.00,0.00,0.19,1.90,1.90,0.50,0.19,4855,2022-06-08 00:07:01.343,2022-06-07 17:07:01.343,15,0,0,15.221,34.182600,-118.129088,0.00,0.00,0.00,-1.30,-0.90,-129.40,0,1,0,48,100,-7555,1652,15221,3201.50,10,WP,1,0,0,0,0,0,0,1654646821343,3807,3807,3805,3797,0,0,27,,,,,,,0,0,0,13.00,-9.00,-1294.00,0.00,0.00,-1205.00,14,19.00,0.00,1.85,0.00,0.00,0.00,0,,,100,100,0,2,0,0,0,1,0,,,,,0.0,0.0,0.0,0.0,0.0,0.0,0
34.182601,-118.129086,1.90,2.00,0.00,0.18,1.90,1.90,0.50,0.19,5004,2022-06-08 00:07:01.492,2022-06-07 17:07:01.492,15,0,0,15.221,34.182600,-118.129088,0.00,0.00,0.00,-1.20,-0.50,-136.80,0,1,0,48,100,-7555,1652,15221,3201.50,10,WP,1,0,0,0,0,0,0,1654646821492,3807,3807,3805,3797,0,0,27,,,,,,,0,0,0,12.00,-5.00,-1368.00,0.00,0.00,-1281.00,14,19.00,0.00,1.77,0.00,0.00,0.00,0,,,100,100,0,2,0,0,0,1,0,,,,,0.0,0.0,0.0,0.0,0.0,0.0,0
34.182601,-118.129086,1.90,2.00,0.00,0.17,1.90,1.90,0.50,0.19,5106,2022-06-08 00:07:01.595,2022-06-07 17:07:01.595,15,0,0,15.221,34.182600,-118.129088,0.00,0.00,0.00,-1.20,-0.20,-144.30,0,1,0,48,100,-7555,1652,15221,3201.50,10,WP,1,0,0,0,0,0,0,1654646821594,3807,3807,3805,3797,0,0,27,,,,,,,0,0,0,12.00,-2.00,-1443.00,0.00,0.00,-1356.00,14,19.00,0.00,1.75,0.00,0.00,0.00,0,,,100,100,0,2,0,0,0,1,0,,,,,0.0,0.0,0.0,0.0,0.0,0.0,0
34.182601,-118.129086,1.90,2.00,0.00,0.18,1.90,1.90,0.50,0.19,5157,2022-06-08 00:07:01.645,2022-06-07 17:07:01.645,15,0,0,15.221,34.182600,-118.129088,0.00,0.00,0.00,-1.30,0.10,-151.70,0,1,0,48,100,-7555,1652,15221,3201.50,10,WP,1,0,0,0,0,0,0,1654646821645,3807,3807,3805,3797,0,0,27,,,,,,,0,0,0,13.00,1.00,-1517.00,0.00,0.00,-1431.00,14,19.00,0.00,1.78,0.00,0.00,0.00,0,,,100,100,0,2,0,0,0,1,0,,,,,0.0,0.0,0.0,0.0,0.0,0.0,0
34.182601,-118.129086,1.90,2.00,0.00,0.18,1.90,1.90,0.50,0.19,5306,2022-06-08 00:07:01.794,2022-06-07 17:07:01.794,15,0,0,15.221,34.182600,-118.129088,0.00,0.00,0.00,-1.10,0.60,-159.00,0,1,0,48,100,-7555,1652,15221,3201.50,10,WP,1,0,0,0,0,0,0,1654646821794,3807,3807,3805,3797,0,0,27,,,,,,,0,0,0,11.00,6.00,-1590.00,0.00,0.00,-1505.00,14,19.00,0.00,1.76,0.00,0.00,0.00,0,,,100,100,0,2,0,0,0,1,0,,,,,0.0,0.0,0.0,0.0,0.0,0.0,0
34.182601,-118.129086,1.90,2.00,0.00,0.18,1.90,1.90,0.50,0.19,5356,2022-06-08 00:07:01.845,2022-06-07 17:07:01.845,15,0,0,15.221,34.182600,-118.129088,0.00,0.00,0.00,-0.90,0.70,-165.00,0,1,0,48,100,-7555,1652,15221,3201.50,10,WP,1,0,0,0,0,0,0,1654646821844,3807,3807,3805,3797,0,0,27,,,,,,,0,0,0,9.00,7.00,-1650.00,0.00,0.00,-1580.00,14,19.00,0.00,1.77,0.00,0.00,0.00,0,,,100,100,0,2,0,0,0,1,0,,,,,0.0,0.0,0.0,0.0,0.0,0.0,0
34.182601,-118.129086,1.90,2.00,0.00,0.18,1.90,1.90,0.50,0.19,5457,2022-06-08 00:07:01.945,2022-06-07 17:07:01.945,15,0,0,15.221,34.182600,-118.129088,0.00,0.00,0.00,-0.80,0.90,-169.00,0,1,0,48,100,-7555,1652,15221,3201.50,10,WP,1,0,0,0,0,0,0,1654646821945,3807,3807,3805,3797,0,0,27,,,,,,,0,0,0,8.00,9.00,-1690.00,0.00,0.00,-1648.00,14,19.00,0.00,1.76,0.00,0.00,0.00,0,,,100,100,0,2,0,0,0,1,0,,,,,0.0,0.0,0.0,0.0,0.0,0.0,0
34.182601,-118.129086,1.90,2.00,0.00,0.18,1.90,1.90,0.50,0.19,5557,2022-06-08 00:07:02.045,2022-06-07 17:07:02.045,15,0,0,15.221,34.182600,-118.129088,0.00,0.00,0.00,-0.60,1.10,-171.80,0,1,0,48,100,-7555,1652,15221,3201.50,10,WP,1,0,0,0,0,0,0,1654646822045,3807,3807,3805,3797,0,0,27,,,,,,,0,0,0,6.00,11.00,-1718.00,0.00,0.00,-1699.00,14,19.00,0.00,1.80,0.00,0.00,0.00,0,,,100,100,0,2,0,0,0,1,0,,,,,0.0,0.0,0.0,0.0,0.0,0.0,0
34.182601,-118.129086,1.90,2.00,0.00,0.18,1.90,1.90,0.50,0.19,5654,2022-06-08 00:07:02.143,2022-06-07 17:07:02.143,15,0,0,15.221,34.182600,-118.129088,0.00,0.00,0.00,-0.50,1.50,-173.30,0,1,0,48,100,-7555,1652,15221,3201.50,10,WP,1,0,0,0,0,0,0,1654646822142,3807,3807,3805,3797,0,0,27,,,,,,,0,0,0,5.00,15.00,-1733.00,0.00,0.00,-1734.00,14,19.00,0.00,1.81,0.00,0.00,0.00,0,,,100,100,0,2,0,0,0,1,0,,,,,0.0,0.0,0.0,0.0,0.0,0.0,0
34.182601,-118.129086,1.90,2.00,0.00,0.20,1.90,1.90,0.50,0.20,5805,2022-06-08 00:07:02.294,2022-06-07 17:07:02.294,15,0,0,15.221,34.182600,-118.129088,0.00,0.00,0.00,-0.40,1.80,-174.30,0,1,0,48,100,-7555,1652,15221,3201.50,10,WP,1,0,0,0,0,0,0,1654646822293,3807,3807,3805,3797,0,0,27,,,,,,,0,0,0,4.00,18.00,-1743.00,0.00,0.00,-1757.00,14,19.00,0.00,2.03,0.00,0.00,0.00,0,,,100,100,0,2,0,0,0,1,0,,,,,0.0,0.0,0.0,0.0,0.0,0.0,0
34.182601,-118.129086,1.90,2.00,0.00,0.21,1.90,1.90,0.50,0.21,5855,2022-06-08 00:07:02.343,2022-06-07 17:07:02.343,15,0,0,15.221,34.182600,-118.129088,0.00,0.00,0.00,-0.30,1.80,-174.70,0,1,0,48,100,-7555,1652,15221,3201.50,10,WP,1,0,0,0,0,0,0,1654646822343,3807,3807,3805,3797,0,0,27,,,,,,,0,0,0,3.00,18.00,-1747.00,0.00,0.00,-1771.00,14,19.00,0.00,2.05,0.00,0.00,0.00,0,,,100,100,0,2,0,0,0,1,0,,,,,0.0,0.0,0.0,0.0,0.0,0.0,0
34.182601,-118.129086,1.90,2.00,0.00,0.21,1.90,1.90,0.50,0.21,5957,2022-06-08 00:07:02.445,2022-06-07 17:07:02.445,15,0,0,15.221,34.182600,-118.129088,0.00,0.00,0.00,-0.30,1.70,-174.60,0,1,0,48,100,-7555,1652,15221,3201.50,10,WP,1,0,0,0,0,0,0,1654646822445,3807,3807,3805,3797,0,0,27,,,,,,,0,0,0,3.00,17.00,-1746.00,0.00,0.00,-1780.00,14,19.00,0.00,2.13,0.00,0.00,0.00,0,,,100,100,0,2,0,0,0,1,0,,,,,0.0,0.0,0.0,0.0,0.0,0.0,0
34.182601,-118.129086,1.90,2.00,0.00,0.21,1.90,1.90,0.50,0.21,6105,2022-06-08 00:07:02.594,2022-06-07 17:07:02.594,15,0,0,15.221,34.182600,-118.129088,0.00,0.00,0.00,-0.30,1.60,-174.20,0,1,0,48,100,-7555,1652,15221,3201.50,10,WP,1,0,0,0,0,0,0,1654646822593,3807,3807,3805,3797,0,0,27,,,,,,,0,0,0,3.00,16.00,-1742.00,0.00,0.00,-1784.00,14,19.00,0.00,2.14,0.00,0.00,0.00,0,,,100,100,0,2,0,0,0,1,0,,,,,0.0,0.0,0.0,0.0,0.0,0.0,0
34.182601,-118.129086,1.90,2.00,0.00,0.21,1.90,1.90,0.50,0.21,6154,2022-06-08 00:07:02.643,2022-06-07 17:07:02.643,15,0,0,15.198,34.182600,-118.129088,0.00,0.00,0.00,-0.40,1.60,-174.00,0,1,0,47,100,-7684,1648,15198,3201.50,10,WP,1,0,0,0,0,0,0,1654646822642,3807,3807,3805,3797,0,0,27,,,,,,,0,0,0,4.00,16.00,-1740.00,0.00,0.00,-1785.00,14,19.00,0.00,2.11,0.00,0.00,0.00,0,,,100,100,0,2,0,0,0,1,0,,,,,0.0,0.0,0.0,0.0,0.0,0.0,0
34.182601,-118.129086,1.90,2.00,0.00,0.21,1.90,1.90,0.50,0.21,6257,2022-06-08 00:07:02.745,2022-06-07 17:07:02.745,15,0,0,15.198,34.182600,-118.129088,0.00,0.00,0.00,-2.80,0.60,-174.00,0,1,0,47,100,-7684,1648,15198,3201.50,10,WP,1,0,0,0,0,0,0,1654646822745,3807,3807,3805,3797,0,0,27,,,,,,,0,0,0,28.00,6.00,-1740.00,0.00,0.00,-1785.00,14,19.00,0.00,2.12,0.00,0.00,0.00,0,,,100,100,0,2,0,0,0,1,0,,,,,0.0,0.0,0.0,0.0,0.0,0.0,0
34.182601,-118.129086,1.90,2.00,0.00,0.22,1.90,1.90,0.50,0.22,6355,2022-06-08 00:07:02.844,2022-06-07 17:07:02.844,15,0,0,15.198,34.182600,-118.129088,0.00,0.00,0.00,-7.40,0.70,-174.00,0,1,0,47,100,-7684,1648,15198,3201.50,10,WP,1,0,0,0,0,0,0,1654646822843,3807,3807,3805,3797,0,0,27,,,,,,,0,0,0,74.00,7.00,-1740.00,0.00,0.00,-1785.00,14,19.00,0.00,2.19,0.00,0.00,0.00,0,,,100,100,0,2,0,0,0,1,0,,,,,0.0,0.0,0.0,0.0,0.0,0.0,0
34.182600,-118.129086,1.90,2.00,0.10,0.22,1.90,1.90,0.50,0.22,6507,2022-06-08 00:07:02.996,2022-06-07 17:07:02.996,15,0,0,15.198,34.182600,-118.129088,-0.10,0.00,0.00,-11.10,1.00,-174.10,0,1,0,47,100,-7684,1648,15198,3201.50,10,WP,1,0,0,0,0,0,0,1654646822995,3807,3807,3805,3797,0,0,27,,,,,,,0,0,0,111.00,10.00,-1741.00,0.00,0.00,-1785.00,14,19.00,1.00,2.19,-1.00,0.00,0.00,0,,,100,100,0,2,0,0,0,1,0,,,,,0.0,0.0,0.0,0.0,0.0,0.0,0
34.182600,-118.129085,1.90,2.00,0.30,0.22,1.90,1.90,0.50,0.22,6607,2022-06-08 00:07:03.095,2022-06-07 17:07:03.096,15,0,0,15.198,34.182600,-118.129088,-0.30,0.00,0.00,-13.80,1.40,-174.10,0,1,0,47,100,-7684,1648,15198,3201.50,10,WP,1,0,0,0,0,0,0,1654646823095,3807,3807,3805,3797,0,0,27,,,,,,,0,0,0,138.00,14.00,-1741.00,0.00,0.00,-1785.00,14,19.00,3.00,2.25,-3.00,0.00,0.00,0,,,100,100,0,2,0,0,0,1,0,,,,,0.0,0.0,0.0,0.0,0.0,0.0,0
34.182600,-118.129085,1.90,1.90,0.50,0.23,1.90,1.90,0.50,0.23,6658,2022-06-08 00:07:03.147,2022-06-07 17:07:03.147,15,0,0,15.198,34.182600,-118.129088,-0.50,0.00,0.00,-15.10,1.50,-174.10,0,1,0,47,100,-7684,1648,15198,3201.50,10,WP,1,0,0,0,0,0,0,1654646823146,3807,3807,3805,3797,0,0,27,,,,,,,0,0,0,151.00,15.00,-1741.00,0.00,0.00,-1785.00,14,19.00,5.00,2.27,-5.00,0.00,0.00,0,,,100,100,0,2,0,0,0,1,0,,,,,0.0,0.0,0.0,0.0,0.0,0.0,0
34.182599,-118.129086,1.90,1.90,0.80,0.24,1.90,1.90,0.80,0.24,6807,2022-06-08 00:07:03.295,2022-06-07 17:07:03.295,15,0,0,15.198,34.182600,-118.129088,-0.80,0.00,0.00,-15.60,1.40,-174.20,0,1,0,47,100,-7684,1648,15198,3201.50,10,WP,1,0,0,0,0,0,0,1654646823295,3807,3807,3805,3797,0,0,27,,,,,,,0,0,0,156.00,14.00,-1742.00,0.00,0.00,-1785.00,14,19.00,8.00,2.40,-8.00,0.00,0.00,0,,,100,100,0,2,0,0,0,1,0,,,,,0.0,0.0,0.0,0.0,0.0,0.0,0
34.182598,-118.129086,1.90,2.00,1.00,0.29,1.90,1.90,1.00,0.29,6856,2022-06-08 00:07:03.345,2022-06-07 17:07:03.345,15,0,0,15.198,34.182600,-118.129088,-1.00,-0.10,0.00,-15.90,1.60,-174.10,0,1,0,47,100,-7684,1648,15198,3201.50,10,WP,1,0,0,0,0,0,0,1654646823344,3807,3807,3805,3797,0,0,27,,,,,,,0,0,0,159.00,16.00,-1741.00,0.00,0.00,-1785.00,14,19.00,10.05,2.94,-10.00,-1.00,0.00,0,,,100,100,0,2,0,0,0,1,0,,,,,0.0,0.0,0.0,0.0,0.0,0.0,0
34.182597,-118.129086,1.90,2.00,1.30,0.35,1.90,1.90,1.30,0.35,6957,2022-06-08 00:07:03.445,2022-06-07 17:07:03.445,15,0,0,15.198,34.182600,-118.129088,-1.30,-0.10,0.00,-16.20,1.40,-174.10,0,1,0,47,100,-7684,1648,15198,3201.50,10,WP,1,0,0,0,0,0,0,1654646823445,3807,3807,3805,3797,0,0,27,,,,,,,0,0,0,162.00,14.00,-1741.00,0.00,0.00,-1785.00,14,19.00,13.04,3.49,-13.00,-1.00,0.00,0,,,100,100,0,2,0,0,0,1,0,,,,,0.0,0.0,0.0,0.0,0.0,0.0,0
34.182596,-118.129086,1.90,2.00,1.50,0.47,1.90,1.90,1.50,0.47,7107,2022-06-08 00:07:03.595,2022-06-07 17:07:03.595,15,0,0,15.198,34.182600,-118.129088,-1.50,-0.10,0.00,-15.30,1.40,-174.10,0,1,0,47,100,-7684,1648,15198,3201.50,10,WP,1,0,0,0,0,0,0,1654646823595,3807,3807,3805,3797,0,0,27,,,,,,,0,0,0,153.00,14.00,-1741.00,0.00,0.00,-1785.00,14,19.00,15.03,4.73,-15.00,-1.00,0.00,0,,,100,100,0,2,0,0,0,1,0,,,,,0.0,0.0,0.0,0.0,0.0,0.0,0
34.182595,-118.129087,1.90,2.00,1.70,0.60,1.90,1.90,1.70,0.60,7206,2022-06-08 00:07:03.695,2022-06-07 17:07:03.695,15,0,0,15.198,34.182600,-118.129088,-1.70,-0.10,0.00,-13.60,0.70,-174.00,0,1,0,47,100,-7684,1648,15198,3201.50,10,WP,1,0,0,0,0,0,0,1654646823694,3807,3807,3805,3797,0,0,27,,,,,,,0,0,0,136.00,7.00,-1740.00,0.00,0.00,-1784.00,14,19.00,17.03,6.00,-17.00,-1.00,0.00,0,,,100,100,0,2,0,0,0,1,0,,,,,0.0,0.0,0.0,0.0,0.0,0.0,0
34.182593,-118.129087,1.90,2.00,1.91,0.78,1.90,1.90,1.91,0.78,7257,2022-06-08 00:07:03.746,2022-06-07 17:07:03.746,15,0,0,15.198,34.182600,-118.129088,-1.90,-0.20,0.00,-9.90,0.80,-173.80,0,1,0,47,100,-7684,1648,15198,3201.50,10,WP,1,0,0,0,0,0,0,1654646823745,3807,3807,3805,3797,0,0,27,,,,,,,0,0,0,99.00,8.00,-1738.00,0.00,0.00,-1784.00,14,19.00,19.10,7.78,-19.00,-2.00,0.00,0,,,100,100,0,2,0,0,0,1,0,,,,,0.0,0.0,0.0,0.0,0.0,0.0,0
34.182592,-118.129088,1.90,2.00,2.01,0.95,1.90,1.90,2.01,0.95,7407,2022-06-08 00:07:03.895,2022-06-07 17:07:03.895,15,0,0,15.198,34.182600,-118.129088,-2.00,-0.20,0.00,-6.00,0.00,-173.90,0,1,0,47,100,-7684,1648,15198,3201.50,10,WP,1,0,0,0,0,0,0,1654646823895,3807,3807,3805,3797,0,0,27,,,,,,,0,0,0,60.00,0.00,-1739.00,0.00,0.00,-1784.00,14,19.00,20.10,9.50,-20.00,-2.00,0.00,0,,,100,100,0,2,0,0,0,1,0,,,,,0.0,0.0,0.0,0.0,0.0,0.0,0
34.182590,-118.129088,1.90,2.00,2.01,1.15,1.90,1.90,2.01,1.15,7507,2022-06-08 00:07:03.996,2022-06-07 17:07:03.996,15,0,0,15.198,34.182600,-118.129088,-2.00,-0.20,0.00,-3.10,-0.40,-173.60,0,1,0,47,100,-7684,1648,15198,3201.50,10,WP,1,0,0,0,0,0,0,1654646823995,3807,3807,3805,3797,0,0,27,,,,,,,0,0,0,31.00,-4.00,-1736.00,0.00,0.00,-1784.00,14,19.00,20.10,11.50,-20.00,-2.00,0.00,0,,,100,100,0,2,0,0,0,1,0,,,,,0.0,0.0,0.0,0.0,0.0,0.0,0
34.182588,-118.129090,1.90,2.00,2.01,1.31,1.90,1.90,2.01,1.31,7557,2022-06-08 00:07:04.046,2022-06-07 17:07:04.046,15,0,0,15.198,34.182600,-118.129088,-2.00,-0.20,0.00,-1.80,-1.40,-173.80,0,1,0,47,100,-7684,1648,15198,3201.50,10,WP,1,0,0,0,0,0,0,1654646824045,3807,3807,3805,3797,0,0,27,,,,,,,0,0,0,18.00,-14.00,-1738.00,0.00,0.00,-1784.00,14,19.00,20.10,13.13,-20.00,-2.00,0.00,0,,,100,100,0,2,0,0,0,1,0,,,,,0.0,0.0,0.0,0.0,0.0,0.0,0
34.182587,-118.129090,1.90,2.00,2.01,1.51,1.90,1.90,2.01,1.51,7669,2022-06-08 00:07:04.158,2022-06-07 17:07:04.158,15,0,0,15.198,34.182600,-118.129088,-2.00,-0.20,0.00,-0.10,-1.10,-173.40,0,1,0,47,100,-7684,1648,15198,3201.50,10,WP,1,0,0,0,0,0,0,1654646824157,3807,3807,3805,3797,0,0,27,,,,,,,0,0,0,1.00,-11.00,-1734.00,0.00,0.00,-1784.00,14,19.00,20.10,15.10,-20.00,-2.00,0.00,0,,,100,100,0,2,0,0,0,1,0,,,,,0.0,0.0,0.0,0.0,0.0,0.0,0
34.182585,-118.129091,1.90,2.00,1.90,1.71,1.90,1.90,2.01,1.71,7757,2022-06-08 00:07:04.246,2022-06-07 17:07:04.246,15,0,0,15.198,34.182600,-118.129088,-1.90,-0.10,0.00,0.80,-2.10,-173.70,0,1,0,47,100,-7684,1648,15198,3201.50,10,WP,1,0,0,0,0,0,0,1654646824245,3807,3807,3805,3797,0,0,27,,,,,,,0,0,0,-8.00,-21.00,-1737.00,0.00,0.00,-1784.00,14,19.00,19.03,17.06,-19.00,-1.00,0.00,0,,,100,100,0,2,0,0,0,1,0,,,,,0.0,0.0,0.0,0.0,0.0,0.0,0
34.182583,-118.129091,1.90,2.00,1.80,1.89,1.90,1.90,2.01,1.89,7857,2022-06-08 00:07:04.346,2022-06-07 17:07:04.346,15,0,0,15.198,34.182600,-118.129088,-1.80,-0.10,0.00,1.40,-2.00,-173.30,0,1,0,47,100,-7684,1648,15198,3201.50,10,WP,1,0,0,0,0,0,0,1654646824345,3807,3807,3805,3797,0,0,27,,,,,,,0,0,0,-14.00,-20.00,-1733.00,0.00,0.00,-1784.00,14,19.00,18.03,18.91,-18.00,-1.00,0.00,0,,,100,100,0,2,0,0,0,1,0,,,,,0.0,0.0,0.0,0.0,0.0,0.0,0
34.182582,-118.129092,1.90,2.00,1.80,2.08,1.90,1.90,2.01,2.08,8007,2022-06-08 00:07:04.495,2022-06-07 17:07:04.495,15,0,0,15.198,34.182600,-118.129088,-1.80,0.00,0.00,1.60,-2.30,-173.60,0,1,0,47,100,-7684,1648,15198,3201.50,10,WP,1,0,0,0,0,0,0,1654646824495,3807,3807,3805,3797,0,0,27,,,,,,,0,0,0,-16.00,-23.00,-1736.00,0.00,0.00,-1784.00,14,19.00,18.00,20.78,-18.00,0.00,0.00,0,,,100,100,0,2,0,0,0,1,0,,,,,0.0,0.0,0.0,0.0,0.0,0.0,0
34.182580,-118.129093,1.90,2.00,1.70,2.24,1.90,1.90,2.01,2.24,8057,2022-06-08 00:07:04.546,2022-06-07 17:07:04.546,15,0,0,15.198,34.182600,-118.129088,-1.70,0.00,0.00,1.70,-2.10,-173.40,0,1,0,47,100,-7684,1648,15198,3201.50,10,WP,1,0,0,0,0,0,0,1654646824545,3807,3807,3805,3797,0,0,27,,,,,,,0,0,0,-17.00,-21.00,-1734.00,0.00,0.00,-1784.00,14,19.00,17.00,22.45,-17.00,0.00,0.00,0,,,100,100,0,2,0,0,0,1,0,,,,,0.0,0.0,0.0,0.0,0.0,0.0,0
34.182579,-118.129093,1.90,2.00,1.60,2.43,1.90,1.90,2.01,2.43,8157,2022-06-08 00:07:04.646,2022-06-07 17:07:04.646,15,0,0,15.185,34.182600,-118.129088,-1.60,0.10,0.00,2.50,-2.10,-173.70,0,1,0,47,100,-7966,1643,15185,3201.50,10,WP,1,0,0,0,0,0,0,1654646824645,3807,3807,3805,3797,0,0,27,,,,,,,0,0,0,-25.00,-21.00,-1737.00,0.00,0.00,-1784.00,14,19.00,16.03,24.28,-16.00,1.00,0.00,0,,,100,100,0,2,0,0,0,1,0,,,,,0.0,0.0,0.0,0.0,0.0,0.0,0
34.182577,-118.129094,1.90,2.00,1.50,2.58,1.90,1.90,2.01,2.58,8258,2022-06-08 00:07:04.747,2022-06-07 17:07:04.747,15,0,0,15.185,34.182600,-118.129088,-1.50,0.10,0.00,2.90,-1.00,-173.60,0,1,0,47,100,-7966,1643,15185,3201.50,10,WP,1,0,0,0,0,0,0,1654646824746,3807,3807,3805,3797,0,0,27,,,,,,,0,0,0,-29.00,-10.00,-1736.00,0.00,0.00,-1784.00,14,19.00,15.03,25.78,-15.00,1.00,0.00,0,,,100,100,0,2,0,0,0,1,0,,,,,0.0,0.0,0.0,0.0,0.0,0.0,0
34.182576,-118.129094,1.90,2.00,1.41,2.75,1.90,1.90,2.01,2.75,8357,2022-06-08 00:07:04.846,2022-06-07 17:07:04.846,15,0,0,15.185,34.182600,-118.129088,-1.40,0.20,0.00,3.60,-0.30,-173.70,0,1,0,47,100,-7966,1643,15185,3201.50,10,WP,1,0,0,0,0,0,0,1654646824845,3807,3807,3805,3797,0,0,27,,,,,,,0,0,0,-36.00,-3.00,-1737.00,0.00,0.00,-1784.00,14,19.00,14.14,27.52,-14.00,2.00,0.00,0,,,100,100,0,2,0,0,0,1,0,,,,,0.0,0.0,0.0,0.0,0.0,0.0,0
34.182575,-118.129094,1.90,2.00,1.32,2.88,1.90,1.90,2.01,2.88,8457,2022-06-08 00:07:04.946,2022-06-07 17:07:04.946,15,0,0,15.185,34.182600,-118.129088,-1.30,0.20,0.00,3.30,0.20,-173.50,0,1,0,47,100,-7966,1643,15185,3201.50,10,WP,1,0,0,0,0,0,0,1654646824945,3807,3807,3805,3797,0,0,27,,,,,,,0,0,0,-33.00,2.00,-1735.00,0.00,0.00,-1784.00,14,19.00,13.15,28.84,-13.00,2.00,0.00,0,,,100,100,0,2,0,0,0,1,0,,,,,0.0,0.0,0.0,0.0,0.0,0.0,0
34.182573,-118.129094,1.90,2.00,1.24,3.03,1.90,1.90,2.01,3.03,8557,2022-06-08 00:07:05.046,2022-06-07 17:07:05.046,15,0,0,15.185,34.182600,-118.129088,-1.20,0.30,0.00,3.40,1.00,-173.70,0,1,0,47,100,-7966,1643,15185,3201.50,10,WP,1,0,0,0,0,0,0,1654646825045,3807,3807,3805,3797,0,0,27,,,,,,,0,0,0,-34.00,10.00,-1737.00,0.00,0.00,-1784.00,14,19.00,12.37,30.31,-12.00,3.00,0.00,0,,,100,100,0,2,0,0,0,1,0,,,,,0.0,0.0,0.0,0.0,0.0,0.0,0
34.182572,-118.129094,1.90,2.00,1.14,3.15,1.90,1.90,2.01,3.15,8657,2022-06-08 00:07:05.146,2022-06-07 17:07:05.146,15,0,0,15.185,34.182600,-118.129088,-1.10,0.30,0.00,2.90,1.00,-173.60,0,1,0,47,100,-7966,1643,15185,3201.50,10,WP,1,0,0,0,0,0,0,1654646825145,3807,3807,3805,3797,0,0,27,,,,,,,0,0,0,-29.00,10.00,-1736.00,0.00,0.00,-1784.00,14,19.00,11.40,31.46,-11.00,3.00,0.00,0,,,100,100,0,2,0,0,0,1,0,,,,,0.0,0.0,0.0,0.0,0.0,0.0,0
34.182571,-118.129094,1.90,2.00,1.04,3.28,1.90,1.90,2.01,3.28,8757,2022-06-08 00:07:05.246,2022-06-07 17:07:05.246,15,0,0,15.185,34.182600,-118.129088,-1.00,0.30,0.00,3.00,1.50,-173.80,0,1,0,47,100,-7966,1643,15185,3201.50,10,WP,1,0,0,0,0,0,0,1654646825245,3807,3807,3805,3797,0,0,27,,,,,,,0,0,0,-30.00,15.00,-1738.00,0.00,0.00,-1784.00,14,19.00,10.44,32.83,-10.00,3.00,0.00,0,,,100,100,0,2,0,0,0,1,0,,,,,0.0,0.0,0.0,0.0,0.0,0.0,0
34.182570,-118.129094,1.90,2.00,1.04,3.38,1.90,1.90,2.01,3.38,8857,2022-06-08 00:07:05.346,2022-06-07 17:07:05.346,15,0,0,15.185,34.182600,-118.129088,-1.00,0.30,0.00,2.40,1.30,-173.80,0,1,0,47,100,-7966,1643,15185,3201.50,10,WP,1,0,0,0,0,0,0,1654646825345,3807,3807,3805,3797,0,0,27,,,,,,,0,0,0,-24.00,13.00,-1738.00,0.00,0.00,-1784.00,14,19.00,10.44,33.84,-10.00,3.00,0.00,0,,,100,100,0,2,0,0,0,1,0,,,,,0.0,0.0,0.0,0.0,0.0,0.0,0
34.182569,-118.129093,1.90,2.00,0.95,3.51,1.90,1.90,2.01,3.51,8957,2022-06-08 00:07:05.446,2022-06-07 17:07:05.446,15,0,0,15.185,34.182600,-118.129088,-0.90,0.30,0.00,2.50,1.80,-174.00,0,1,0,47,100,-7966,1643,15185,3201.50,10,WP,1,0,0,0,0,0,0,1654646825445,3807,3807,3805,3797,0,0,27,,,,,,,0,0,0,-25.00,18.00,-1740.00,0.00,0.00,-1784.00,14,19.00,9.49,35.10,-9.00,3.00,0.00,0,,,100,100,0,2,0,0,0,1,0,,,,,0.0,0.0,0.0,0.0,0.0,0.0,0
34.182568,-118.129093,1.90,2.00,0.85,3.60,1.90,1.90,2.01,3.60,9057,2022-06-08 00:07:05.546,2022-06-07 17:07:05.546,15,0,0,15.185,34.182600,-118.129088,-0.80,0.30,0.00,2.00,1.70,-173.80,0,1,0,47,100,-7966,1643,15185,3201.50,10,WP,1,0,0,0,0,0,0,1654646825545,3807,3807,3805,3797,0,0,27,,,,,,,0,0,0,-20.00,17.00,-1738.00,0.00,0.00,-1784.00,14,19.00,8.54,35.99,-8.00,3.00,0.00,0,,,100,100,0,2,0,0,0,1,0,,,,,0.0,0.0,0.0,0.0,0.0,0.0,0
34.182567,-118.129093,1.90,2.00,0.85,3.71,1.90,1.90,2.01,3.71,9159,2022-06-08 00:07:05.647,2022-06-07 17:07:05.647,15,0,0,15.185,34.182600,-118.129088,-0.80,0.30,0.00,2.30,2.70,-173.80,0,1,0,47,100,-7966,1643,15185,3201.50,10,WP,1,0,0,0,0,0,0,1654646825647,3807,3807,3805,3797,0,0,27,,,,,,,0,0,0,-23.00,27.00,-1738.00,0.00,0.00,-1784.00,14,19.00,8.54,37.14,-8.00,3.00,0.00,0,,,100,100,0,2,0,0,0,1,0,,,,,0.0,0.0,0.0,0.0,0.0,0.0,0
34.182566,-118.129093,1.90,2.00,0.76,3.79,1.90,1.90,2.01,3.79,9257,2022-06-08 00:07:05.746,2022-06-07 17:07:05.746,15,0,0,15.185,34.182600,-118.129088,-0.70,0.30,0.00,2.70,2.70,-173.70,0,1,0,47,100,-7966,1643,15185,3201.50,10,WP,1,0,0,0,0,0,0,1654646825745,3807,3807,3805,3797,0,0,27,,,,,,,0,0,0,-27.00,27.00,-1737.00,0.00,0.00,-1784.00,14,19.00,7.62,37.93,-7.00,3.00,0.00,0,,,100,100,0,2,0,0,0,1,0,,,,,0.0,0.0,0.0,0.0,0.0,0.0,0
34.182566,-118.129092,1.90,2.00,0.67,3.85,1.90,1.90,2.01,3.85,9357,2022-06-08 00:07:05.846,2022-06-07 17:07:05.846,15,0,0,15.185,34.182600,-118.129088,-0.60,0.30,0.00,3.00,3.80,-173.90,0,1,0,47,100,-7966,1643,15185,3201.50,10,WP,1,0,0,0,0,0,0,1654646825845,3807,3807,3805,3797,0,0,27,,,,,,,0,0,0,-30.00,38.00,-1739.00,0.00,0.00,-1784.00,14,19.00,6.71,38.52,-6.00,3.00,0.00,0,,,100,100,0,2,0,0,0,1,0,,,,,0.0,0.0,0.0,0.0,0.0,0.0,0
34.182565,-118.129092,1.90,2.10,0.54,3.92,1.90,1.90,2.01,3.92,9457,2022-06-08 00:07:05.946,2022-06-07 17:07:05.946,15,0,0,15.185,34.182600,-118.129088,-0.50,0.20,0.00,3.00,3.80,-173.80,0,1,0,47,100,-7966,1643,15185,3201.50,10,WP,1,0,0,0,0,0,0,1654646825945,3807,3807,3805,3797,0,0,27,,,,,,,0,0,0,-30.00,38.00,-1738.00,0.00,0.00,-1784.00,14,19.00,5.39,39.16,-5.00,2.00,0.00,0,,,100,100,0,2,0,0,0,1,0,,,,,0.0,0.0,0.0,0.0,0.0,0.0,0
34.182564,-118.129091,1.90,2.10,0.45,3.97,1.90,1.90,2.01,3.97,9558,2022-06-08 00:07:06.046,2022-06-07 17:07:06.046,15,0,0,15.185,34.182600,-118.129088,-0.40,0.20,0.00,3.10,4.60,-173.90,0,1,0,47,100,-7966,1643,15185,3201.50,10,WP,1,0,0,0,0,0,0,1654646826046,3807,3807,3805,3797,0,0,27,,,,,,,0,0,0,-31.00,46.00,-1739.00,0.00,0.00,-1784.00,14,19.00,4.47,39.70,-4.00,2.00,0.00,0,,,100,100,0,2,0,0,0,1,0,,,,,0.0,0.0,0.0,0.0,0.0,0.0,0
34.182564,-118.129091,1.90,2.10,0.45,4.02,1.90,1.90,2.01,4.02,9708,2022-06-08 00:07:06.197,2022-06-07 17:07:06.197,15,0,0,15.185,34.182600,-118.129088,-0.40,0.20,0.00,3.00,4.00,-173.90,0,1,0,47,100,-7966,1643,15185,3201.50,10,WP,1,0,0,0,0,0,0,1654646826196,3807,3807,3805,3797,0,0,27,,,,,,,0,0,0,-30.00,40.00,-1739.00,0.00,0.00,-1784.00,14,19.00,4.47,40.19,-4.00,2.00,0.00,0,,,100,100,0,2,0,0,0,1,0,,,,,0.0,0.0,0.0,0.0,0.0,0.0,0
34.182564,-118.129091,1.90,2.10,0.32,4.07,1.90,1.90,2.01,4.07,9759,2022-06-08 00:07:06.248,2022-06-07 17:07:06.248,15,0,0,15.185,34.182600,-118.129088,-0.30,0.10,0.00,4.60,4.90,-173.80,0,1,0,47,100,-7966,1643,15185,3201.50,10,WP,1,0,0,0,0,0,0,1654646826247,3807,3807,3805,3797,0,0,27,,,,,,,0,0,0,-46.00,49.00,-1738.00,0.00,0.00,-1784.00,14,19.00,3.16,40.68,-3.00,1.00,0.00,0,,,100,100,0,2,0,0,0,1,0,,,,,0.0,0.0,0.0,0.0,0.0,0.0,0
34.182563,-118.129091,1.90,2.10,0.22,4.10,1.90,1.90,2.01,4.10,9858,2022-06-08 00:07:06.346,2022-06-07 17:07:06.346,15,0,0,15.185,34.182600,-118.129088,-0.20,0.10,0.00,3.50,4.00,-173.80,0,1,0,47,100,-7966,1643,15185,3201.50,10,WP,1,0,0,0,0,0,0,1654646826346,3807,3807,3805,3797,0,0,27,,,,,,,0,0,0,-35.00,40.00,-1738.00,0.00,0.00,-1784.00,14,19.00,2.24,41.01,-2.00,1.00,0.00,0,,,100,100,0,2,0,0,0,1,0,,,,,0.0,0.0,0.0,0.0,0.0,0.0,0
34.182563,-118.129090,1.90,2.10,0.10,4.11,1.90,1.90,2.01,4.11,9957,2022-06-08 00:07:06.446,2022-06-07 17:07:06.446,15,0,0,15.185,34.182600,-118.129088,-0.10,0.00,0.00,2.20,3.20,-174.00,0,1,0,47,100,-7966,1643,15185,3201.50,10,WP,1,0,0,0,0,0,0,1654646826445,3807,3807,3805,3797,0,0,27,,,,,,,0,0,0,-22.00,32.00,-1740.00,0.00,0.00,-1784.00,14,19.00,1.00,41.12,-1.00,0.00,0.00,0,,,100,100,0,2,0,0,0,1,0,,,,,0.0,0.0,0.0,0.0,0.0,0.0,0
34.182563,-118.129091,1.90,2.10,0.00,4.13,1.90,1.90,2.01,4.13,10057,2022-06-08 00:07:06.546,2022-06-07 17:07:06.546,15,0,0,15.185,34.182600,-118.129088,0.00,0.00,0.00,1.20,2.30,-171.20,0,1,0,47,100,-7966,1643,15185,3201.50,10,WP,1,0,0,0,0,0,0,1654646826545,3807,3807,3805,3797,0,0,27,,,,,,,0,0,0,-12.00,23.00,-1712.00,0.00,0.00,-1784.00,14,19.00,0.00,41.30,0.00,0.00,0.00,0,,,100,100,0,2,0,0,0,1,0,,,,,0.0,0.0,0.0,0.0,0.0,0.0,0
34.182563,-118.129090,1.90,2.10,0.00,4.13,1.90,1.90,2.01,4.13,10157,2022-06-08 00:07:06.646,2022-06-07 17:07:06.646,15,0,0,15.166,34.182600,-118.129088,0.00,0.00,0.00,0.20,1.80,-163.70,0,1,0,47,100,-7993,1639,15166,3201.50,10,WP,1,0,0,0,0,0,0,1654646826645,3807,3807,3805,3797,0,0,27,,,,,,,0,0,0,-2.00,18.00,-1637.00,0.00,0.00,-1784.00,14,19.00,0.00,41.31,0.00,0.00,0.00,0,,,100,100,0,2,0,0,0,1,0,,,,,0.0,0.0,0.0,0.0,0.0,0.0,0
34.182563,-118.129090,1.90,2.10,0.00,4.14,1.90,1.90,2.01,4.14,10258,2022-06-08 00:07:06.746,2022-06-07 17:07:06.746,15,0,0,15.166,34.182600,-118.129088,0.00,0.00,0.00,-0.30,1.50,-156.30,0,1,0,47,100,-7993,1639,15166,3201.50,10,WP,1,0,0,0,0,0,0,1654646826746,3807,3807,3805,3797,0,0,27,,,,,,,0,0,0,3.00,15.00,-1563.00,0.00,0.00,-1766.00,14,19.00,0.00,41.41,0.00,0.00,0.00,0,,,100,100,0,2,0,0,0,1,0,,,,,0.0,0.0,0.0,0.0,0.0,0.0,0
34.182563,-118.129090,1.90,2.10,0.00,4.14,1.90,1.90,2.01,4.14,10358,2022-06-08 00:07:06.846,2022-06-07 17:07:06.846,15,0,0,15.166,34.182600,-118.129088,0.00,0.00,0.00,-0.80,1.30,-148.80,0,1,0,47,100,-7993,1639,15166,3201.50,10,WP,1,0,0,0,0,0,0,1654646826846,3807,3807,3805,3797,0,0,27,,,,,,,0,0,0,8.00,13.00,-1488.00,0.00,0.00,-1696.00,14,19.00,0.00,41.38,0.00,0.00,0.00,0,,,100,100,0,2,0,0,0,1,0,,,,,0.0,0.0,0.0,0.0,0.0,0.0,0
34.182563,-118.129090,1.90,2.10,0.00,4.14,1.90,1.90,2.01,4.14,10458,2022-06-08 00:07:06.946,2022-06-07 17:07:06.946,15,0,0,15.166,34.182600,-118.129088,0.00,0.00,0.00,-0.90,1.10,-141.30,0,1,0,47,100,-7993,1639,15166,3201.50,10,WP,1,0,0,0,0,0,0,1654646826946,3807,3807,3805,3797,0,0,27,,,,,,,0,0,0,9.00,11.00,-1413.00,0.00,0.00,-1611.00,14,19.00,0.00,41.44,0.00,0.00,0.00,0,,,100,100,0,2,0,0,0,1,0,,,,,0.0,0.0,0.0,0.0,0.0,0.0,0
34.182563,-118.129090,1.90,2.00,0.00,4.11,1.90,1.90,2.01,4.14,10608,2022-06-08 00:07:07.097,2022-06-07 17:07:07.097,15,0,0,15.166,34.182600,-118.129088,0.00,0.00,0.00,-1.10,1.00,-133.70,0,1,0,47,100,-7993,1639,15166,3201.50,10,WP,1,0,0,0,0,0,0,1654646827096,3807,3807,3805,3797,0,0,27,,,,,,,0,0,0,11.00,10.00,-1337.00,0.00,0.00,-1529.00,14,19.00,0.00,41.11,0.00,0.00,0.00,0,,,100,100,0,2,0,0,0,1,0,,,,,0.0,0.0,0.0,0.0,0.0,0.0,0
34.182563,-118.129090,1.90,2.00,0.00,4.11,1.90,1.90,2.01,4.14,10708,2022-06-08 00:07:07.197,2022-06-07 17:07:07.197,15,0,0,15.166,34.182600,-118.129088,0.00,0.00,0.00,-1.00,0.90,-126.20,0,1,0,47,100,-7993,1639,15166,3201.50,10,WP,1,0,0,0,0,0,0,1654646827196,3807,3807,3805,3797,0,0,27,,,,,,,0,0,0,10.00,9.00,-1262.00,0.00,0.00,-1448.00,14,19.00,0.00,41.11,0.00,0.00,0.00,0,,,100,100,0,2,0,0,0,1,0,,,,,0.0,0.0,0.0,0.0,0.0,0.0,0
34.182563,-118.129089,1.90,2.00,0.00,4.08,1.90,1.90,2.01,4.14,10808,2022-06-08 00:07:07.296,2022-06-07 17:07:07.296,15,0,0,15.166,34.182600,-118.129088,0.00,0.00,0.00,-1.20,0.30,-118.80,0,1,0,47,100,-7993,1639,15166,3201.50,10,WP,1,0,0,0,0,0,0,1654646827296,3807,3807,3805,3797,0,0,27,,,,,,,0,0,0,12.00,3.00,-1188.00,0.00,0.00,-1370.00,14,19.00,0.00,40.84,0.00,0.00,0.00,0,,,100,100,0,2,0,0,0,1,0,,,,,0.0,0.0,0.0,0.0,0.0,0.0,0
34.182563,-118.129089,1.90,2.00,0.00,4.08,1.90,1.90,2.01,4.14,10859,2022-06-08 00:07:07.347,2022-06-07 17:07:07.347,15,0,0,15.166,34.182600,-118.129088,0.00,0.00,0.00,-1.10,-0.50,-111.40,0,1,0,47,100,-7993,1639,15166,3201.50,10,WP,1,0,0,0,0,0,0,1654646827347,3807,3807,3805,3797,0,0,27,,,,,,,0,0,0,11.00,-5.00,-1114.00,0.00,0.00,-1292.00,14,19.00,0.00,40.78,0.00,0.00,0.00,0,,,100,100,0,2,0,0,0,1,0,,,,,0.0,0.0,0.0,0.0,0.0,0.0,0
34.182564,-118.129089,1.90,2.00,0.10,4.05,1.90,1.90,2.01,4.14,10958,2022-06-08 00:07:07.447,2022-06-07 17:07:07.447,15,0,0,15.166,34.182600,-118.129088,0.10,0.00,0.00,-1.20,-1.20,-104.00,0,1,0,47,100,-7993,1639,15166,3201.50,10,WP,1,0,0,0,0,0,0,1654646827446,3807,3807,3805,3797,0,0,27,,,,,,,0,0,0,12.00,-12.00,-1040.00,0.00,0.00,-1216.00,14,19.00,1.00,40.47,1.00,0.00,0.00,0,,,100,100,0,2,0,0,0,1,0,,,,,0.0,0.0,0.0,0.0,0.0,0.0,0
34.182564,-118.129089,1.90,2.00,0.10,4.04,1.90,1.90,2.01,4.14,11059,2022-06-08 00:07:07.547,2022-06-07 17:07:07.547,15,0,0,15.166,34.182600,-118.129088,0.10,0.00,0.00,-1.10,-1.50,-96.70,0,1,0,47,100,-7993,1639,15166,3201.50,10,WP,1,0,0,0,0,0,0,1654646827547,3807,3807,3805,3797,0,0,27,,,,,,,0,0,0,11.00,-15.00,-967.00,0.00,0.00,-1141.00,14,19.00,1.00,40.38,1.00,0.00,0.00,0,,,100,100,0,2,0,0,0,1,0,,,,,0.0,0.0,0.0,0.0,0.0,0.0,0
34.182564,-118.129089,1.90,2.00,0.10,4.02,1.90,1.90,2.01,4.14,11159,2022-06-08 00:07:07.648,2022-06-07 17:07:07.648,15,0,0,15.166,34.182600,-118.129088,0.10,0.00,0.00,-1.20,-2.00,-89.50,0,1,0,47,100,-7993,1639,15166,3201.50,10,WP,1,0,0,0,0,0,0,1654646827647,3807,3807,3805,3797,0,0,27,,,,,,,0,0,0,12.00,-20.00,-895.00,0.00,0.00,-1067.00,14,19.00,1.00,40.23,1.00,0.00,0.00,0,,,100,100,0,2,0,0,0,1,0,,,,,0.0,0.0,0.0,0.0,0.0,0.0,0
34.182564,-118.129089,1.90,2.00,0.10,4.01,1.90,1.90,2.01,4.14,11260,2022-06-08 00:07:07.748,2022-06-07 17:07:07.748,15,0,0,15.166,34.182600,-118.129088,0.10,0.00,0.00,-1.10,-2.60,-82.20,0,1,0,47,100,-7993,1639,15166,3201.50,10,WP,1,0,0,0,0,0,0,1654646827748,3807,3807,3805,3797,0,0,27,,,,,,,0,0,0,11.00,-26.00,-822.00,0.00,0.00,-993.00,14,19.00,1.00,40.13,1.00,0.00,0.00,0,,,100,100,0,2,0,0,0,1,0,,,,,0.0,0.0,0.0,0.0,0.0,0.0,0
34.182564,-118.129089,1.90,2.00,0.00,3.98,1.90,1.90,2.01,4.14,11408,2022-06-08 00:07:07.897,2022-06-07 17:07:07.897,15,0,0,15.166,34.182600,-118.129088,0.00,0.00,0.00,-1.00,-2.60,-74.80,0,1,0,47,100,-7993,1639,15166,3201.50,10,WP,1,0,0,0,0,0,0,1654646827896,3807,3807,3805,3797,0,0,27,,,,,,,0,0,0,10.00,-26.00,-748.00,0.00,0.00,-920.00,14,19.00,0.00,39.78,0.00,0.00,0.00,0,,,100,100,0,2,0,0,0,1,0,,,,,0.0,0.0,0.0,0.0,0.0,0.0,0
34.182564,-118.129089,1.90,2.00,0.00,3.97,1.90,1.90,2.01,4.14,11460,2022-06-08 00:07:07.948,2022-06-07 17:07:07.948,15,0,0,15.166,34.182600,-118.129088,0.00,0.00,0.00,-0.80,-2.70,-67.40,0,1,0,47,100,-7993,1639,15166,3201.50,10,WP,1,0,0,0,0,0,0,1654646827948,3807,3807,3805,3797,0,0,27,,,,,,,0,0,0,8.00,-27.00,-674.00,0.00,0.00,-846.00,14,19.00,0.00,39.68,0.00,0.00,0.00,0,,,100,100,0,2,0,0,0,1,0,,,,,0.0,0.0,0.0,0.0,0.0,0.0,0
34.182564,-118.129089,1.90,2.00,0.00,3.96,1.90,1.90,2.01,4.14,11609,2022-06-08 00:07:08.098,2022-06-07 17:07:08.098,15,0,0,15.166,34.182600,-118.129088,0.00,0.00,0.00,-0.40,-2.50,-60.00,0,1,0,47,100,-7993,1639,15166,3201.50,10,WP,1,0,0,0,0,0,0,1654646828097,3807,3807,3805,3797,0,0,27,,,,,,,0,0,0,4.00,-25.00,-600.00,0.00,0.00,-772.00,14,19.00,0.00,39.61,0.00,0.00,0.00,0,,,100,100,0,2,0,0,0,1,0,,,,,0.0,0.0,0.0,0.0,0.0,0.0,0
34.182565,-118.129088,1.90,2.00,0.00,3.95,1.90,1.90,2.01,4.14,11709,2022-06-08 00:07:08.197,2022-06-07 17:07:08.197,15,0,0,15.166,34.182600,-118.129088,0.00,0.00,0.00,0.00,-2.50,-52.50,0,1,0,47,100,-7993,1639,15166,3201.50,10,WP,1,0,0,0,0,0,0,1654646828197,3807,3807,3805,3797,0,0,27,,,,,,,0,0,0,-0.00,-25.00,-525.00,0.00,0.00,-697.00,14,19.00,0.00,39.52,0.00,0.00,0.00,0,,,100,100,0,2,0,0,0,1,0,,,,,0.0,0.0,0.0,0.0,0.0,0.0,0
34.182565,-118.129088,1.90,2.00,0.00,3.92,1.90,1.90,2.01,4.14,11759,2022-06-08 00:07:08.248,2022-06-07 17:07:08.248,15,0,0,15.166,34.182600,-118.129088,0.00,0.00,0.00,0.10,-2.90,-45.10,0,1,0,47,100,-7993,1639,15166,3201.50,10,WP,1,0,0,0,0,0,0,1654646828247,3807,3807,3805,3797,0,0,27,,,,,,,0,0,0,-1.00,-29.00,-451.00,0.00,0.00,-622.00,14,19.00,0.00,39.23,0.00,0.00,0.00,0,,,100,100,0,2,0,0,0,1,0,,,,,0.0,0.0,0.0,0.0,0.0,0.0,0
34.182565,-118.129088,1.90,2.00,0.00,3.91,1.90,1.90,2.01,4.14,11861,2022-06-08 00:07:08.349,2022-06-07 17:07:08.349,15,0,0,15.166,34.182600,-118.129088,0.00,0.00,0.00,0.50,-3.10,-37.60,0,1,0,47,100,-7993,1639,15166,3201.50,10,WP,1,0,0,0,0,0,0,1654646828349,3807,3807,3805,3797,0,0,27,,,,,,,0,0,0,-5.00,-31.00,-376.00,0.00,0.00,-547.00,14,19.00,0.00,39.12,0.00,0.00,0.00,0,,,100,100,0,2,0,0,0,1,0,,,,,0.0,0.0,0.0,0.0,0.0,0.0,0
34.182565,-118.129088,1.90,2.00,0.00,3.92,1.90,1.90,2.01,4.14,11961,2022-06-08 00:07:08.449,2022-06-07 17:07:08.449,15,0,0,15.166,34.182600,-118.129088,0.00,0.00,0.00,0.80,-3.10,-30.60,0,1,0,47,100,-7993,1639,15166,3201.50,10,WP,1,0,0,0,0,0,0,1654646828449,3807,3807,3805,3797,0,0,27,,,,,,,0,0,0,-8.00,-31.00,-306.00,0.00,0.00,-473.00,14,19.00,0.00,39.19,0.00,0.00,0.00,0,,,100,100,0,2,0,0,0,1,0,,,,,0.0,0.0,0.0,0.0,0.0,0.0,0
34.182565,-118.129088,1.90,2.00,0.00,3.91,1.90,1.90,2.01,4.14,12061,2022-06-08 00:07:08.549,2022-06-07 17:07:08.549,15,0,0,15.166,34.182600,-118.129088,0.00,0.00,0.00,1.00,-2.40,-24.70,0,1,0,47,100,-7993,1639,15166,3201.50,10,WP,1,0,0,0,0,0,0,1654646828549,3807,3807,3805,3797,0,0,27,,,,,,,0,0,0,-10.00,-24.00,-247.00,0.00,0.00,-400.00,14,19.00,0.00,39.11,0.00,0.00,0.00,0,,,100,100,0,2,0,0,0,1,0,,,,,0.0,0.0,0.0,0.0,0.0,0.0,0
34.182565,-118.129088,1.80,2.00,0.00,3.90,1.90,1.90,2.01,4.14,12160,2022-06-08 00:07:08.649,2022-06-07 17:07:08.649,15,0,0,15.164,34.182600,-118.129088,0.00,0.00,0.00,1.20,-2.30,-20.00,0,1,0,47,100,-7759,1635,15164,3211.50,10,WP,1,0,0,0,0,0,0,1654646828648,3807,3807,3805,3797,0,0,27,,,,,,,0,0,0,-12.00,-23.00,-200.00,0.00,0.00,-333.00,14,18.00,0.00,38.96,0.00,0.00,0.00,0,,,100,100,0,2,0,0,0,1,0,,,,,0.0,0.0,0.0,0.0,0.0,0.0,0
34.182565,-118.129088,1.80,1.90,0.00,3.89,1.90,1.90,2.01,4.14,12261,2022-06-08 00:07:08.750,2022-06-07 17:07:08.750,15,0,0,15.164,34.182600,-118.129088,0.00,0.00,0.00,1.40,-2.30,-16.10,0,1,0,47,100,-7759,1635,15164,3211.50,10,WP,1,0,0,0,0,0,0,1654646828749,3807,3807,3805,3797,0,0,27,,,,,,,0,0,0,-14.00,-23.00,-161.00,0.00,0.00,-280.00,14,18.00,0.00,38.87,0.00,0.00,0.00,0,,,100,100,0,2,0,0,0,1,0,,,,,0.0,0.0,0.0,0.0,0.0,0.0,0
34.182565,-118.129088,1.80,1.90,0.00,3.88,1.90,1.90,2.01,4.14,12361,2022-06-08 00:07:08.849,2022-06-07 17:07:08.849,15,0,0,15.164,34.182600,-118.129088,0.00,0.00,0.00,2.00,-2.40,-13.00,0,1,0,47,100,-7759,1635,15164,3211.50,10,WP,1,0,0,0,0,0,0,1654646828849,3807,3807,3805,3797,0,0,27,,,,,,,0,0,0,-20.00,-24.00,-130.00,0.00,0.00,-238.00,14,18.00,0.00,38.85,0.00,0.00,0.00,0,,,100,100,0,2,0,0,0,1,0,,,,,0.0,0.0,0.0,0.0,0.0,0.0,0
34.182565,-118.129088,1.80,1.90,0.00,3.88,1.90,1.90,2.01,4.14,12510,2022-06-08 00:07:08.998,2022-06-07 17:07:08.998,15,0,0,15.164,34.182600,-118.129088,0.00,0.00,0.00,2.40,-2.50,-10.50,0,1,0,47,100,-7759,1635,15164,3211.50,10,WP,1,0,0,0,0,0,0,1654646828998,3807,3807,3805,3797,0,0,27,,,,,,,0,0,0,-24.00,-25.00,-105.00,0.00,0.00,-203.00,14,18.00,0.00,38.77,0.00,0.00,0.00,0,,,100,100,0,2,0,0,0,1,0,,,,,0.0,0.0,0.0,0.0,0.0,0.0,0
34.182565,-118.129088,1.80,1.90,0.00,3.88,1.90,1.90,2.01,4.14,12561,2022-06-08 00:07:09.049,2022-06-07 17:07:09.049,15,0,0,15.164,34.182600,-118.129088,0.00,0.00,0.00,2.70,-2.30,-8.50,0,1,0,47,100,-7759,1635,15164,3211.50,10,WP,1,0,0,0,0,0,0,1654646829049,3807,3807,3805,3797,0,0,27,,,,,,,0,0,0,-27.00,-23.00,-85.00,0.00,0.00,-175.00,14,18.00,0.00,38.83,0.00,0.00,0.00,0,,,100,100,0,2,0,0,0,1,0,,,,,0.0,0.0,0.0,0.0,0.0,0.0,0
34.182565,-118.129088,1.80,1.90,0.00,3.88,1.90,1.90,2.01,4.14,12668,2022-06-08 00:07:09.157,2022-06-07 17:07:09.157,15,0,0,15.164,34.182600,-118.129088,0.00,0.00,0.00,2.70,-2.30,-6.80,0,1,0,47,100,-7759,1635,15164,3211.50,10,WP,1,0,0,0,0,0,0,1654646829156,3807,3807,3805,3797,0,0,27,,,,,,,0,0,0,-27.00,-23.00,-68.00,0.00,0.00,-152.00,14,18.00,0.00,38.80,0.00,0.00,0.00,0,,,100,100,0,2,0,0,0,1,0,,,,,0.0,0.0,0.0,0.0,0.0,0.0,0
34.182565,-118.129088,1.80,1.90,0.00,3.88,1.90,1.90,2.01,4.14,12762,2022-06-08 00:07:09.251,2022-06-07 17:07:09.251,15,0,0,15.164,34.182600,-118.129088,0.00,0.00,0.00,2.70,-2.10,-5.40,0,1,0,47,100,-7759,1635,15164,3211.50,10,WP,1,0,0,0,0,0,0,1654646829250,3807,3807,3805,3797,0,0,27,,,,,,,0,0,0,-27.00,-21.00,-54.00,0.00,0.00,-132.00,14,18.00,0.00,38.85,0.00,0.00,0.00,0,,,100,100,0,2,0,0,0,1,0,,,,,0.0,0.0,0.0,0.0,0.0,0.0,0
34.182565,-118.129088,1.80,1.90,0.00,3.89,1.90,1.90,2.01,4.14,12865,2022-06-08 00:07:09.354,2022-06-07 17:07:09.354,15,0,0,15.164,34.182600,-118.129088,0.00,0.00,0.00,2.00,-2.20,-4.60,0,1,0,47,100,-7759,1635,15164,3211.50,10,WP,1,0,0,0,0,0,0,1654646829353,3807,3807,3805,3797,0,0,27,,,,,,,0,0,0,-20.00,-22.00,-46.00,0.00,0.00,-117.00,14,18.00,0.00,38.85,0.00,0.00,0.00,0,,,100,100,0,2,0,0,0,1,0,,,,,0.0,0.0,0.0,0.0,0.0,0.0,0
34.182565,-118.129088,1.80,1.90,0.00,3.88,1.90,1.90,2.01,4.14,12967,2022-06-08 00:07:09.456,2022-06-07 17:07:09.456,15,0,0,15.164,34.182600,-118.129088,0.00,0.00,0.00,0.10,-2.10,-4.50,0,1,0,47,100,-7759,1635,15164,3211.50,10,WP,1,0,0,0,0,0,0,1654646829455,3807,3807,3805,3797,0,0,27,,,,,,,0,0,0,-1.00,-21.00,-45.00,0.00,0.00,-105.00,14,18.00,0.00,38.85,0.00,0.00,0.00,0,,,100,100,0,2,0,0,0,1,0,,,,,0.0,0.0,0.0,0.0,0.0,0.0,0
34.182565,-118.129088,1.80,1.90,0.00,3.88,1.90,1.90,2.01,4.14,13066,2022-06-08 00:07:09.554,2022-06-07 17:07:09.554,15,0,0,15.164,34.182600,-118.129088,0.00,0.00,0.00,0.40,-1.90,-4.60,0,1,0,47,100,-7759,1635,15164,3211.50,10,WP,1,0,0,0,0,0,0,1654646829554,3807,3807,3805,3797,0,0,27,,,,,,,0,0,0,-4.00,-19.00,-46.00,0.00,0.00,-98.00,14,18.00,0.00,38.83,0.00,0.00,0.00,0,,,100,100,0,2,0,0,0,1,0,,,,,0.0,0.0,0.0,0.0,0.0,0.0,0
34.182565,-118.129088,1.80,1.90,0.00,3.89,1.90,1.90,2.01,4.14,13211,2022-06-08 00:07:09.700,2022-06-07 17:07:09.700,15,0,0,15.164,34.182600,-118.129088,0.00,0.00,0.00,1.00,-1.80,-4.60,0,1,0,47,100,-7759,1635,15164,3211.50,10,WP,1,0,0,0,0,0,0,1654646829699,3807,3807,3805,3797,0,0,27,,,,,,,0,0,0,-10.00,-18.00,-46.00,0.00,0.00,-95.00,14,18.00,0.00,38.85,0.00,0.00,0.00,0,,,100,100,0,2,0,0,0,1,0,,,,,0.0,0.0,0.0,0.0,0.0,0.0,0
34.182565,-118.129088,1.90,1.90,0.00,3.88,1.90,1.90,2.01,4.14,13260,2022-06-08 00:07:09.748,2022-06-07 17:07:09.748,15,0,0,15.164,34.182600,-118.129088,0.00,0.00,0.00,1.30,-1.70,-4.60,0,1,0,47,100,-7759,1635,15164,3211.50,10,WP,1,0,0,0,0,0,0,1654646829748,3807,3807,3805,3797,0,0,27,,,,,,,0,0,0,-13.00,-17.00,-46.00,0.00,0.00,-94.00,14,19.00,0.00,38.81,0.00,0.00,0.00,0,,,100,100,0,2,0,0,0,1,0,,,,,0.0,0.0,0.0,0.0,0.0,0.0,0
34.182565,-118.129088,1.90,1.90,0.00,3.88,1.90,1.90,2.01,4.14,13362,2022-06-08 00:07:09.850,2022-06-07 17:07:09.850,15,0,0,15.164,34.182600,-118.129088,0.00,0.00,0.00,1.50,-1.60,-4.60,0,1,0,47,100,-7759,1635,15164,3211.50,10,WP,1,0,0,0,0,0,0,1654646829850,3807,3807,3805,3797,0,0,27,,,,,,,0,0,0,-15.00,-16.00,-46.00,0.00,0.00,-93.00,14,19.00,0.00,38.76,0.00,0.00,0.00,0,,,100,100,0,2,0,0,0,1,0,,,,,0.0,0.0,0.0,0.0,0.0,0.0,0
34.182565,-118.129088,1.90,1.90,0.00,3.87,1.90,1.90,2.01,4.14,13462,2022-06-08 00:07:09.950,2022-06-07 17:07:09.950,15,0,0,15.164,34.182600,-118.129088,0.00,0.00,0.00,1.50,-1.40,-4.60,0,1,0,47,100,-7759,1635,15164,3211.50,10,WP,1,0,0,0,0,0,0,1654646829950,3807,3807,3805,3797,0,0,27,,,,,,,0,0,0,-15.00,-14.00,-46.00,0.00,0.00,-93.00,14,19.00,0.00,38.71,0.00,0.00,0.00,0,,,100,100,0,2,0,0,0,1,0,,,,,0.0,0.0,0.0,0.0,0.0,0.0,0
