latitude,longitude,altitude(m),ultrasonicHeight(m),speed(mps),distance(m),max_altitude(m),max_ascent(m),max_speed(mps),max_distance(m),time(millisecond),datetime(utc),datetime(local),satellites,pressure(Pa),temperature(F),voltage(v),home_latitude,home_longitude,velocityX(mps),velocityY(mps),velocityZ(mps),pitch(deg),roll(deg),yaw(deg),powerlevel,isflying,istakingphoto,remainPowerPercent,remainLifePercent,currentCurrent,currentElectricity,currentVoltage,batteryTemperature,dischargeCount,flightmode,isMotorsOn,isTakingVideo,Rc_elevator,Rc_aileron,Rc_throttle,Rc_rudder,Rc_gyro,timestamp,Battery_Cell1,Battery_Cell2,Battery_Cell3,Battery_Cell4,Battery_Cell5,Battery_Cell6,Dronetype,AppVersion,Planename,FlyControllerSerialNumber,RemoteSerialNumber,BatterySerialNumber,CENTER_BATTERY.productDate,CENTER_BATTERY.serialNo,CENTER_BATTERY.fullCapacity,CENTER_BATTERY.productDateRaw,pitchRaw,rollRaw,yawRaw,gimbalPitchRaw,gimbalRollRaw,gimbalYawRaw,flyState,altitudeRaw,speedRaw,distanceRaw,velocityXRaw,velocityYRaw,velocityZRaw,data_reuse,App_Tip,App_Warning,downlinkSignalQuality,uplinkSignalQuality,transmissionChannel,rcModeSwitch,rcHome,rcPause,rcTransform,rcJoystickMode,appMode,FlyControllerSerialNumber_legacy,RemoteSerialNumber_legacy,BatterySerialNumber_legacy,Battery2SerialNumber,frontAvoidDist,backAvoidDist,rightAvoidDist,leftAvoidDist,upAvoidDist,downAvoidDist,isBrakingToAvoid
34.182607,-118.129082,0.40,0.40,0.41,0.11,0.40,0.40,0.41,0.11,2,2022-06-06 23:10:49.494,2022-06-06 16:10:49.495,15,0,0,17.007,34.182606,-118.129083,0.00,0.10,-0.40,1.40,-3.00,-14.70,0,1,0,98,100,-4356,3344,17007,3011.50,10,TakeOff,1,0,0,0,0,0,0,1654557049494,4319,4320,4317,4313,0,0,27,Litchi_iOS_2.14.0,Brian-MAVIC 2,163DFCK001S13F,1DUCFB800104PR,0P2AFBV5340045,,0,3416,0,-14.00,-30.00,-147.00,0.00,0.00,-156.00,11,4.00,4.12,1.15,0.00,1.00,-4.00,0,,,100,100,0,2,0,0,0,1,0,(null),(null),(null),(null),0.0,0.0,0.0,0.0,0.0,0.0,0
34.182607,-118.129082,0.40,0.40,0.41,0.13,0.40,0.40,0.41,0.13,100,2022-06-06 23:10:49.592,2022-06-06 16:10:49.592,15,0,0,17.007,34.182606,-118.129083,0.00,0.10,-0.40,1.10,-3.00,-14.70,0,1,0,98,100,-4356,3344,17007,3011.50,10,TakeOff,1,0,0,0,0,0,0,1654557049592,4319,4320,4317,4313,0,0,27,,,,,,,0,0,0,-11.00,-30.00,-147.00,0.00,0.00,-156.00,11,4.00,4.12,1.27,0.00,1.00,-4.00,0,,,100,100,0,2,0,0,0,1,0,,,,,0.0,0.0,0.0,0.0,0.0,0.0,0
34.182607,-118.129082,0.50,0.50,0.51,0.12,0.50,0.50,0.51,0.13,199,2022-06-06 23:10:49.692,2022-06-06 16:10:49.692,15,0,0,17.007,34.182606,-118.129083,0.00,0.10,-0.50,1.10,-3.00,-14.50,0,1,0,98,100,-4356,3344,17007,3011.50,10,TakeOff,1,0,0,0,0,0,0,1654557049691,4319,4320,4317,4313,0,0,27,,,,,,,0,0,0,-11.00,-30.00,-145.00,0.00,0.00,-156.00,11,5.00,5.10,1.23,0.00,1.00,-5.00,0,,,100,100,0,2,0,0,0,1,0,,,,,0.0,0.0,0.0,0.0,0.0,0.0,0
34.182607,-118.129082,0.50,0.50,0.50,0.13,0.50,0.50,0.51,0.13,300,2022-06-06 23:10:49.792,2022-06-06 16:10:49.792,15,0,0,17.007,34.182606,-118.129083,0.00,0.00,-0.50,1.50,-3.20,-14.70,0,1,0,98,100,-4356,3344,17007,3011.50,10,TakeOff,1,0,0,0,0,0,0,1654557049792,4319,4320,4317,4313,0,0,27,,,,,,,0,0,0,-15.00,-32.00,-147.00,0.00,0.00,-156.00,11,5.00,5.00,1.33,0.00,0.00,-5.00,0,,,100,100,0,2,0,0,0,1,0,,,,,0.0,0.0,0.0,0.0,0.0,0.0,0
34.182607,-118.129082,0.60,0.60,0.50,0.16,0.60,0.60,0.51,0.16,401,2022-06-06 23:10:49.893,2022-06-06 16:10:49.893,15,0,0,17.007,34.182606,-118.129083,0.00,0.00,-0.50,1.70,-3.30,-14.60,0,1,0,98,100,-4356,3344,17007,3011.50,10,TakeOff,1,0,0,0,0,0,0,1654557049893,4319,4320,4317,4313,0,0,27,,,,,,,0,0,0,-17.00,-33.00,-146.00,0.00,0.00,-156.00,11,6.00,5.00,1.56,0.00,0.00,-5.00,0,,,100,100,0,2,0,0,0,1,0,,,,,0.0,0.0,0.0,0.0,0.0,0.0,0
34.182607,-118.129082,0.60,0.70,0.50,0.17,0.60,0.60,0.51,0.17,501,2022-06-06 23:10:49.993,2022-06-06 16:10:49.993,15,0,0,17.007,34.182606,-118.129083,0.00,0.00,-0.50,1.60,-3.40,-14.50,0,1,0,98,100,-4356,3344,17007,3011.50,10,TakeOff,1,0,0,0,0,0,0,1654557049993,4175,4159,4155,4165,0,0,27,,,,,,,0,0,0,-16.00,-34.00,-145.00,0.00,0.00,-156.00,11,6.00,5.00,1.65,0.00,0.00,-5.00,0,,,100,100,0,2,0,0,0,1,0,,,,,0.0,0.0,0.0,0.0,0.0,0.0,0
34.182607,-118.129082,0.70,0.70,0.50,0.18,0.70,0.70,0.51,0.18,600,2022-06-06 23:10:50.092,2022-06-06 16:10:50.092,15,0,0,17.007,34.182606,-118.129083,0.00,0.00,-0.50,1.70,-3.50,-14.60,0,1,0,98,100,-4356,3344,17007,3011.50,10,TakeOff,1,0,0,0,0,0,0,1654557050092,4175,4159,4155,4165,0,0,27,,,,,,,0,0,0,-17.00,-35.00,-146.00,0.00,0.00,-156.00,11,7.00,5.00,1.79,0.00,0.00,-5.00,0,,,100,100,0,2,0,0,0,1,0,,,,,0.0,0.0,0.0,0.0,0.0,0.0,0
34.182607,-118.129082,0.70,0.80,0.50,0.19,0.70,0.70,0.51,0.19,700,2022-06-06 23:10:50.193,2022-06-06 16:10:50.193,15,0,0,17.007,34.182606,-118.129083,0.00,0.00,-0.50,1.80,-3.40,-14.60,0,1,0,98,100,-4356,3344,17007,3011.50,10,TakeOff,1,0,0,0,0,0,0,1654557050192,4175,4159,4155,4165,0,0,27,,,,,,,0,0,0,-18.00,-34.00,-146.00,0.00,0.00,-156.00,11,7.00,5.00,1.86,0.00,0.00,-5.00,0,,,100,100,0,2,0,0,0,1,0,,,,,0.0,0.0,0.0,0.0,0.0,0.0,0
34.182607,-118.129082,0.80,0.80,0.40,0.16,0.80,0.80,0.51,0.19,801,2022-06-06 23:10:50.293,2022-06-06 16:10:50.293,15,0,0,17.007,34.182606,-118.129083,0.00,0.00,-0.40,2.10,-3.40,-14.70,0,1,0,98,100,-4356,3344,17007,3011.50,10,TakeOff,1,0,0,0,0,0,0,1654557050293,4175,4159,4155,4165,0,0,27,,,,,,,0,0,0,-21.00,-34.00,-147.00,0.00,0.00,-156.00,11,8.00,4.00,1.61,0.00,0.00,-4.00,0,,,100,100,0,2,0,0,0,1,0,,,,,0.0,0.0,0.0,0.0,0.0,0.0,0
34.182607,-118.129082,0.80,0.90,0.40,0.16,0.80,0.80,0.51,0.19,901,2022-06-06 23:10:50.394,2022-06-06 16:10:50.394,15,0,0,17.007,34.182606,-118.129083,0.00,0.00,-0.40,2.10,-3.10,-14.70,0,1,0,98,100,-4356,3344,17007,3011.50,10,TakeOff,1,0,0,0,0,0,0,1654557050393,4175,4159,4155,4165,0,0,27,,,,,,,0,0,0,-21.00,-31.00,-147.00,0.00,0.00,-156.00,11,8.00,4.00,1.62,0.00,0.00,-4.00,0,,,100,100,0,2,0,0,0,1,0,,,,,0.0,0.0,0.0,0.0,0.0,0.0,0
34.182607,-118.129082,0.90,0.90,0.40,0.18,0.90,0.90,0.51,0.19,1001,2022-06-06 23:10:50.493,2022-06-06 16:10:50.493,15,0,0,16.667,34.182606,-118.129083,0.00,0.00,-0.40,1.80,-2.70,-14.70,0,1,0,98,100,-6926,3342,16667,3011.50,10,TakeOff,1,0,0,0,0,0,0,1654557050493,4175,4159,4155,4165,0,0,27,,,,,,,0,0,0,-18.00,-27.00,-147.00,0.00,0.00,-156.00,11,9.00,4.00,1.84,0.00,0.00,-4.00,0,,,100,100,0,2,0,0,0,1,0,,,,,0.0,0.0,0.0,0.0,0.0,0.0,0
34.182607,-118.129082,0.90,1.00,0.40,0.18,0.90,0.90,0.51,0.19,1102,2022-06-06 23:10:50.595,2022-06-06 16:10:50.595,15,0,0,16.667,34.182606,-118.129083,0.00,0.00,-0.40,1.40,-2.60,-14.70,0,1,0,98,100,-6926,3342,16667,3011.50,10,TakeOff,1,0,0,0,0,0,0,1654557050594,4175,4159,4155,4165,0,0,27,,,,,,,0,0,0,-14.00,-26.00,-147.00,0.00,0.00,-156.00,11,9.00,4.00,1.83,0.00,0.00,-4.00,0,,,100,100,0,2,0,0,0,1,0,,,,,0.0,0.0,0.0,0.0,0.0,0.0,0
34.182607,-118.129081,1.00,1.00,0.40,0.19,1.00,1.00,0.51,0.19,1201,2022-06-06 23:10:50.693,2022-06-06 16:10:50.693,15,0,0,16.667,34.182606,-118.129083,0.00,0.00,-0.40,1.00,-2.50,-14.70,0,1,0,98,100,-6926,3342,16667,3011.50,10,TakeOff,1,0,0,0,0,0,0,1654557050693,4175,4159,4155,4165,0,0,27,,,,,,,0,0,0,-10.00,-25.00,-147.00,0.00,0.00,-156.00,11,10.00,4.00,1.87,0.00,0.00,-4.00,0,,,100,100,0,2,0,0,0,1,0,,,,,0.0,0.0,0.0,0.0,0.0,0.0,0
34.182607,-118.129081,1.00,1.10,0.40,0.19,1.00,1.00,0.51,0.19,1302,2022-06-06 23:10:50.795,2022-06-06 16:10:50.795,15,0,0,16.667,34.182606,-118.129083,0.00,0.00,-0.40,1.00,-3.00,-14.70,0,1,0,98,100,-6926,3342,16667,3011.50,10,TakeOff,1,0,0,0,0,0,0,1654557050794,4175,4159,4155,4165,0,0,27,,,,,,,0,0,0,-10.00,-30.00,-147.00,0.00,0.00,-156.00,11,10.00,4.00,1.86,0.00,0.00,-4.00,0,,,100,100,0,2,0,0,0,1,0,,,,,0.0,0.0,0.0,0.0,0.0,0.0,0
34.182607,-118.129081,1.00,1.10,0.40,0.18,1.00,1.00,0.51,0.19,1402,2022-06-06 23:10:50.894,2022-06-06 16:10:50.894,15,0,0,16.667,34.182606,-118.129083,0.00,0.00,-0.40,0.40,-2.00,-14.80,0,1,0,98,100,-6926,3342,16667,3011.50,10,WP,1,0,0,0,0,0,0,1654557050894,4175,4159,4155,4165,0,0,27,,,,,,,0,0,0,-4.00,-20.00,-148.00,0.00,0.00,-156.00,14,10.00,4.00,1.78,0.00,0.00,-4.00,0,,,100,100,0,2,0,0,0,1,0,,,,,0.0,0.0,0.0,0.0,0.0,0.0,0
34.182607,-118.129081,1.10,1.10,0.30,0.18,1.10,1.10,0.51,0.19,1501,2022-06-06 23:10:50.994,2022-06-06 16:10:50.994,15,0,0,16.667,34.182606,-118.129083,0.00,0.00,-0.30,-0.10,-0.50,-14.90,0,1,0,98,100,-6926,3342,16667,3011.50,10,WP,1,0,0,0,0,0,0,1654557050993,4175,4159,4155,4165,0,0,27,,,,,,,0,0,0,1.00,-5.00,-149.00,0.00,0.00,-156.00,14,11.00,3.00,1.78,0.00,0.00,-3.00,0,,,100,100,0,2,0,0,0,1,0,,,,,0.0,0.0,0.0,0.0,0.0,0.0,0
34.182607,-118.129081,1.10,1.20,0.40,0.17,1.10,1.10,0.51,0.19,1601,2022-06-06 23:10:51.093,2022-06-06 16:10:51.093,15,0,0,16.667,34.182606,-118.129083,0.00,0.00,-0.40,0.90,-0.60,-15.00,0,1,0,98,100,-6926,3342,16667,3011.50,10,WP,1,0,0,0,0,0,0,1654557051093,4175,4159,4155,4165,0,0,27,,,,,,,0,0,0,-9.00,-6.00,-150.00,0.00,0.00,-156.00,14,11.00,4.00,1.73,0.00,0.00,-4.00,0,,,100,100,0,2,0,0,0,1,0,,,,,0.0,0.0,0.0,0.0,0.0,0.0,0
34.182607,-118.129081,1.20,1.20,0.40,0.18,1.20,1.20,0.51,0.19,1701,2022-06-06 23:10:51.194,2022-06-06 16:10:51.194,15,0,0,16.667,34.182606,-118.129083,0.00,0.00,-0.40,1.30,-1.30,-14.90,0,1,0,98,100,-6926,3342,16667,3011.50,10,WP,1,0,0,0,0,0,0,1654557051193,4175,4159,4155,4165,0,0,27,,,,,,,0,0,0,-13.00,-13.00,-149.00,0.00,0.00,-156.00,14,12.00,4.00,1.78,0.00,0.00,-4.00,0,,,100,100,0,2,0,0,0,1,0,,,,,0.0,0.0,0.0,0.0,0.0,0.0,0
34.182607,-118.129081,1.20,1.30,0.50,0.18,1.20,1.20,0.51,0.19,1801,2022-06-06 23:10:51.294,2022-06-06 16:10:51.294,15,0,0,16.667,34.182606,-118.129083,0.00,0.00,-0.50,1.40,-2.00,-15.20,0,1,0,98,100,-6926,3342,16667,3011.50,10,WP,1,0,0,0,0,0,0,1654557051293,4175,4159,4155,4165,0,0,27,,,,,,,0,0,0,-14.00,-20.00,-152.00,0.00,0.00,-156.00,14,12.00,5.00,1.79,0.00,0.00,-5.00,0,,,100,100,0,2,0,0,0,1,0,,,,,0.0,0.0,0.0,0.0,0.0,0.0,0
34.182607,-118.129081,1.30,1.30,0.50,0.19,1.30,1.30,0.51,0.19,1901,2022-06-06 23:10:51.394,2022-06-06 16:10:51.394,15,0,0,16.667,34.182606,-118.129083,0.00,0.00,-0.50,1.20,-2.60,-15.20,0,1,0,98,100,-6926,3342,16667,3011.50,10,WP,1,0,0,0,0,0,0,1654557051393,4175,4159,4155,4165,0,0,27,,,,,,,0,0,0,-12.00,-26.00,-152.00,0.00,0.00,-157.00,14,13.00,5.00,1.85,0.00,0.00,-5.00,0,,,100,100,0,2,0,0,0,1,0,,,,,0.0,0.0,0.0,0.0,0.0,0.0,0
34.182607,-118.129081,1.30,1.40,0.50,0.21,1.30,1.30,0.51,0.21,2002,2022-06-06 23:10:51.494,2022-06-06 16:10:51.495,15,0,0,16.667,34.182606,-118.129083,0.00,0.00,-0.50,1.90,-2.90,-15.30,0,1,0,98,100,-6926,3342,16667,3011.50,10,WP,1,0,0,0,0,0,0,1654557051494,4175,4159,4155,4165,0,0,27,,,,,,,0,0,0,-19.00,-29.00,-153.00,0.00,0.00,-157.00,14,13.00,5.00,2.13,0.00,0.00,-5.00,0,,,100,100,0,2,0,0,0,1,0,,,,,0.0,0.0,0.0,0.0,0.0,0.0,0
34.182607,-118.129081,1.40,1.40,0.50,0.22,1.40,1.40,0.51,0.22,2102,2022-06-06 23:10:51.594,2022-06-06 16:10:51.594,15,0,0,16.667,34.182606,-118.129083,0.00,0.00,-0.50,2.40,-2.90,-15.10,0,1,0,98,100,-6926,3342,16667,3011.50,10,WP,1,0,0,0,0,0,0,1654557051594,4175,4159,4155,4165,0,0,27,,,,,,,0,0,0,-24.00,-29.00,-151.00,0.00,0.00,-157.00,14,14.00,5.00,2.20,0.00,0.00,-5.00,0,,,100,100,0,2,0,0,0,1,0,,,,,0.0,0.0,0.0,0.0,0.0,0.0,0
34.182607,-118.129081,1.40,1.50,0.40,0.20,1.40,1.40,0.51,0.22,2202,2022-06-06 23:10:51.695,2022-06-06 16:10:51.695,15,0,0,16.667,34.182606,-118.129083,0.00,0.00,-0.40,1.10,-2.90,-14.90,0,1,0,98,100,-6926,3342,16667,3011.50,10,WP,1,0,0,0,0,0,0,1654557051694,4175,4159,4155,4165,0,0,27,,,,,,,0,0,0,-11.00,-29.00,-149.00,0.00,0.00,-157.00,14,14.00,4.00,2.02,0.00,0.00,-4.00,0,,,100,100,0,2,0,0,0,1,0,,,,,0.0,0.0,0.0,0.0,0.0,0.0,0
34.182607,-118.129081,1.50,1.50,0.40,0.21,1.50,1.50,0.51,0.22,2301,2022-06-06 23:10:51.794,2022-06-06 16:10:51.794,15,0,0,16.667,34.182606,-118.129083,0.00,0.00,-0.40,0.80,-2.60,-15.00,0,1,0,98,100,-6926,3342,16667,3011.50,10,WP,1,0,0,0,0,0,0,1654557051793,4175,4159,4155,4165,0,0,27,,,,,,,0,0,0,-8.00,-26.00,-150.00,0.00,0.00,-157.00,14,15.00,4.00,2.06,0.00,0.00,-4.00,0,,,100,100,0,2,0,0,0,1,0,,,,,0.0,0.0,0.0,0.0,0.0,0.0,0
34.182607,-118.129081,1.50,1.60,0.40,0.22,1.50,1.50,0.51,0.22,2402,2022-06-06 23:10:51.895,2022-06-06 16:10:51.895,15,0,0,16.667,34.182606,-118.129083,0.00,0.00,-0.40,1.20,-2.70,-15.10,0,1,0,98,100,-6926,3342,16667,3011.50,10,WP,1,0,0,0,0,0,0,1654557051894,4175,4159,4155,4165,0,0,27,,,,,,,0,0,0,-12.00,-27.00,-151.00,0.00,0.00,-157.00,14,15.00,4.00,2.23,0.00,0.00,-4.00,0,,,100,100,0,2,0,0,0,1,0,,,,,0.0,0.0,0.0,0.0,0.0,0.0,0
34.182607,-118.129081,1.60,1.60,0.40,0.23,1.60,1.60,0.51,0.23,2501,2022-06-06 23:10:51.993,2022-06-06 16:10:51.993,15,0,0,16.667,34.182606,-118.129083,0.00,0.00,-0.40,1.50,-2.60,-15.10,0,1,0,98,100,-6926,3342,16667,3011.50,10,WP,1,0,0,0,0,0,0,1654557051993,4175,4159,4155,4165,0,0,27,,,,,,,0,0,0,-15.00,-26.00,-151.00,0.00,0.00,-157.00,14,16.00,4.00,2.29,0.00,0.00,-4.00,0,,,100,100,0,2,0,0,0,1,0,,,,,0.0,0.0,0.0,0.0,0.0,0.0,0
34.182607,-118.129081,1.60,1.70,0.40,0.23,1.60,1.60,0.51,0.23,2602,2022-06-06 23:10:52.094,2022-06-06 16:10:52.094,15,0,0,16.667,34.182606,-118.129083,0.00,0.00,-0.40,1.80,-2.80,-15.20,0,1,0,98,100,-6926,3342,16667,3011.50,10,WP,1,0,0,0,0,0,0,1654557052094,4175,4159,4155,4165,0,0,27,,,,,,,0,0,0,-18.00,-28.00,-152.00,0.00,0.00,-158.00,14,16.00,4.00,2.29,0.00,0.00,-4.00,0,,,100,100,0,2,0,0,0,1,0,,,,,0.0,0.0,0.0,0.0,0.0,0.0,0
34.182607,-118.129081,1.60,1.70,0.40,0.23,1.60,1.60,0.51,0.23,2702,2022-06-06 23:10:52.194,2022-06-06 16:10:52.195,15,0,0,16.667,34.182606,-118.129083,0.00,0.00,-0.40,1.80,-3.10,-15.00,0,1,0,98,100,-6926,3342,16667,3011.50,10,WP,1,0,0,0,0,0,0,1654557052194,4175,4159,4155,4165,0,0,27,,,,,,,0,0,0,-18.00,-31.00,-150.00,0.00,0.00,-158.00,14,16.00,4.00,2.35,0.00,0.00,-4.00,0,,,100,100,0,2,0,0,0,1,0,,,,,0.0,0.0,0.0,0.0,0.0,0.0,0
34.182607,-118.129081,1.70,1.80,0.40,0.24,1.70,1.70,0.51,0.24,2801,2022-06-06 23:10:52.293,2022-06-06 16:10:52.294,15,0,0,16.667,34.182606,-118.129083,0.00,0.00,-0.40,1.70,-3.60,-15.00,0,1,0,98,100,-6926,3342,16667,3011.50,10,WP,1,0,0,0,0,0,0,1654557052293,4175,4159,4155,4165,0,0,27,,,,,,,0,0,0,-17.00,-36.00,-150.00,0.00,0.00,-158.00,14,17.00,4.00,2.38,0.00,0.00,-4.00,0,,,100,100,0,2,0,0,0,1,0,,,,,0.0,0.0,0.0,0.0,0.0,0.0,0
34.182607,-118.129081,1.70,1.80,0.40,0.24,1.70,1.70,0.51,0.24,2902,2022-06-06 23:10:52.394,2022-06-06 16:10:52.394,15,0,0,16.565,34.182606,-118.129083,0.00,0.00,-0.40,1.40,-2.50,-15.10,0,1,0,98,100,-7785,3336,16565,3011.50,10,WP,1,0,0,0,0,0,0,1654557052394,4175,4159,4155,4165,0,0,27,,,,,,,0,0,0,-14.00,-25.00,-151.00,0.00,0.00,-158.00,14,17.00,4.00,2.42,0.00,0.00,-4.00,0,,,100,100,0,2,0,0,0,1,0,,,,,0.0,0.0,0.0,0.0,0.0,0.0,0
34.182607,-118.129081,1.80,1.80,0.30,0.26,1.80,1.80,0.51,0.26,3002,2022-06-06 23:10:52.494,2022-06-06 16:10:52.494,15,0,0,16.565,34.182606,-118.129083,0.00,0.00,-0.30,1.10,-2.50,-15.70,0,1,0,98,100,-7785,3336,16565,3011.50,10,WP,1,0,0,0,0,0,0,1654557052494,4175,4159,4155,4165,0,0,27,,,,,,,0,0,0,-11.00,-25.00,-157.00,0.00,0.00,-158.00,14,18.00,3.00,2.59,0.00,0.00,-3.00,0,,,100,100,0,2,0,0,0,1,0,,,,,0.0,0.0,0.0,0.0,0.0,0.0,0
34.182607,-118.129081,1.80,1.90,0.20,0.26,1.80,1.80,0.51,0.26,3103,2022-06-06 23:10:52.596,2022-06-06 16:10:52.596,15,0,0,16.565,34.182606,-118.129083,0.00,0.00,-0.20,0.70,-2.50,-16.90,0,1,0,98,100,-7785,3336,16565,3011.50,10,WP,1,0,0,0,0,0,0,1654557052595,4175,4159,4155,4165,0,0,27,,,,,,,0,0,0,-7.00,-25.00,-169.00,0.00,0.00,-159.00,14,18.00,2.00,2.62,0.00,0.00,-2.00,0,,,100,100,0,2,0,0,0,1,0,,,,,0.0,0.0,0.0,0.0,0.0,0.0,0
34.182607,-118.129080,1.80,1.90,0.10,0.28,1.80,1.80,0.51,0.28,3203,2022-06-06 23:10:52.695,2022-06-06 16:10:52.695,15,0,0,16.565,34.182606,-118.129083,0.00,0.00,-0.10,0.30,-2.50,-18.60,0,1,0,98,100,-7785,3336,16565,3011.50,10,WP,1,0,0,0,0,0,0,1654557052695,4175,4159,4155,4165,0,0,27,,,,,,,0,0,0,-3.00,-25.00,-186.00,0.00,0.00,-161.00,14,18.00,1.00,2.80,0.00,0.00,-1.00,0,,,100,100,0,2,0,0,0,1,0,,,,,0.0,0.0,0.0,0.0,0.0,0.0,0
34.182607,-118.129080,1.80,1.90,0.10,0.29,1.80,1.80,0.51,0.29,3302,2022-06-06 23:10:52.794,2022-06-06 16:10:52.794,15,0,0,16.565,34.182606,-118.129083,0.00,0.00,-0.10,0.20,-2.60,-21.00,0,1,0,98,100,-7785,3336,16565,3011.50,10,WP,1,0,0,0,0,0,0,1654557052794,4175,4159,4155,4165,0,0,27,,,,,,,0,0,0,-2.00,-26.00,-210.00,0.00,0.00,-169.00,14,18.00,1.00,2.85,0.00,0.00,-1.00,0,,,100,100,0,2,0,0,0,1,0,,,,,0.0,0.0,0.0,0.0,0.0,0.0,0
34.182607,-118.129080,1.80,1.90,0.10,0.29,1.80,1.80,0.51,0.29,3403,2022-06-06 23:10:52.896,2022-06-06 16:10:52.896,15,0,0,16.565,34.182606,-118.129083,0.00,0.00,-0.10,0.10,-2.30,-23.90,0,1,0,98,100,-7785,3336,16565,3011.50,10,WP,1,0,0,0,0,0,0,1654557052895,4175,4159,4155,4165,0,0,27,,,,,,,0,0,0,-1.00,-23.00,-239.00,0.00,0.00,-185.00,14,18.00,1.00,2.91,0.00,0.00,-1.00,0,,,100,100,0,2,0,0,0,1,0,,,,,0.0,0.0,0.0,0.0,0.0,0.0,0
34.182607,-118.129080,1.80,1.90,0.00,0.30,1.80,1.80,0.51,0.30,3502,2022-06-06 23:10:52.994,2022-06-06 16:10:52.994,15,0,0,16.565,34.182606,-118.129083,0.00,0.00,0.00,0.00,-2.30,-27.30,0,1,0,98,100,-7785,3336,16565,3011.50,10,WP,1,0,0,0,0,0,0,1654557052994,4175,4159,4155,4165,0,0,27,,,,,,,0,0,0,-0.00,-23.00,-273.00,0.00,0.00,-211.00,14,18.00,0.00,2.98,0.00,0.00,0.00,0,,,100,100,0,2,0,0,0,1,0,,,,,0.0,0.0,0.0,0.0,0.0,0.0,0
34.182607,-118.129080,1.80,1.90,0.00,0.30,1.80,1.80,0.51,0.30,3603,2022-06-06 23:10:53.095,2022-06-06 16:10:53.095,15,0,0,16.565,34.182606,-118.129083,0.00,0.00,0.00,-0.20,-2.60,-31.30,0,1,0,98,100,-7785,3336,16565,3011.50,10,WP,1,0,0,0,0,0,0,1654557053095,4175,4159,4155,4165,0,0,27,,,,,,,0,0,0,2.00,-26.00,-313.00,0.00,0.00,-245.00,14,18.00,0.00,2.97,0.00,0.00,0.00,0,,,100,100,0,2,0,0,0,1,0,,,,,0.0,0.0,0.0,0.0,0.0,0.0,0
34.182607,-118.129080,1.90,1.90,0.10,0.31,1.90,1.90,0.51,0.31,3703,2022-06-06 23:10:53.195,2022-06-06 16:10:53.195,15,0,0,16.565,34.182606,-118.129083,0.00,0.10,0.00,-0.30,-3.10,-36.00,0,1,0,98,100,-7785,3336,16565,3011.50,10,WP,1,0,0,0,0,0,0,1654557053195,4175,4159,4155,4165,0,0,27,,,,,,,0,0,0,3.00,-31.00,-360.00,0.00,0.00,-286.00,14,19.00,1.00,3.08,0.00,1.00,0.00,0,,,100,100,0,2,0,0,0,1,0,,,,,0.0,0.0,0.0,0.0,0.0,0.0,0
34.182607,-118.129080,1.90,1.90,0.10,0.32,1.90,1.90,0.51,0.32,3794,2022-06-06 23:10:53.287,2022-06-06 16:10:53.287,15,0,0,16.565,34.182606,-118.129083,0.00,0.10,0.00,-0.20,-3.60,-41.20,0,1,0,98,100,-7785,3336,16565,3011.50,10,WP,1,0,0,0,0,0,0,1654557053286,4175,4159,4155,4165,0,0,27,,,,,,,0,0,0,2.00,-36.00,-412.00,0.00,0.00,-333.00,14,19.00,1.00,3.20,0.00,1.00,0.00,0,,,100,100,0,2,0,0,0,1,0,,,,,0.0,0.0,0.0,0.0,0.0,0.0,0
34.182607,-118.129079,1.90,1.90,0.10,0.33,1.90,1.90,0.51,0.33,3902,2022-06-06 23:10:53.394,2022-06-06 16:10:53.394,15,0,0,16.565,34.182606,-118.129083,0.00,0.10,0.00,-1.00,-3.70,-46.90,0,1,0,98,100,-7785,3336,16565,3011.50,10,WP,1,0,0,0,0,0,0,1654557053394,4175,4159,4155,4165,0,0,27,,,,,,,0,0,0,10.00,-37.00,-469.00,0.00,0.00,-387.00,14,19.00,1.00,3.32,0.00,1.00,0.00,0,,,100,100,0,2,0,0,0,1,0,,,,,0.0,0.0,0.0,0.0,0.0,0.0,0
34.182607,-118.129079,1.90,1.90,0.10,0.33,1.90,1.90,0.51,0.33,4003,2022-06-06 23:10:53.495,2022-06-06 16:10:53.495,15,0,0,16.565,34.182606,-118.129083,0.00,0.10,0.00,-1.50,-3.60,-53.30,0,1,0,98,100,-7785,3336,16565,3011.50,10,WP,1,0,0,0,0,0,0,1654557053495,4175,4159,4155,4165,0,0,27,,,,,,,0,0,0,15.00,-36.00,-533.00,0.00,0.00,-447.00,14,19.00,1.00,3.34,0.00,1.00,0.00,0,,,100,100,0,2,0,0,0,1,0,,,,,0.0,0.0,0.0,0.0,0.0,0.0,0
34.182607,-118.129079,1.90,1.90,0.10,0.34,1.90,1.90,0.51,0.34,4103,2022-06-06 23:10:53.595,2022-06-06 16:10:53.595,15,0,0,16.565,34.182606,-118.129083,0.00,0.10,0.00,-1.80,-3.50,-60.20,0,1,0,98,100,-7785,3336,16565,3011.50,10,WP,1,0,0,0,0,0,0,1654557053595,4175,4159,4155,4165,0,0,27,,,,,,,0,0,0,18.00,-35.00,-602.00,0.00,0.00,-512.00,14,19.00,1.00,3.44,0.00,1.00,0.00,0,,,100,100,0,2,0,0,0,1,0,,,,,0.0,0.0,0.0,0.0,0.0,0.0,0
34.182607,-118.129079,1.90,1.90,0.10,0.36,1.90,1.90,0.51,0.36,4203,2022-06-06 23:10:53.695,2022-06-06 16:10:53.695,15,0,0,16.565,34.182606,-118.129083,0.00,0.10,0.00,-2.30,-3.50,-67.50,0,1,0,98,100,-7785,3336,16565,3011.50,10,WP,1,0,0,0,0,0,0,1654557053695,4175,4159,4155,4165,0,0,27,,,,,,,0,0,0,23.00,-35.00,-675.00,0.00,0.00,-583.00,14,19.00,1.00,3.59,0.00,1.00,0.00,0,,,100,100,0,2,0,0,0,1,0,,,,,0.0,0.0,0.0,0.0,0.0,0.0,0
34.182607,-118.129079,1.90,2.00,0.00,0.37,1.90,1.90,0.51,0.37,4253,2022-06-06 23:10:53.745,2022-06-06 16:10:53.746,15,0,0,16.565,34.182606,-118.129083,0.00,0.00,0.00,-2.70,-3.40,-75.00,0,1,0,98,100,-7785,3336,16565,3011.50,10,WP,1,0,0,0,0,0,0,1654557053745,4175,4159,4155,4165,0,0,27,,,,,,,0,0,0,27.00,-34.00,-750.00,0.00,0.00,-659.00,14,19.00,0.00,3.68,0.00,0.00,0.00,0,,,100,100,0,2,0,0,0,1,0,,,,,0.0,0.0,0.0,0.0,0.0,0.0,0
34.182607,-118.129079,1.90,2.00,0.00,0.39,1.90,1.90,0.51,0.39,4354,2022-06-06 23:10:53.847,2022-06-06 16:10:53.847,15,0,0,16.565,34.182606,-118.129083,0.00,0.00,0.00,-3.20,-3.00,-82.50,0,1,0,98,100,-7785,3336,16565,3011.50,10,WP,1,0,0,0,0,0,0,1654557053846,4175,4159,4155,4165,0,0,27,,,,,,,0,0,0,32.00,-30.00,-825.00,0.00,0.00,-733.00,14,19.00,0.00,3.86,0.00,0.00,0.00,0,,,100,100,0,2,0,0,0,1,0,,,,,0.0,0.0,0.0,0.0,0.0,0.0,0
34.182607,-118.129079,1.90,2.00,0.00,0.39,1.90,1.90,0.51,0.39,4503,2022-06-06 23:10:53.995,2022-06-06 16:10:53.995,15,0,0,16.565,34.182606,-118.129083,0.00,0.00,0.00,-3.30,-2.60,-90.00,0,1,0,98,100,-7785,3336,16565,3011.50,10,WP,1,0,0,0,0,0,0,1654557053995,4175,4159,4155,4165,0,0,27,,,,,,,0,0,0,33.00,-26.00,-900.00,0.00,0.00,-810.00,14,19.00,0.00,3.92,0.00,0.00,0.00,0,,,100,100,0,2,0,0,0,1,0,,,,,0.0,0.0,0.0,0.0,0.0,0.0,0
34.182607,-118.129079,1.90,2.00,0.00,0.38,1.90,1.90,0.51,0.39,4554,2022-06-06 23:10:54.046,2022-06-06 16:10:54.046,15,0,0,16.565,34.182606,-118.129083,0.00,0.00,0.00,-3.20,-2.20,-97.50,0,1,0,98,100,-7785,3336,16565,3011.50,10,WP,1,0,0,0,0,0,0,1654557054046,4175,4159,4155,4165,0,0,27,,,,,,,0,0,0,32.00,-22.00,-975.00,0.00,0.00,-887.00,14,19.00,0.00,3.80,0.00,0.00,0.00,0,,,100,100,0,2,0,0,0,1,0,,,,,0.0,0.0,0.0,0.0,0.0,0.0,0
34.182607,-118.129079,1.90,2.00,0.00,0.38,1.90,1.90,0.51,0.39,4704,2022-06-06 23:10:54.196,2022-06-06 16:10:54.196,15,0,0,16.565,34.182606,-118.129083,0.00,0.00,0.00,-2.90,-1.90,-105.00,0,1,0,98,100,-7785,3336,16565,3011.50,10,WP,1,0,0,0,0,0,0,1654557054196,4175,4159,4155,4165,0,0,27,,,,,,,0,0,0,29.00,-19.00,-1050.00,0.00,0.00,-962.00,14,19.00,0.00,3.78,0.00,0.00,0.00,0,,,100,100,0,2,0,0,0,1,0,,,,,0.0,0.0,0.0,0.0,0.0,0.0,0
34.182607,-118.129079,1.90,2.00,0.00,0.38,1.90,1.90,0.51,0.39,4803,2022-06-06 23:10:54.296,2022-06-06 16:10:54.296,15,0,0,16.565,34.182606,-118.129083,0.00,0.00,0.00,-2.80,-1.80,-112.70,0,1,0,98,100,-7785,3336,16565,3011.50,10,WP,1,0,0,0,0,0,0,1654557054295,4175,4159,4155,4165,0,0,27,,,,,,,0,0,0,28.00,-18.00,-1127.00,0.00,0.00,-1038.00,14,19.00,0.00,3.78,0.00,0.00,0.00,0,,,100,100,0,2,0,0,0,1,0,,,,,0.0,0.0,0.0,0.0,0.0,0.0,0
34.182607,-118.129079,1.90,2.00,0.00,0.37,1.90,1.90,0.51,0.39,4866,2022-06-06 23:10:54.358,2022-06-06 16:10:54.358,15,0,0,16.584,34.182606,-118.129083,0.00,0.00,0.00,-2.50,-1.50,-120.30,0,1,0,98,100,-7103,3332,16584,3011.50,10,WP,1,0,0,0,0,0,0,1654557054358,4175,4159,4155,4165,0,0,27,,,,,,,0,0,0,25.00,-15.00,-1203.00,0.00,0.00,-1116.00,14,19.00,0.00,3.72,0.00,0.00,0.00,0,,,100,100,0,2,0,0,0,1,0,,,,,0.0,0.0,0.0,0.0,0.0,0.0,0
34.182607,-118.129079,1.90,2.00,0.00,0.38,1.90,1.90,0.51,0.39,4953,2022-06-06 23:10:54.446,2022-06-06 16:10:54.446,15,0,0,16.584,34.182606,-118.129083,0.00,0.00,0.00,-2.30,-0.60,-127.80,0,1,0,98,100,-7103,3332,16584,3011.50,10,WP,1,0,0,0,0,0,0,1654557054445,4175,4159,4155,4165,0,0,27,,,,,,,0,0,0,23.00,-6.00,-1278.00,0.00,0.00,-1191.00,14,19.00,0.00,3.83,0.00,0.00,0.00,0,,,100,100,0,2,0,0,0,1,0,,,,,0.0,0.0,0.0,0.0,0.0,0.0,0
34.182606,-118.129079,1.90,2.00,0.00,0.38,1.90,1.90,0.51,0.39,5103,2022-06-06 23:10:54.596,2022-06-06 16:10:54.596,15,0,0,16.584,34.182606,-118.129083,0.00,0.00,0.00,-2.20,-0.20,-135.20,0,1,0,98,100,-7103,3332,16584,3011.50,10,WP,1,0,0,0,0,0,0,1654557054595,4175,4159,4155,4165,0,0,27,,,,,,,0,0,0,22.00,-2.00,-1352.00,0.00,0.00,-1266.00,14,19.00,0.00,3.77,0.00,0.00,0.00,0,,,100,100,0,2,0,0,0,1,0,,,,,0.0,0.0,0.0,0.0,0.0,0.0,0
34.182607,-118.129079,1.90,2.00,0.00,0.37,1.90,1.90,0.51,0.39,5203,2022-06-06 23:10:54.695,2022-06-06 16:10:54.695,15,0,0,16.584,34.182606,-118.129083,0.00,0.00,0.00,-2.20,0.00,-142.50,0,1,0,98,100,-7103,3332,16584,3011.50,10,WP,1,0,0,0,0,0,0,1654557054695,4175,4159,4155,4165,0,0,27,,,,,,,0,0,0,22.00,0.00,-1425.00,0.00,0.00,-1341.00,14,19.00,0.00,3.72,0.00,0.00,0.00,0,,,100,100,0,2,0,0,0,1,0,,,,,0.0,0.0,0.0,0.0,0.0,0.0,0
34.182607,-118.129079,1.90,2.00,0.00,0.36,1.90,1.90,0.51,0.39,5303,2022-06-06 23:10:54.796,2022-06-06 16:10:54.796,15,0,0,16.584,34.182606,-118.129083,0.00,0.00,0.00,-2.00,0.40,-149.90,0,1,0,98,100,-7103,3332,16584,3011.50,10,WP,1,0,0,0,0,0,0,1654557054795,4175,4159,4155,4165,0,0,27,,,,,,,0,0,0,20.00,4.00,-1499.00,0.00,0.00,-1414.00,14,19.00,0.00,3.64,0.00,0.00,0.00,0,,,100,100,0,2,0,0,0,1,0,,,,,0.0,0.0,0.0,0.0,0.0,0.0,0
34.182607,-118.129079,1.90,2.00,0.00,0.38,1.90,1.90,0.51,0.39,5404,2022-06-06 23:10:54.897,2022-06-06 16:10:54.897,15,0,0,16.584,34.182606,-118.129083,0.00,0.00,0.00,-2.00,0.80,-156.70,0,1,0,98,100,-7103,3332,16584,3011.50,10,WP,1,0,0,0,0,0,0,1654557054896,4175,4159,4155,4165,0,0,27,,,,,,,0,0,0,20.00,8.00,-1567.00,0.00,0.00,-1488.00,14,19.00,0.00,3.78,0.00,0.00,0.00,0,,,100,100,0,2,0,0,0,1,0,,,,,0.0,0.0,0.0,0.0,0.0,0.0,0
34.182606,-118.129079,1.90,2.00,0.00,0.37,1.90,1.90,0.51,0.39,5454,2022-06-06 23:10:54.947,2022-06-06 16:10:54.947,15,0,0,16.584,34.182606,-118.129083,0.00,0.00,0.00,-1.70,1.00,-161.60,0,1,0,98,100,-7103,3332,16584,3011.50,10,WP,1,0,0,0,0,0,0,1654557054946,4175,4159,4155,4165,0,0,27,,,,,,,0,0,0,17.00,10.00,-1616.00,0.00,0.00,-1557.00,14,19.00,0.00,3.74,0.00,0.00,0.00,0,,,100,100,0,2,0,0,0,1,0,,,,,0.0,0.0,0.0,0.0,0.0,0.0,0
34.182607,-118.129079,1.90,2.00,0.00,0.38,1.90,1.90,0.51,0.39,5604,2022-06-06 23:10:55.096,2022-06-06 16:10:55.096,15,0,0,16.584,34.182606,-118.129083,0.00,0.00,0.00,-1.50,1.40,-164.90,0,1,0,98,100,-7103,3332,16584,3011.50,10,WP,1,0,0,0,0,0,0,1654557055096,4175,4159,4155,4165,0,0,27,,,,,,,0,0,0,15.00,14.00,-1649.00,0.00,0.00,-1609.00,14,19.00,0.00,3.78,0.00,0.00,0.00,0,,,100,100,0,2,0,0,0,1,0,,,,,0.0,0.0,0.0,0.0,0.0,0.0,0
34.182607,-118.129079,1.90,2.00,0.00,0.38,1.90,1.90,0.51,0.39,5703,2022-06-06 23:10:55.196,2022-06-06 16:10:55.196,15,0,0,16.584,34.182606,-118.129083,0.00,0.00,0.00,-1.30,1.80,-166.90,0,1,0,98,100,-7103,3332,16584,3011.50,10,WP,1,0,0,0,0,0,0,1654557055195,4175,4159,4155,4165,0,0,27,,,,,,,0,0,0,13.00,18.00,-1669.00,0.00,0.00,-1645.00,14,19.00,0.00,3.75,0.00,0.00,0.00,0,,,100,100,0,2,0,0,0,1,0,,,,,0.0,0.0,0.0,0.0,0.0,0.0,0
34.182607,-118.129079,1.90,2.00,0.00,0.38,1.90,1.90,0.51,0.39,5804,2022-06-06 23:10:55.296,2022-06-06 16:10:55.297,15,0,0,16.584,34.182606,-118.129083,0.00,0.00,0.00,-1.20,2.10,-168.10,0,1,0,98,100,-7103,3332,16584,3011.50,10,WP,1,0,0,0,0,0,0,1654557055296,4175,4159,4155,4165,0,0,27,,,,,,,0,0,0,12.00,21.00,-1681.00,0.00,0.00,-1668.00,14,19.00,0.00,3.85,0.00,0.00,0.00,0,,,100,100,0,2,0,0,0,1,0,,,,,0.0,0.0,0.0,0.0,0.0,0.0,0
34.182607,-118.129079,1.90,2.00,0.00,0.38,1.90,1.90,0.51,0.39,5855,2022-06-06 23:10:55.347,2022-06-06 16:10:55.347,15,0,0,16.584,34.182606,-118.129083,0.00,0.00,0.00,-1.20,2.20,-168.70,0,1,0,98,100,-7103,3332,16584,3011.50,10,WP,1,0,0,0,0,0,0,1654557055347,4175,4159,4155,4165,0,0,27,,,,,,,0,0,0,12.00,22.00,-1687.00,0.00,0.00,-1682.00,14,19.00,0.00,3.83,0.00,0.00,0.00,0,,,100,100,0,2,0,0,0,1,0,,,,,0.0,0.0,0.0,0.0,0.0,0.0,0
34.182607,-118.129079,1.90,2.00,0.00,0.39,1.90,1.90,0.51,0.39,6004,2022-06-06 23:10:55.497,2022-06-06 16:10:55.497,15,0,0,16.584,34.182606,-118.129083,0.00,0.00,0.00,-1.30,2.20,-168.70,0,1,0,98,100,-7103,3332,16584,3011.50,10,WP,1,0,0,0,0,0,0,1654557055496,4175,4159,4155,4165,0,0,27,,,,,,,0,0,0,13.00,22.00,-1687.00,0.00,0.00,-1690.00,14,19.00,0.00,3.90,0.00,0.00,0.00,0,,,100,100,0,2,0,0,0,1,0,,,,,0.0,0.0,0.0,0.0,0.0,0.0,0
34.182606,-118.129079,1.90,2.00,0.00,0.39,1.90,1.90,0.51,0.39,6103,2022-06-06 23:10:55.596,2022-06-06 16:10:55.596,15,0,0,16.584,34.182606,-118.129083,0.00,0.00,0.00,-1.50,2.00,-168.20,0,1,0,98,100,-7103,3332,16584,3011.50,10,WP,1,0,0,0,0,0,0,1654557055595,4175,4159,4155,4165,0,0,27,,,,,,,0,0,0,15.00,20.00,-1682.00,0.00,0.00,-1694.00,14,19.00,0.00,3.88,0.00,0.00,0.00,0,,,100,100,0,2,0,0,0,1,0,,,,,0.0,0.0,0.0,0.0,0.0,0.0,0
34.182606,-118.129079,1.90,2.00,0.00,0.40,1.90,1.90,0.51,0.40,6205,2022-06-06 23:10:55.697,2022-06-06 16:10:55.697,15,0,0,16.584,34.182606,-118.129083,0.00,0.00,0.00,-1.60,2.10,-167.80,0,1,0,98,100,-7103,3332,16584,3011.50,10,WP,1,0,0,0,0,0,0,1654557055697,4175,4159,4155,4165,0,0,27,,,,,,,0,0,0,16.00,21.00,-1678.00,0.00,0.00,-1695.00,14,19.00,0.00,3.96,0.00,0.00,0.00,0,,,100,100,0,2,0,0,0,1,0,,,,,0.0,0.0,0.0,0.0,0.0,0.0,0
34.182606,-118.129079,1.90,2.00,0.00,0.39,1.90,1.90,0.51,0.40,6305,2022-06-06 23:10:55.797,2022-06-06 16:10:55.797,15,0,0,16.584,34.182606,-118.129083,0.00,0.00,0.00,-1.90,0.90,-167.60,0,1,0,98,100,-7103,3332,16584,3011.50,10,WP,1,0,0,0,0,0,0,1654557055797,4175,4159,4155,4165,0,0,27,,,,,,,0,0,0,19.00,9.00,-1676.00,0.00,0.00,-1694.00,14,19.00,0.00,3.95,0.00,0.00,0.00,0,,,100,100,0,2,0,0,0,1,0,,,,,0.0,0.0,0.0,0.0,0.0,0.0,0
34.182607,-118.129079,1.90,2.00,0.00,0.40,1.90,1.90,0.51,0.40,6354,2022-06-06 23:10:55.847,2022-06-06 16:10:55.847,15,0,0,16.584,34.182606,-118.129083,0.00,0.00,0.00,-6.70,0.60,-167.70,0,1,0,98,100,-7103,3332,16584,3011.50,10,WP,1,0,0,0,0,0,0,1654557055846,4175,4159,4155,4165,0,0,27,,,,,,,0,0,0,67.00,6.00,-1677.00,0.00,0.00,-1694.00,14,19.00,0.00,3.95,0.00,0.00,0.00,0,,,100,100,0,2,0,0,0,1,0,,,,,0.0,0.0,0.0,0.0,0.0,0.0,0
34.182606,-118.129079,1.90,2.00,0.10,0.39,1.90,1.90,0.51,0.40,6504,2022-06-06 23:10:55.996,2022-06-06 16:10:55.996,15,0,0,16.584,34.182606,-118.129083,-0.10,0.00,0.00,-11.50,1.20,-167.80,0,1,0,98,100,-7103,3332,16584,3011.50,10,WP,1,0,0,0,0,0,0,1654557055996,4175,4159,4155,4165,0,0,27,,,,,,,0,0,0,115.00,12.00,-1678.00,0.00,0.00,-1693.00,14,19.00,1.00,3.94,-1.00,0.00,0.00,0,,,100,100,0,2,0,0,0,1,0,,,,,0.0,0.0,0.0,0.0,0.0,0.0,0
34.182606,-118.129079,1.90,2.00,0.30,0.39,1.90,1.90,0.51,0.40,6604,2022-06-06 23:10:56.096,2022-06-06 16:10:56.096,15,0,0,16.584,34.182606,-118.129083,-0.30,0.00,0.00,-15.20,1.60,-167.90,0,1,0,98,100,-7103,3332,16584,3011.50,10,WP,1,0,0,0,0,0,0,1654557056096,4175,4159,4155,4165,0,0,27,,,,,,,0,0,0,152.00,16.00,-1679.00,0.00,0.00,-1693.00,14,19.00,3.00,3.92,-3.00,0.00,0.00,0,,,100,100,0,2,0,0,0,1,0,,,,,0.0,0.0,0.0,0.0,0.0,0.0,0
34.182606,-118.129079,1.90,2.00,0.51,0.39,1.90,1.90,0.51,0.40,6655,2022-06-06 23:10:56.147,2022-06-06 16:10:56.147,15,0,0,16.584,34.182606,-118.129083,-0.50,-0.10,0.00,-17.50,1.90,-167.90,0,1,0,98,100,-7103,3332,16584,3011.50,10,WP,1,0,0,0,0,0,0,1654557056147,4175,4159,4155,4165,0,0,27,,,,,,,0,0,0,175.00,19.00,-1679.00,0.00,0.00,-1692.00,14,19.00,5.10,3.85,-5.00,-1.00,0.00,0,,,100,100,0,2,0,0,0,1,0,,,,,0.0,0.0,0.0,0.0,0.0,0.0,0
34.182605,-118.129079,1.90,2.00,0.81,0.39,1.90,1.90,0.81,0.40,6804,2022-06-06 23:10:56.297,2022-06-06 16:10:56.297,15,0,0,16.584,34.182606,-118.129083,-0.80,-0.10,0.00,-18.70,2.20,-168.10,0,1,0,98,100,-7103,3332,16584,3011.50,10,WP,1,0,0,0,0,0,0,1654557056296,4175,4159,4155,4165,0,0,27,,,,,,,0,0,0,187.00,22.00,-1681.00,0.00,0.00,-1692.00,14,19.00,8.06,3.95,-8.00,-1.00,0.00,0,,,100,100,0,2,0,0,0,1,0,,,,,0.0,0.0,0.0,0.0,0.0,0.0,0
34.182604,-118.129079,1.90,2.00,1.02,0.41,1.90,1.90,1.02,0.41,6904,2022-06-06 23:10:56.397,2022-06-06 16:10:56.397,15,0,0,16.573,34.182606,-118.129083,-1.00,-0.20,0.00,-19.10,2.20,-168.10,0,1,0,98,100,-7118,3328,16573,3011.50,10,WP,1,0,0,0,0,0,0,1654557056396,4175,4159,4155,4165,0,0,27,,,,,,,0,0,0,191.00,22.00,-1681.00,0.00,0.00,-1692.00,14,19.00,10.20,4.09,-10.00,-2.00,0.00,0,,,100,100,0,2,0,0,0,1,0,,,,,0.0,0.0,0.0,0.0,0.0,0.0,0
34.182604,-118.129079,1.90,2.00,1.33,0.42,1.90,1.90,1.33,0.42,6955,2022-06-06 23:10:56.447,2022-06-06 16:10:56.447,15,0,0,16.573,34.182606,-118.129083,-1.30,-0.30,0.00,-19.20,2.00,-167.50,0,1,0,98,100,-7118,3328,16573,3011.50,10,WP,1,0,0,0,0,0,0,1654557056447,4175,4159,4155,4165,0,0,27,,,,,,,0,0,0,192.00,20.00,-1675.00,0.00,0.00,-1692.00,14,19.00,13.34,4.24,-13.00,-3.00,0.00,0,,,100,100,0,2,0,0,0,1,0,,,,,0.0,0.0,0.0,0.0,0.0,0.0,0
34.182602,-118.129080,1.90,2.00,1.63,0.51,1.90,1.90,1.63,0.51,7055,2022-06-06 23:10:56.548,2022-06-06 16:10:56.548,15,0,0,16.573,34.182606,-118.129083,-1.60,-0.30,0.00,-18.60,2.20,-167.40,0,1,0,98,100,-7118,3328,16573,3011.50,10,WP,1,0,0,0,0,0,0,1654557056547,4175,4159,4155,4165,0,0,27,,,,,,,0,0,0,186.00,22.00,-1674.00,0.00,0.00,-1692.00,14,19.00,16.28,5.11,-16.00,-3.00,0.00,0,,,100,100,0,2,0,0,0,1,0,,,,,0.0,0.0,0.0,0.0,0.0,0.0,0
34.182601,-118.129080,1.90,2.00,1.87,0.58,1.90,1.90,1.87,0.58,7205,2022-06-06 23:10:56.697,2022-06-06 16:10:56.697,15,0,0,16.573,34.182606,-118.129083,-1.80,-0.50,0.00,-17.10,1.70,-166.20,0,1,0,98,100,-7118,3328,16573,3011.50,10,WP,1,0,0,0,0,0,0,1654557056697,4175,4159,4155,4165,0,0,27,,,,,,,0,0,0,171.00,17.00,-1662.00,0.00,0.00,-1692.00,14,19.00,18.68,5.80,-18.00,-5.00,0.00,0,,,100,100,0,2,0,0,0,1,0,,,,,0.0,0.0,0.0,0.0,0.0,0.0,0
34.182599,-118.129081,1.90,2.00,2.09,0.75,1.90,1.90,2.09,0.75,7304,2022-06-06 23:10:56.797,2022-06-06 16:10:56.797,15,0,0,16.573,34.182606,-118.129083,-2.00,-0.60,0.00,-14.80,1.00,-165.10,0,1,0,98,100,-7118,3328,16573,3011.50,10,WP,1,0,0,0,0,0,0,1654557056796,4175,4159,4155,4165,0,0,27,,,,,,,0,0,0,148.00,10.00,-1651.00,0.00,0.00,-1695.00,14,19.00,20.88,7.46,-20.00,-6.00,0.00,0,,,100,100,0,2,0,0,0,1,0,,,,,0.0,0.0,0.0,0.0,0.0,0.0,0
34.182598,-118.129083,1.90,2.00,2.31,0.92,1.90,1.90,2.31,0.92,7356,2022-06-06 23:10:56.848,2022-06-06 16:10:56.848,15,0,0,16.573,34.182606,-118.129083,-2.20,-0.70,0.00,-11.40,-0.90,-165.10,0,1,0,98,100,-7118,3328,16573,3011.50,10,WP,1,0,0,0,0,0,0,1654557056848,4175,4159,4155,4165,0,0,27,,,,,,,0,0,0,114.00,-9.00,-1651.00,0.00,0.00,-1707.00,14,19.00,23.09,9.18,-22.00,-7.00,0.00,0,,,100,100,0,2,0,0,0,1,0,,,,,0.0,0.0,0.0,0.0,0.0,0.0,0
34.182596,-118.129083,1.90,2.00,2.44,1.14,1.90,1.90,2.44,1.14,7455,2022-06-06 23:10:56.947,2022-06-06 16:10:56.947,15,0,0,16.573,34.182606,-118.129083,-2.30,-0.80,0.00,-6.70,-1.60,-165.30,0,1,0,98,100,-7118,3328,16573,3011.50,10,WP,1,0,0,0,0,0,0,1654557056947,4175,4159,4155,4165,0,0,27,,,,,,,0,0,0,67.00,-16.00,-1653.00,0.00,0.00,-1725.00,14,19.00,24.35,11.44,-23.00,-8.00,0.00,0,,,100,100,0,2,0,0,0,1,0,,,,,0.0,0.0,0.0,0.0,0.0,0.0,0
34.182594,-118.129085,1.90,2.10,2.40,1.34,1.90,1.90,2.44,1.34,7605,2022-06-06 23:10:57.097,2022-06-06 16:10:57.098,15,0,0,16.573,34.182606,-118.129083,-2.30,-0.70,0.00,-3.40,-2.40,-166.00,0,1,0,98,100,-7118,3328,16573,3011.50,10,WP,1,0,0,0,0,0,0,1654557057097,4175,4159,4155,4165,0,0,27,,,,,,,0,0,0,34.00,-24.00,-1660.00,0.00,0.00,-1741.00,14,19.00,24.04,13.43,-23.00,-7.00,0.00,0,,,100,100,0,2,0,0,0,1,0,,,,,0.0,0.0,0.0,0.0,0.0,0.0,0
34.182592,-118.129085,1.90,2.10,2.40,1.58,1.90,1.90,2.44,1.58,7706,2022-06-06 23:10:57.198,2022-06-06 16:10:57.198,15,0,0,16.573,34.182606,-118.129083,-2.30,-0.70,0.00,-0.50,-2.20,-166.30,0,1,0,98,100,-7118,3328,16573,3011.50,10,WP,1,0,0,0,0,0,0,1654557057198,4175,4159,4155,4165,0,0,27,,,,,,,0,0,0,5.00,-22.00,-1663.00,0.00,0.00,-1752.00,14,19.00,24.04,15.82,-23.00,-7.00,0.00,0,,,100,100,0,2,0,0,0,1,0,,,,,0.0,0.0,0.0,0.0,0.0,0.0,0
34.182590,-118.129087,1.90,2.00,2.38,1.81,1.90,1.90,2.44,1.81,7805,2022-06-06 23:10:57.297,2022-06-06 16:10:57.298,15,0,0,16.573,34.182606,-118.129083,-2.30,-0.60,0.00,1.20,-2.70,-166.70,0,1,0,98,100,-7118,3328,16573,3011.50,10,WP,1,0,0,0,0,0,0,1654557057297,4175,4159,4155,4165,0,0,27,,,,,,,0,0,0,-12.00,-27.00,-1667.00,0.00,0.00,-1760.00,14,19.00,23.77,18.05,-23.00,-6.00,0.00,0,,,100,100,0,2,0,0,0,1,0,,,,,0.0,0.0,0.0,0.0,0.0,0.0,0
34.182588,-118.129087,1.90,2.00,2.26,2.04,1.90,1.90,2.44,2.04,7855,2022-06-06 23:10:57.348,2022-06-06 16:10:57.348,15,0,0,16.573,34.182606,-118.129083,-2.20,-0.50,0.00,2.60,-2.50,-167.00,0,1,0,98,100,-7118,3328,16573,3011.50,10,WP,1,0,0,0,0,0,0,1654557057347,4175,4159,4155,4165,0,0,27,,,,,,,0,0,0,-26.00,-25.00,-1670.00,0.00,0.00,-1766.00,14,19.00,22.56,20.36,-22.00,-5.00,0.00,0,,,100,100,0,2,0,0,0,1,0,,,,,0.0,0.0,0.0,0.0,0.0,0.0,0
34.182586,-118.129088,1.90,2.00,2.26,2.27,1.90,1.90,2.44,2.27,8005,2022-06-06 23:10:57.497,2022-06-06 16:10:57.497,15,0,0,16.573,34.182606,-118.129083,-2.20,-0.50,0.00,3.50,-2.60,-167.30,0,1,0,98,100,-7118,3328,16573,3011.50,10,WP,1,0,0,0,0,0,0,1654557057497,4175,4159,4155,4165,0,0,27,,,,,,,0,0,0,-35.00,-26.00,-1673.00,0.00,0.00,-1770.00,14,19.00,22.56,22.71,-22.00,-5.00,0.00,0,,,100,100,0,2,0,0,0,1,0,,,,,0.0,0.0,0.0,0.0,0.0,0.0,0
34.182584,-118.129089,1.90,2.00,2.14,2.48,1.90,1.90,2.44,2.48,8104,2022-06-06 23:10:57.597,2022-06-06 16:10:57.597,15,0,0,16.573,34.182606,-118.129083,-2.10,-0.40,0.00,3.80,-1.80,-167.30,0,1,0,98,100,-7118,3328,16573,3011.50,10,WP,1,0,0,0,0,0,0,1654557057596,4175,4159,4155,4165,0,0,27,,,,,,,0,0,0,-38.00,-18.00,-1673.00,0.00,0.00,-1773.00,14,19.00,21.38,24.82,-21.00,-4.00,0.00,0,,,100,100,0,2,0,0,0,1,0,,,,,0.0,0.0,0.0,0.0,0.0,0.0,0
34.182582,-118.129089,1.90,2.00,2.02,2.69,1.90,1.90,2.44,2.69,8155,2022-06-06 23:10:57.648,2022-06-06 16:10:57.648,15,0,0,16.573,34.182606,-118.129083,-2.00,-0.30,0.00,4.00,-1.30,-167.60,0,1,0,98,100,-7118,3328,16573,3011.50,10,WP,1,0,0,0,0,0,0,1654557057647,4175,4159,4155,4165,0,0,27,,,,,,,0,0,0,-40.00,-13.00,-1676.00,0.00,0.00,-1776.00,14,19.00,20.22,26.94,-20.00,-3.00,0.00,0,,,100,100,0,2,0,0,0,1,0,,,,,0.0,0.0,0.0,0.0,0.0,0.0,0
34.182580,-118.129089,1.90,2.00,1.91,2.88,1.90,1.90,2.44,2.88,8256,2022-06-06 23:10:57.749,2022-06-06 16:10:57.749,15,0,0,16.573,34.182606,-118.129083,-1.90,-0.20,0.00,4.20,-0.40,-167.50,0,1,0,98,100,-7118,3328,16573,3011.50,10,WP,1,0,0,0,0,0,0,1654557057748,4175,4159,4155,4165,0,0,27,,,,,,,0,0,0,-42.00,-4.00,-1675.00,0.00,0.00,-1778.00,14,19.00,19.10,28.81,-19.00,-2.00,0.00,0,,,100,100,0,2,0,0,0,1,0,,,,,0.0,0.0,0.0,0.0,0.0,0.0,0
34.182579,-118.129090,1.90,2.10,1.70,3.07,1.90,1.90,2.44,3.07,8406,2022-06-06 23:10:57.898,2022-06-06 16:10:57.898,15,0,0,16.573,34.182606,-118.129083,-1.70,-0.10,0.00,4.90,0.00,-167.60,0,1,0,98,100,-7118,3328,16573,3011.50,10,WP,1,0,0,0,0,0,0,1654557057898,4175,4159,4155,4165,0,0,27,,,,,,,0,0,0,-49.00,0.00,-1676.00,0.00,0.00,-1779.00,14,19.00,17.03,30.72,-17.00,-1.00,0.00,0,,,100,100,0,2,0,0,0,1,0,,,,,0.0,0.0,0.0,0.0,0.0,0.0,0
34.182577,-118.129090,1.90,2.10,1.60,3.23,1.90,1.90,2.44,3.23,8456,2022-06-06 23:10:57.948,2022-06-06 16:10:57.948,15,0,0,16.573,34.182606,-118.129083,-1.60,0.00,0.00,5.00,0.70,-167.70,0,1,0,98,100,-7118,3328,16573,3011.50,10,WP,1,0,0,0,0,0,0,1654557057948,4175,4159,4155,4165,0,0,27,,,,,,,0,0,0,-50.00,7.00,-1677.00,0.00,0.00,-1781.00,14,19.00,16.00,32.35,-16.00,0.00,0.00,0,,,100,100,0,2,0,0,0,1,0,,,,,0.0,0.0,0.0,0.0,0.0,0.0,0
34.182576,-118.129090,1.90,2.10,1.50,3.40,1.90,1.90,2.44,3.40,8556,2022-06-06 23:10:58.048,2022-06-06 16:10:58.048,15,0,0,16.573,34.182606,-118.129083,-1.50,0.00,0.00,4.90,1.50,-167.70,0,1,0,98,100,-7118,3328,16573,3011.50,10,WP,1,0,0,0,0,0,0,1654557058048,4175,4159,4155,4165,0,0,27,,,,,,,0,0,0,-49.00,15.00,-1677.00,0.00,0.00,-1782.00,14,19.00,15.00,33.97,-15.00,0.00,0.00,0,,,100,100,0,2,0,0,0,1,0,,,,,0.0,0.0,0.0,0.0,0.0,0.0,0
34.182575,-118.129090,1.90,2.10,1.40,3.53,1.90,1.90,2.44,3.53,8657,2022-06-06 23:10:58.149,2022-06-06 16:10:58.149,15,0,0,16.573,34.182606,-118.129083,-1.40,0.00,0.00,4.00,2.00,-167.70,0,1,0,98,100,-7118,3328,16573,3011.50,10,WP,1,0,0,0,0,0,0,1654557058149,4175,4159,4155,4165,0,0,27,,,,,,,0,0,0,-40.00,20.00,-1677.00,0.00,0.00,-1783.00,14,19.00,14.00,35.34,-14.00,0.00,0.00,0,,,100,100,0,2,0,0,0,1,0,,,,,0.0,0.0,0.0,0.0,0.0,0.0,0
34.182573,-118.129090,1.90,2.10,1.20,3.67,1.90,1.90,2.44,3.67,8805,2022-06-06 23:10:58.297,2022-06-06 16:10:58.297,15,0,0,16.573,34.182606,-118.129083,-1.20,0.00,0.00,3.40,2.40,-167.70,0,1,0,98,100,-7118,3328,16573,3011.50,10,WP,1,0,0,0,0,0,0,1654557058297,4175,4159,4155,4165,0,0,27,,,,,,,0,0,0,-34.00,24.00,-1677.00,0.00,0.00,-1784.00,14,19.00,12.00,36.68,-12.00,0.00,0.00,0,,,100,100,0,2,0,0,0,1,0,,,,,0.0,0.0,0.0,0.0,0.0,0.0,0
34.182572,-118.129090,1.90,2.00,1.20,3.79,1.90,1.90,2.44,3.79,8906,2022-06-06 23:10:58.398,2022-06-06 16:10:58.398,15,0,0,16.571,34.182606,-118.129083,-1.20,0.00,0.00,2.90,2.20,-167.70,0,1,0,98,100,-6944,3324,16571,3011.50,10,WP,1,0,0,0,0,0,0,1654557058398,4175,4159,4155,4165,0,0,27,,,,,,,0,0,0,-29.00,22.00,-1677.00,0.00,0.00,-1784.00,14,19.00,12.00,37.86,-12.00,0.00,0.00,0,,,100,100,0,2,0,0,0,1,0,,,,,0.0,0.0,0.0,0.0,0.0,0.0,0
34.182571,-118.129090,1.90,2.00,1.10,3.91,1.90,1.90,2.44,3.91,9006,2022-06-06 23:10:58.498,2022-06-06 16:10:58.498,15,0,0,16.571,34.182606,-118.129083,-1.10,0.00,0.00,3.00,2.30,-167.60,0,1,0,98,100,-6944,3324,16571,3011.50,10,WP,1,0,0,0,0,0,0,1654557058498,4175,4159,4155,4165,0,0,27,,,,,,,0,0,0,-30.00,23.00,-1676.00,0.00,0.00,-1785.00,14,19.00,11.00,39.09,-11.00,0.00,0.00,0,,,100,100,0,2,0,0,0,1,0,,,,,0.0,0.0,0.0,0.0,0.0,0.0,0
34.182570,-118.129090,1.90,2.00,1.00,4.01,1.90,1.90,2.44,4.01,9056,2022-06-06 23:10:58.549,2022-06-06 16:10:58.549,15,0,0,16.571,34.182606,-118.129083,-1.00,0.00,0.00,2.70,1.90,-167.60,0,1,0,98,100,-6944,3324,16571,3011.50,10,WP,1,0,0,0,0,0,0,1654557058548,4175,4159,4155,4165,0,0,27,,,,,,,0,0,0,-27.00,19.00,-1676.00,0.00,0.00,-1785.00,14,19.00,10.00,40.12,-10.00,0.00,0.00,0,,,100,100,0,2,0,0,0,1,0,,,,,0.0,0.0,0.0,0.0,0.0,0.0,0
34.182569,-118.129090,1.90,2.00,0.90,4.12,1.90,1.90,2.44,4.12,9206,2022-06-06 23:10:58.698,2022-06-06 16:10:58.698,15,0,0,16.571,34.182606,-118.129083,-0.90,0.00,0.00,2.70,2.40,-167.50,0,1,0,98,100,-6944,3324,16571,3011.50,10,WP,1,0,0,0,0,0,0,1654557058698,4175,4159,4155,4165,0,0,27,,,,,,,0,0,0,-27.00,24.00,-1675.00,0.00,0.00,-1786.00,14,19.00,9.00,41.18,-9.00,0.00,0.00,0,,,100,100,0,2,0,0,0,1,0,,,,,0.0,0.0,0.0,0.0,0.0,0.0,0
34.182568,-118.129090,1.90,2.00,0.80,4.21,1.90,1.90,2.44,4.21,9307,2022-06-06 23:10:58.799,2022-06-06 16:10:58.799,15,0,0,16.571,34.182606,-118.129083,-0.80,0.00,0.00,2.30,2.30,-167.50,0,1,0,98,100,-6944,3324,16571,3011.50,10,WP,1,0,0,0,0,0,0,1654557058799,4175,4159,4155,4165,0,0,27,,,,,,,0,0,0,-23.00,23.00,-1675.00,0.00,0.00,-1786.00,14,19.00,8.00,42.07,-8.00,0.00,0.00,0,,,100,100,0,2,0,0,0,1,0,,,,,0.0,0.0,0.0,0.0,0.0,0.0,0
34.182568,-118.129090,1.90,2.00,0.70,4.29,1.90,1.90,2.44,4.29,9357,2022-06-06 23:10:58.849,2022-06-06 16:10:58.849,15,0,0,16.571,34.182606,-118.129083,-0.70,0.00,0.00,1.80,2.80,-167.50,0,1,0,98,100,-6944,3324,16571,3011.50,10,WP,1,0,0,0,0,0,0,1654557058849,4175,4159,4155,4165,0,0,27,,,,,,,0,0,0,-18.00,28.00,-1675.00,0.00,0.00,-1787.00,14,19.00,7.00,42.89,-7.00,0.00,0.00,0,,,100,100,0,2,0,0,0,1,0,,,,,0.0,0.0,0.0,0.0,0.0,0.0,0
34.182567,-118.129090,1.90,2.00,0.70,4.36,1.90,1.90,2.44,4.36,9507,2022-06-06 23:10:58.999,2022-06-06 16:10:58.999,15,0,0,16.571,34.182606,-118.129083,-0.70,0.00,0.00,1.60,2.20,-167.60,0,1,0,98,100,-6944,3324,16571,3011.50,10,WP,1,0,0,0,0,0,0,1654557058999,4175,4159,4155,4165,0,0,27,,,,,,,0,0,0,-16.00,22.00,-1676.00,0.00,0.00,-1787.00,14,19.00,7.00,43.65,-7.00,0.00,0.00,0,,,100,100,0,2,0,0,0,1,0,,,,,0.0,0.0,0.0,0.0,0.0,0.0,0
34.182567,-118.129090,1.90,2.00,0.60,4.42,1.90,1.90,2.44,4.42,9606,2022-06-06 23:10:59.099,2022-06-06 16:10:59.099,15,0,0,16.571,34.182606,-118.129083,-0.60,0.00,0.00,1.40,2.30,-167.70,0,1,0,98,100,-6944,3324,16571,3011.50,10,WP,1,0,0,0,0,0,0,1654557059098,4175,4159,4155,4165,0,0,27,,,,,,,0,0,0,-14.00,23.00,-1677.00,0.00,0.00,-1787.00,14,19.00,6.00,44.17,-6.00,0.00,0.00,0,,,100,100,0,2,0,0,0,1,0,,,,,0.0,0.0,0.0,0.0,0.0,0.0,0
34.182566,-118.129090,1.90,2.00,0.50,4.48,1.90,1.90,2.44,4.48,9707,2022-06-06 23:10:59.199,2022-06-06 16:10:59.199,15,0,0,16.571,34.182606,-118.129083,-0.50,0.00,0.00,1.90,1.50,-167.70,0,1,0,98,100,-6944,3324,16571,3011.50,10,WP,1,0,0,0,0,0,0,1654557059199,4175,4159,4155,4165,0,0,27,,,,,,,0,0,0,-19.00,15.00,-1677.00,0.00,0.00,-1788.00,14,19.00,5.00,44.80,-5.00,0.00,0.00,0,,,100,100,0,2,0,0,0,1,0,,,,,0.0,0.0,0.0,0.0,0.0,0.0,0
34.182565,-118.129090,1.90,2.00,0.50,4.56,1.90,1.90,2.44,4.56,9806,2022-06-06 23:10:59.298,2022-06-06 16:10:59.298,15,0,0,16.571,34.182606,-118.129083,-0.50,0.00,0.00,2.90,1.70,-167.60,0,1,0,98,100,-6944,3324,16571,3011.50,10,WP,1,0,0,0,0,0,0,1654557059298,4175,4159,4155,4165,0,0,27,,,,,,,0,0,0,-29.00,17.00,-1676.00,0.00,0.00,-1788.00,14,19.00,5.00,45.60,-5.00,0.00,0.00,0,,,100,100,0,2,0,0,0,1,0,,,,,0.0,0.0,0.0,0.0,0.0,0.0,0
34.182565,-118.129090,1.90,2.00,0.40,4.61,1.90,1.90,2.44,4.61,9856,2022-06-06 23:10:59.349,2022-06-06 16:10:59.349,15,0,0,16.571,34.182606,-118.129083,-0.40,0.00,0.00,3.00,1.80,-167.60,0,1,0,98,100,-6944,3324,16571,3011.50,10,WP,1,0,0,0,0,0,0,1654557059348,4175,4159,4155,4165,0,0,27,,,,,,,0,0,0,-30.00,18.00,-1676.00,0.00,0.00,-1788.00,14,19.00,4.00,46.12,-4.00,0.00,0.00,0,,,100,100,0,2,0,0,0,1,0,,,,,0.0,0.0,0.0,0.0,0.0,0.0,0
34.182565,-118.129090,1.90,2.00,0.30,4.63,1.90,1.90,2.44,4.63,9959,2022-06-06 23:10:59.451,2022-06-06 16:10:59.451,15,0,0,16.571,34.182606,-118.129083,-0.30,0.00,0.00,2.40,2.10,-167.60,0,1,0,98,100,-6944,3324,16571,3011.50,10,WP,1,0,0,0,0,0,0,1654557059451,4175,4159,4155,4165,0,0,27,,,,,,,0,0,0,-24.00,21.00,-1676.00,0.00,0.00,-1788.00,14,19.00,3.00,46.34,-3.00,0.00,0.00,0,,,100,100,0,2,0,0,0,1,0,,,,,0.0,0.0,0.0,0.0,0.0,0.0,0
34.182564,-118.129090,1.90,2.00,0.30,4.67,1.90,1.90,2.44,4.67,10106,2022-06-06 23:10:59.599,2022-06-06 16:10:59.599,15,0,0,16.571,34.182606,-118.129083,-0.30,0.00,0.00,3.90,1.50,-167.70,0,1,0,98,100,-6944,3324,16571,3011.50,10,WP,1,0,0,0,0,0,0,1654557059598,4175,4159,4155,4165,0,0,27,,,,,,,0,0,0,-39.00,15.00,-1677.00,0.00,0.00,-1789.00,14,19.00,3.00,46.71,-3.00,0.00,0.00,0,,,100,100,0,2,0,0,0,1,0,,,,,0.0,0.0,0.0,0.0,0.0,0.0,0
34.182564,-118.129090,1.90,2.00,0.20,4.69,1.90,1.90,2.44,4.69,10196,2022-06-06 23:10:59.689,2022-06-06 16:10:59.689,15,0,0,16.571,34.182606,-118.129083,-0.20,0.00,0.00,4.80,0.90,-167.60,0,1,0,98,100,-6944,3324,16571,3011.50,10,WP,1,0,0,0,0,0,0,1654557059688,4175,4159,4155,4165,0,0,27,,,,,,,0,0,0,-48.00,9.00,-1676.00,0.00,0.00,-1789.00,14,19.00,2.00,46.88,-2.00,0.00,0.00,0,,,100,100,0,2,0,0,0,1,0,,,,,0.0,0.0,0.0,0.0,0.0,0.0,0
34.182564,-118.129090,1.90,2.00,0.10,4.70,1.90,1.90,2.44,4.70,10306,2022-06-06 23:10:59.799,2022-06-06 16:10:59.799,15,0,0,16.571,34.182606,-118.129083,-0.10,0.00,0.00,2.70,0.70,-167.50,0,1,0,98,100,-6944,3324,16571,3011.50,10,WP,1,0,0,0,0,0,0,1654557059798,4175,4159,4155,4165,0,0,27,,,,,,,0,0,0,-27.00,7.00,-1675.00,0.00,0.00,-1789.00,14,19.00,1.00,47.05,-1.00,0.00,0.00,0,,,100,100,0,2,0,0,0,1,0,,,,,0.0,0.0,0.0,0.0,0.0,0.0,0
34.182564,-118.129090,1.90,2.10,0.00,4.71,1.90,1.90,2.44,4.71,10407,2022-06-06 23:10:59.900,2022-06-06 16:10:59.900,15,0,0,16.571,34.182606,-118.129083,0.00,0.00,0.00,1.00,0.30,-166.00,0,1,0,98,100,-6944,3324,16571,3011.50,10,WP,1,0,0,0,0,0,0,1654557059899,4175,4159,4155,4165,0,0,27,,,,,,,0,0,0,-10.00,3.00,-1660.00,0.00,0.00,-1789.00,14,19.00,0.00,47.13,0.00,0.00,0.00,0,,,100,100,0,2,0,0,0,1,0,,,,,0.0,0.0,0.0,0.0,0.0,0.0,0
34.182564,-118.129090,1.90,2.10,0.00,4.72,1.90,1.90,2.44,4.72,10459,2022-06-06 23:10:59.952,2022-06-06 16:10:59.952,15,0,0,16.571,34.182606,-118.129083,0.00,0.00,0.00,0.10,0.40,-158.60,0,1,0,98,100,-6944,3324,16571,3011.50,10,WP,1,0,0,0,0,0,0,1654557059951,4175,4159,4155,4165,0,0,27,,,,,,,0,0,0,-1.00,4.00,-1586.00,0.00,0.00,-1789.00,14,19.00,0.00,47.18,0.00,0.00,0.00,0,,,100,100,0,2,0,0,0,1,0,,,,,0.0,0.0,0.0,0.0,0.0,0.0,0
34.182564,-118.129090,1.90,2.00,0.00,4.70,1.90,1.90,2.44,4.72,10560,2022-06-06 23:11:00.053,2022-06-06 16:11:00.053,15,0,0,16.571,34.182606,-118.129083,0.00,0.00,0.00,-0.30,0.60,-151.10,0,1,0,98,100,-6944,3324,16571,3011.50,10,WP,1,0,0,0,0,0,0,1654557060052,4175,4159,4155,4165,0,0,27,,,,,,,0,0,0,3.00,6.00,-1511.00,0.00,0.00,-1762.00,14,19.00,0.00,46.99,0.00,0.00,0.00,0,,,100,100,0,2,0,0,0,1,0,,,,,0.0,0.0,0.0,0.0,0.0,0.0,0
34.182564,-118.129090,1.90,2.00,0.00,4.70,1.90,1.90,2.44,4.72,10710,2022-06-06 23:11:00.202,2022-06-06 16:11:00.202,15,0,0,16.571,34.182606,-118.129083,0.00,0.00,0.00,-0.80,0.50,-143.70,0,1,0,98,100,-6944,3324,16571,3011.50,10,WP,1,0,0,0,0,0,0,1654557060202,4175,4159,4155,4165,0,0,27,,,,,,,0,0,0,8.00,5.00,-1437.00,0.00,0.00,-1686.00,14,19.00,0.00,46.96,0.00,0.00,0.00,0,,,100,100,0,2,0,0,0,1,0,,,,,0.0,0.0,0.0,0.0,0.0,0.0,0
34.182564,-118.129090,1.90,2.00,0.00,4.69,1.90,1.90,2.44,4.72,10807,2022-06-06 23:11:00.300,2022-06-06 16:11:00.300,15,0,0,16.571,34.182606,-118.129083,0.00,0.00,0.00,-0.80,0.10,-136.20,0,1,0,98,100,-6944,3324,16571,3011.50,10,WP,1,0,0,0,0,0,0,1654557060299,4175,4159,4155,4165,0,0,27,,,,,,,0,0,0,8.00,1.00,-1362.00,0.00,0.00,-1602.00,14,19.00,0.00,46.92,0.00,0.00,0.00,0,,,100,100,0,2,0,0,0,1,0,,,,,0.0,0.0,0.0,0.0,0.0,0.0,0
34.182564,-118.129090,1.90,2.00,0.14,4.68,1.90,1.90,2.44,4.72,10857,2022-06-06 23:11:00.349,2022-06-06 16:11:00.349,14,0,0,16.571,34.182606,-118.129083,0.10,-0.10,0.00,-0.80,-0.80,-128.90,0,1,0,98,100,-6944,3324,16571,3011.50,10,WP,1,0,0,0,0,0,0,1654557060349,4175,4159,4155,4165,0,0,27,,,,,,,0,0,0,8.00,-8.00,-1289.00,0.00,0.00,-1520.00,14,19.00,1.41,46.84,1.00,-1.00,0.00,0,,,100,100,0,2,0,0,0,1,0,,,,,0.0,0.0,0.0,0.0,0.0,0.0,0
34.182564,-118.129090,1.90,2.00,0.14,4.66,1.90,1.90,2.44,4.72,11007,2022-06-06 23:11:00.499,2022-06-06 16:11:00.499,14,0,0,16.532,34.182606,-118.129083,0.10,-0.10,0.00,-0.70,-1.40,-121.70,0,1,0,98,100,-7104,3320,16532,3021.50,10,WP,1,0,0,0,0,0,0,1654557060499,4175,4159,4155,4165,0,0,27,,,,,,,0,0,0,7.00,-14.00,-1217.00,0.00,0.00,-1442.00,14,19.00,1.41,46.58,1.00,-1.00,0.00,0,,,100,100,0,2,0,0,0,1,0,,,,,0.0,0.0,0.0,0.0,0.0,0.0,0
34.182564,-118.129090,1.90,2.00,0.14,4.65,1.90,1.90,2.44,4.72,11109,2022-06-06 23:11:00.601,2022-06-06 16:11:00.601,14,0,0,16.532,34.182606,-118.129083,0.10,-0.10,0.00,-0.70,-1.70,-114.30,0,1,0,98,100,-7104,3320,16532,3021.50,10,WP,1,0,0,0,0,0,0,1654557060601,4175,4159,4155,4165,0,0,27,,,,,,,0,0,0,7.00,-17.00,-1143.00,0.00,0.00,-1366.00,14,19.00,1.41,46.47,1.00,-1.00,0.00,0,,,100,100,0,2,0,0,0,1,0,,,,,0.0,0.0,0.0,0.0,0.0,0.0,0
34.182564,-118.129090,1.90,2.00,0.14,4.64,1.90,1.90,2.44,4.72,11209,2022-06-06 23:11:00.702,2022-06-06 16:11:00.702,14,0,0,16.532,34.182606,-118.129083,0.10,-0.10,0.00,-0.10,-2.20,-106.90,0,1,0,98,100,-7104,3320,16532,3021.50,10,WP,1,0,0,0,0,0,0,1654557060701,4175,4159,4155,4165,0,0,27,,,,,,,0,0,0,1.00,-22.00,-1069.00,0.00,0.00,-1290.00,14,19.00,1.41,46.45,1.00,-1.00,0.00,0,,,100,100,0,2,0,0,0,1,0,,,,,0.0,0.0,0.0,0.0,0.0,0.0,0
34.182565,-118.129090,1.90,2.00,0.10,4.63,1.90,1.90,2.44,4.72,11309,2022-06-06 23:11:00.801,2022-06-06 16:11:00.801,15,0,0,16.532,34.182606,-118.129083,0.10,0.00,0.00,0.10,-2.60,-99.60,0,1,0,98,100,-7104,3320,16532,3021.50,10,WP,1,0,0,0,0,0,0,1654557060801,4175,4159,4155,4165,0,0,27,,,,,,,0,0,0,-1.00,-26.00,-996.00,0.00,0.00,-1215.00,14,19.00,1.00,46.34,1.00,0.00,0.00,0,,,100,100,0,2,0,0,0,1,0,,,,,0.0,0.0,0.0,0.0,0.0,0.0,0
34.182565,-118.129090,1.90,2.00,0.10,4.59,1.90,1.90,2.44,4.72,11407,2022-06-06 23:11:00.899,2022-06-06 16:11:00.899,15,0,0,16.532,34.182606,-118.129083,0.10,0.00,0.00,0.20,-2.70,-92.20,0,1,0,98,100,-7104,3320,16532,3021.50,10,WP,1,0,0,0,0,0,0,1654557060899,4175,4159,4155,4165,0,0,27,,,,,,,0,0,0,-2.00,-27.00,-922.00,0.00,0.00,-1141.00,14,19.00,1.00,45.94,1.00,0.00,0.00,0,,,100,100,0,2,0,0,0,1,0,,,,,0.0,0.0,0.0,0.0,0.0,0.0,0
34.182565,-118.129090,1.90,2.00,0.10,4.58,1.90,1.90,2.44,4.72,11511,2022-06-06 23:11:01.003,2022-06-06 16:11:01.003,15,0,0,16.532,34.182606,-118.129083,0.10,0.00,0.00,0.50,-3.10,-84.80,0,1,0,98,100,-7104,3320,16532,3021.50,10,WP,1,0,0,0,0,0,0,1654557061003,4133,4121,4114,4130,0,0,27,,,,,,,0,0,0,-5.00,-31.00,-848.00,0.00,0.00,-1066.00,14,19.00,1.00,45.81,1.00,0.00,0.00,0,,,100,100,0,2,0,0,0,1,0,,,,,0.0,0.0,0.0,0.0,0.0,0.0,0
34.182565,-118.129090,1.90,2.00,0.10,4.56,1.90,1.90,2.44,4.72,11609,2022-06-06 23:11:01.102,2022-06-06 16:11:01.102,15,0,0,16.532,34.182606,-118.129083,0.10,0.00,0.00,0.60,-3.40,-77.40,0,1,0,98,100,-7104,3320,16532,3021.50,10,WP,1,0,0,0,0,0,0,1654557061101,4133,4121,4114,4130,0,0,27,,,,,,,0,0,0,-6.00,-34.00,-774.00,0.00,0.00,-990.00,14,19.00,1.00,45.55,1.00,0.00,0.00,0,,,100,100,0,2,0,0,0,1,0,,,,,0.0,0.0,0.0,0.0,0.0,0.0,0
34.182565,-118.129090,1.90,2.00,0.10,4.54,1.90,1.90,2.44,4.72,11709,2022-06-06 23:11:01.201,2022-06-06 16:11:01.201,15,0,0,16.532,34.182606,-118.129083,0.10,0.00,0.00,1.00,-3.10,-70.10,0,1,0,98,100,-7104,3320,16532,3021.50,10,WP,1,0,0,0,0,0,0,1654557061201,4133,4121,4114,4130,0,0,27,,,,,,,0,0,0,-10.00,-31.00,-701.00,0.00,0.00,-916.00,14,19.00,1.00,45.42,1.00,0.00,0.00,0,,,100,100,0,2,0,0,0,1,0,,,,,0.0,0.0,0.0,0.0,0.0,0.0,0
34.182566,-118.129090,1.90,1.90,0.10,4.49,1.90,1.90,2.44,4.72,11808,2022-06-06 23:11:01.301,2022-06-06 16:11:01.301,15,0,0,16.532,34.182606,-118.129083,0.10,0.00,0.00,1.40,-2.80,-62.80,0,1,0,98,100,-7104,3320,16532,3021.50,10,WP,1,0,0,0,0,0,0,1654557061300,4133,4121,4114,4130,0,0,27,,,,,,,0,0,0,-14.00,-28.00,-628.00,0.00,0.00,-842.00,14,19.00,1.00,44.88,1.00,0.00,0.00,0,,,100,100,0,2,0,0,0,1,0,,,,,0.0,0.0,0.0,0.0,0.0,0.0,0
34.182566,-118.129090,1.90,1.90,0.00,4.47,1.90,1.90,2.44,4.72,11857,2022-06-06 23:11:01.350,2022-06-06 16:11:01.350,15,0,0,16.532,34.182606,-118.129083,0.00,0.00,0.00,2.00,-2.60,-55.50,0,1,0,98,100,-7104,3320,16532,3021.50,10,WP,1,0,0,0,0,0,0,1654557061349,4133,4121,4114,4130,0,0,27,,,,,,,0,0,0,-20.00,-26.00,-555.00,0.00,0.00,-769.00,14,19.00,0.00,44.71,0.00,0.00,0.00,0,,,100,100,0,2,0,0,0,1,0,,,,,0.0,0.0,0.0,0.0,0.0,0.0,0
34.182566,-118.129090,1.90,1.90,0.00,4.46,1.90,1.90,2.44,4.72,12009,2022-06-06 23:11:01.501,2022-06-06 16:11:01.501,15,0,0,16.532,34.182606,-118.129083,0.00,0.00,0.00,2.40,-2.60,-48.00,0,1,0,98,100,-7104,3320,16532,3021.50,10,WP,1,0,0,0,0,0,0,1654557061501,4133,4121,4114,4130,0,0,27,,,,,,,0,0,0,-24.00,-26.00,-480.00,0.00,0.00,-695.00,14,19.00,0.00,44.59,0.00,0.00,0.00,0,,,100,100,0,2,0,0,0,1,0,,,,,0.0,0.0,0.0,0.0,0.0,0.0,0
34.182566,-118.129090,1.90,1.90,0.00,4.44,1.90,1.90,2.44,4.72,12059,2022-06-06 23:11:01.552,2022-06-06 16:11:01.552,15,0,0,16.532,34.182606,-118.129083,0.00,0.00,0.00,2.50,-2.70,-40.40,0,1,0,98,100,-7104,3320,16532,3021.50,10,WP,1,0,0,0,0,0,0,1654557061551,4133,4121,4114,4130,0,0,27,,,,,,,0,0,0,-25.00,-27.00,-404.00,0.00,0.00,-619.00,14,19.00,0.00,44.44,0.00,0.00,0.00,0,,,100,100,0,2,0,0,0,1,0,,,,,0.0,0.0,0.0,0.0,0.0,0.0,0
34.182566,-118.129090,1.90,1.90,0.00,4.44,1.90,1.90,2.44,4.72,12209,2022-06-06 23:11:01.702,2022-06-06 16:11:01.702,15,0,0,16.532,34.182606,-118.129083,0.00,0.00,0.00,2.90,-2.40,-32.90,0,1,0,98,100,-7104,3320,16532,3021.50,10,WP,1,0,0,0,0,0,0,1654557061701,4133,4121,4114,4130,0,0,27,,,,,,,0,0,0,-29.00,-24.00,-329.00,0.00,0.00,-543.00,14,19.00,0.00,44.43,0.00,0.00,0.00,0,,,100,100,0,2,0,0,0,1,0,,,,,0.0,0.0,0.0,0.0,0.0,0.0,0
34.182566,-118.129090,1.90,1.90,0.00,4.43,1.90,1.90,2.44,4.72,12309,2022-06-06 23:11:01.802,2022-06-06 16:11:01.802,15,0,0,16.532,34.182606,-118.129083,0.00,0.00,0.00,3.20,-1.80,-26.50,0,1,0,98,100,-7104,3320,16532,3021.50,10,WP,1,0,0,0,0,0,0,1654557061801,4133,4121,4114,4130,0,0,27,,,,,,,0,0,0,-32.00,-18.00,-265.00,0.00,0.00,-468.00,14,19.00,0.00,44.30,0.00,0.00,0.00,0,,,100,100,0,2,0,0,0,1,0,,,,,0.0,0.0,0.0,0.0,0.0,0.0,0
34.182566,-118.129090,1.90,2.00,0.00,4.42,1.90,1.90,2.44,4.72,12359,2022-06-06 23:11:01.852,2022-06-06 16:11:01.852,15,0,0,16.532,34.182606,-118.129083,0.00,0.00,0.00,3.60,-1.50,-21.20,0,1,0,98,100,-7104,3320,16532,3021.50,10,WP,1,0,0,0,0,0,0,1654557061851,4133,4121,4114,4130,0,0,27,,,,,,,0,0,0,-36.00,-15.00,-212.00,0.00,0.00,-402.00,14,19.00,0.00,44.23,0.00,0.00,0.00,0,,,100,100,0,2,0,0,0,1,0,,,,,0.0,0.0,0.0,0.0,0.0,0.0,0
34.182566,-118.129090,1.90,1.90,0.00,4.41,1.90,1.90,2.44,4.72,12509,2022-06-06 23:11:02.001,2022-06-06 16:11:02.001,15,0,0,16.532,34.182606,-118.129083,0.00,0.00,0.00,3.70,-1.30,-17.00,0,1,0,98,100,-7104,3320,16532,3021.50,10,WP,1,0,0,0,0,0,0,1654557062001,4133,4121,4114,4130,0,0,27,,,,,,,0,0,0,-37.00,-13.00,-170.00,0.00,0.00,-349.00,14,19.00,0.00,44.12,0.00,0.00,0.00,0,,,100,100,0,2,0,0,0,1,0,,,,,0.0,0.0,0.0,0.0,0.0,0.0,0
34.182566,-118.129089,1.90,1.90,0.00,4.44,1.90,1.90,2.44,4.72,12609,2022-06-06 23:11:02.101,2022-06-06 16:11:02.101,15,0,0,16.532,34.182606,-118.129083,0.00,0.00,0.00,3.50,-1.60,-13.70,0,1,0,98,100,-7104,3320,16532,3021.50,10,WP,1,0,0,0,0,0,0,1654557062101,4133,4121,4114,4130,0,0,27,,,,,,,0,0,0,-35.00,-16.00,-137.00,0.00,0.00,-307.00,14,19.00,0.00,44.36,0.00,0.00,0.00,0,,,100,100,0,2,0,0,0,1,0,,,,,0.0,0.0,0.0,0.0,0.0,0.0,0
34.182566,-118.129089,1.90,1.90,0.00,4.43,1.90,1.90,2.44,4.72,12660,2022-06-06 23:11:02.153,2022-06-06 16:11:02.153,15,0,0,16.532,34.182606,-118.129083,0.00,0.00,0.00,3.30,-1.80,-11.10,0,1,0,98,100,-7104,3320,16532,3021.50,10,WP,1,0,0,0,0,0,0,1654557062152,4133,4121,4114,4130,0,0,27,,,,,,,0,0,0,-33.00,-18.00,-111.00,0.00,0.00,-271.00,14,19.00,0.00,44.31,0.00,0.00,0.00,0,,,100,100,0,2,0,0,0,1,0,,,,,0.0,0.0,0.0,0.0,0.0,0.0,0
34.182566,-118.129089,1.90,1.90,0.00,4.43,1.90,1.90,2.44,4.72,12794,2022-06-06 23:11:02.286,2022-06-06 16:11:02.286,15,0,0,16.532,34.182606,-118.129083,0.00,0.00,0.00,3.30,-1.90,-8.90,0,1,0,98,100,-7104,3320,16532,3021.50,10,WP,1,0,0,0,0,0,0,1654557062286,4133,4121,4114,4130,0,0,27,,,,,,,0,0,0,-33.00,-19.00,-89.00,0.00,0.00,-244.00,14,19.00,0.00,44.26,0.00,0.00,0.00,0,,,100,100,0,2,0,0,0,1,0,,,,,0.0,0.0,0.0,0.0,0.0,0.0,0
34.182566,-118.129089,1.90,2.00,0.00,4.42,1.90,1.90,2.44,4.72,12909,2022-06-06 23:11:02.402,2022-06-06 16:11:02.402,15,0,0,16.479,34.182606,-118.129083,0.00,0.00,0.00,3.40,-2.00,-7.10,0,1,0,98,100,-7411,3316,16479,3021.50,10,WP,1,0,0,0,0,0,0,1654557062401,4133,4121,4114,4130,0,0,27,,,,,,,0,0,0,-34.00,-20.00,-71.00,0.00,0.00,-222.00,14,19.00,0.00,44.23,0.00,0.00,0.00,0,,,100,100,0,2,0,0,0,1,0,,,,,0.0,0.0,0.0,0.0,0.0,0.0,0
34.182566,-118.129089,1.90,1.90,0.00,4.44,1.90,1.90,2.44,4.72,13010,2022-06-06 23:11:02.502,2022-06-06 16:11:02.502,15,0,0,16.479,34.182606,-118.129083,0.00,0.00,0.00,3.20,-1.90,-5.70,0,1,0,98,100,-7411,3316,16479,3021.50,10,WP,1,0,0,0,0,0,0,1654557062502,4133,4121,4114,4130,0,0,27,,,,,,,0,0,0,-32.00,-19.00,-57.00,0.00,0.00,-204.00,14,19.00,0.00,44.44,0.00,0.00,0.00,0,,,100,100,0,2,0,0,0,1,0,,,,,0.0,0.0,0.0,0.0,0.0,0.0,0
34.182566,-118.129089,1.90,1.90,0.00,4.45,1.90,1.90,2.44,4.72,13110,2022-06-06 23:11:02.602,2022-06-06 16:11:02.602,15,0,0,16.479,34.182606,-118.129083,0.00,0.00,0.00,3.00,-1.50,-4.80,0,1,0,98,100,-7411,3316,16479,3021.50,10,WP,1,0,0,0,0,0,0,1654557062602,4133,4121,4114,4130,0,0,27,,,,,,,0,0,0,-30.00,-15.00,-48.00,0.00,0.00,-189.00,14,19.00,0.00,44.45,0.00,0.00,0.00,0,,,100,100,0,2,0,0,0,1,0,,,,,0.0,0.0,0.0,0.0,0.0,0.0,0
34.182566,-118.129089,1.90,1.90,0.00,4.47,1.90,1.90,2.44,4.72,13210,2022-06-06 23:11:02.703,2022-06-06 16:11:02.703,15,0,0,16.479,34.182606,-118.129083,0.00,0.00,0.00,0.00,-1.50,-4.70,0,1,0,98,100,-7411,3316,16479,3021.50,10,WP,1,0,0,0,0,0,0,1654557062702,4133,4121,4114,4130,0,0,27,,,,,,,0,0,0,-0.00,-15.00,-47.00,0.00,0.00,-177.00,14,19.00,0.00,44.71,0.00,0.00,0.00,0,,,100,100,0,2,0,0,0,1,0,,,,,0.0,0.0,0.0,0.0,0.0,0.0,0
34.182566,-118.129089,1.90,1.90,0.00,4.47,1.90,1.90,2.44,4.72,13310,2022-06-06 23:11:02.802,2022-06-06 16:11:02.802,15,0,0,16.479,34.182606,-118.129083,0.00,0.00,0.00,0.40,-1.60,-4.70,0,1,0,98,100,-7411,3316,16479,3021.50,10,WP,1,0,0,0,0,0,0,1654557062802,4133,4121,4114,4130,0,0,27,,,,,,,0,0,0,-4.00,-16.00,-47.00,0.00,0.00,-172.00,14,19.00,0.00,44.71,0.00,0.00,0.00,0,,,100,100,0,2,0,0,0,1,0,,,,,0.0,0.0,0.0,0.0,0.0,0.0,0
34.182566,-118.129089,1.90,1.90,0.00,4.48,1.90,1.90,2.44,4.72,13410,2022-06-06 23:11:02.902,2022-06-06 16:11:02.902,15,0,0,16.479,34.182606,-118.129083,0.00,0.00,0.00,1.40,-1.70,-4.80,0,1,0,98,100,-7411,3316,16479,3021.50,10,WP,1,0,0,0,0,0,0,1654557062902,4133,4121,4114,4130,0,0,27,,,,,,,0,0,0,-14.00,-17.00,-48.00,0.00,0.00,-169.00,14,19.00,0.00,44.79,0.00,0.00,0.00,0,,,100,100,0,2,0,0,0,1,0,,,,,0.0,0.0,0.0,0.0,0.0,0.0,0
34.182566,-118.129088,1.90,1.90,0.00,4.48,1.90,1.90,2.44,4.72,13509,2022-06-06 23:11:03.001,2022-06-06 16:11:03.001,15,0,0,16.479,34.182606,-118.129083,0.00,0.00,0.00,1.90,-1.80,-4.80,0,1,0,98,100,-7411,3316,16479,3021.50,10,WP,1,0,0,0,0,0,0,1654557063001,4133,4121,4114,4130,0,0,27,,,,,,,0,0,0,-19.00,-18.00,-48.00,0.00,0.00,-168.00,14,19.00,0.00,44.76,0.00,0.00,0.00,0,,,100,100,0,2,0,0,0,1,0,,,,,0.0,0.0,0.0,0.0,0.0,0.0,0
