latitude,longitude,altitude(m),ultrasonicHeight(m),speed(mps),distance(m),max_altitude(m),max_ascent(m),max_speed(mps),max_distance(m),time(millisecond),datetime(utc),datetime(local),satellites,pressure(Pa),temperature(F),voltage(v),home_latitude,home_longitude,velocityX(mps),velocityY(mps),velocityZ(mps),pitch(deg),roll(deg),yaw(deg),powerlevel,isflying,istakingphoto,remainPowerPercent,remainLifePercent,currentCurrent,currentElectricity,currentVoltage,batteryTemperature,dischargeCount,flightmode,isMotorsOn,isTakingVideo,Rc_elevator,Rc_aileron,Rc_throttle,Rc_rudder,Rc_gyro,timestamp,Battery_Cell1,Battery_Cell2,Battery_Cell3,Battery_Cell4,Battery_Cell5,Battery_Cell6,Dronetype,AppVersion,Planename,FlyControllerSerialNumber,RemoteSerialNumber,BatterySerialNumber,CENTER_BATTERY.productDate,CENTER_BATTERY.serialNo,CENTER_BATTERY.fullCapacity,CENTER_BATTERY.productDateRaw,pitchRaw,rollRaw,yawRaw,gimbalPitchRaw,gimbalRollRaw,gimbalYawRaw,flyState,altitudeRaw,speedRaw,distanceRaw,velocityXRaw,velocityYRaw,velocityZRaw,data_reuse,App_Tip,App_Warning,downlinkSignalQuality,uplinkSignalQuality,transmissionChannel,rcModeSwitch,rcHome,rcPause,rcTransform,rcJoystickMode,appMode,FlyControllerSerialNumber_legacy,RemoteSerialNumber_legacy,BatterySerialNumber_legacy,Battery2SerialNumber,frontAvoidDist,backAvoidDist,rightAvoidDist,leftAvoidDist,upAvoidDist,downAvoidDist,isBrakingToAvoid
33.737628,-118.104800,0.40,0.40,0.46,0.21,0.40,0.40,0.46,0.21,1,2022-06-09 00:15:38.708,2022-06-08 17:15:38.708,16,0,0,16.373,33.737627,-118.104802,0.10,0.20,-0.40,-5.30,0.00,-121.20,0,1,0,80,100,-3349,2797,16373,3071.50,11,TakeOff,1,0,0,0,0,0,0,1654733738707,4100,4099,4095,4079,0,0,27,Litchi_iOS_2.14.0,Brian-MAVIC 2,163DFCK001S13F,1DUCFB800104PR,0P2AFBV5340045,,0,3535,0,53.00,0.00,-1212.00,-40.00,0.00,-1338.00,11,4.00,4.58,2.07,1.00,2.00,-4.00,0,,,100,100,0,1,0,0,0,0,6,(null),(null),(null),(null),0.0,0.0,0.0,0.0,0.0,0.0,0
33.737629,-118.104800,0.40,0.50,0.46,0.24,0.40,0.40,0.46,0.24,99,2022-06-09 00:15:38.806,2022-06-08 17:15:38.806,15,0,0,16.223,33.737627,-118.104802,0.10,0.20,-0.40,-5.50,0.40,-121.20,0,1,0,80,100,-7099,2794,16223,3071.50,11,TakeOff,1,0,0,0,0,0,0,1654733738805,4100,4099,4095,4079,0,0,27,,,,,,,0,0,0,55.00,4.00,-1212.00,-44.00,0.00,-1338.00,11,4.00,4.58,2.37,1.00,2.00,-4.00,0,,,100,100,0,1,0,0,0,0,6,,,,,0.0,0.0,0.0,0.0,0.0,0.0,0
33.737629,-118.104800,0.40,0.70,0.46,0.26,0.40,0.40,0.46,0.26,199,2022-06-09 00:15:38.906,2022-06-08 17:15:38.906,15,0,0,16.223,33.737627,-118.104802,0.10,0.20,-0.40,-5.10,0.00,-121.20,0,1,0,80,100,-7099,2794,16223,3071.50,11,TakeOff,1,0,0,0,0,0,0,1654733738905,4100,4099,4095,4079,0,0,27,,,,,,,0,0,0,51.00,0.00,-1212.00,-42.00,0.00,-1338.00,11,4.00,4.58,2.64,1.00,2.00,-4.00,0,,,100,100,0,1,0,0,0,0,6,,,,,0.0,0.0,0.0,0.0,0.0,0.0,0
33.737629,-118.104799,0.50,0.80,0.55,0.30,0.50,0.50,0.55,0.30,300,2022-06-09 00:15:39.007,2022-06-08 17:15:39.007,15,0,0,16.223,33.737627,-118.104802,0.10,0.20,-0.50,-4.90,0.30,-121.10,0,1,0,80,100,-7099,2794,16223,3071.50,11,TakeOff,1,0,0,0,0,0,0,1654733739006,4100,4099,4095,4079,0,0,27,,,,,,,0,0,0,49.00,3.00,-1211.00,-40.00,0.00,-1338.00,11,5.00,5.48,2.96,1.00,2.00,-5.00,0,,,100,100,0,1,0,0,0,0,6,,,,,0.0,0.0,0.0,0.0,0.0,0.0,0
33.737629,-118.104799,0.60,0.90,0.55,0.32,0.60,0.60,0.55,0.32,400,2022-06-09 00:15:39.107,2022-06-08 17:15:39.107,15,0,0,16.223,33.737627,-118.104802,0.10,0.20,-0.50,-4.80,0.40,-121.10,0,1,0,80,100,-7099,2794,16223,3071.50,11,TakeOff,1,0,0,0,0,0,0,1654733739106,4100,4099,4095,4079,0,0,27,,,,,,,0,0,0,48.00,4.00,-1211.00,-39.00,0.00,-1338.00,11,6.00,5.48,3.22,1.00,2.00,-5.00,0,,,100,100,0,1,0,0,0,0,6,,,,,0.0,0.0,0.0,0.0,0.0,0.0,0
33.737629,-118.104799,0.60,1.00,0.55,0.37,0.60,0.60,0.55,0.37,501,2022-06-09 00:15:39.207,2022-06-08 17:15:39.207,16,0,0,16.223,33.737627,-118.104802,0.10,0.20,-0.50,-4.90,0.40,-121.10,0,1,0,80,100,-7099,2794,16223,3071.50,11,TakeOff,1,0,0,0,0,0,0,1654733739207,4100,4099,4095,4079,0,0,27,,,,,,,0,0,0,49.00,4.00,-1211.00,-39.00,0.00,-1338.00,11,6.00,5.48,3.66,1.00,2.00,-5.00,0,,,100,100,0,1,0,0,0,0,6,,,,,0.0,0.0,0.0,0.0,0.0,0.0,0
33.737629,-118.104799,0.70,1.00,0.55,0.39,0.70,0.70,0.55,0.39,601,2022-06-09 00:15:39.307,2022-06-08 17:15:39.307,16,0,0,16.223,33.737627,-118.104802,0.10,0.20,-0.50,-5.10,0.10,-121.10,0,1,0,80,100,-7099,2794,16223,3071.50,11,TakeOff,1,0,0,0,0,0,0,1654733739307,4100,4099,4095,4079,0,0,27,,,,,,,0,0,0,51.00,1.00,-1211.00,-41.00,0.00,-1338.00,11,7.00,5.48,3.93,1.00,2.00,-5.00,0,,,100,100,0,1,0,0,0,0,6,,,,,0.0,0.0,0.0,0.0,0.0,0.0,0
33.737630,-118.104798,0.70,1.10,0.52,0.40,0.70,0.70,0.55,0.40,701,2022-06-09 00:15:39.407,2022-06-08 17:15:39.407,16,0,0,16.223,33.737627,-118.104802,0.10,0.10,-0.50,-5.30,0.00,-121.20,0,1,0,80,100,-7099,2794,16223,3071.50,11,Sport,1,0,0,0,0,0,0,1654733739407,4100,4099,4095,4079,0,0,27,,,,,,,0,0,0,53.00,0.00,-1212.00,-42.00,0.00,-1338.00,31,7.00,5.20,4.03,1.00,1.00,-5.00,0,,,100,100,0,1,0,0,0,0,6,,,,,0.0,0.0,0.0,0.0,0.0,0.0,0
33.737630,-118.104798,0.80,1.10,0.42,0.43,0.80,0.80,0.55,0.43,801,2022-06-09 00:15:39.507,2022-06-08 17:15:39.507,16,0,0,16.223,33.737627,-118.104802,0.10,0.10,-0.40,-5.50,-0.40,-121.10,0,1,0,80,100,-7099,2794,16223,3071.50,11,Sport,1,0,0,0,28,0,0,1654733739507,4100,4099,4095,4079,0,0,27,,,,,,,0,0,0,55.00,-4.00,-1211.00,-44.00,0.00,-1338.00,31,8.00,4.24,4.29,1.00,1.00,-4.00,0,,,100,100,0,1,0,0,0,0,6,,,,,0.0,0.0,0.0,0.0,0.0,0.0,0
33.737630,-118.104798,0.80,1.20,0.33,0.43,0.80,0.80,0.55,0.43,902,2022-06-09 00:15:39.608,2022-06-08 17:15:39.608,16,0,0,16.223,33.737627,-118.104802,0.10,0.10,-0.30,-5.50,-0.40,-121.10,0,1,0,80,100,-7099,2794,16223,3071.50,11,Sport,1,0,0,0,32,0,0,1654733739608,4100,4099,4095,4079,0,0,27,,,,,,,0,0,0,55.00,-4.00,-1211.00,-45.00,0.00,-1338.00,31,8.00,3.32,4.33,1.00,1.00,-3.00,0,,,100,100,0,1,0,0,0,0,6,,,,,0.0,0.0,0.0,0.0,0.0,0.0,0
33.737630,-118.104798,0.80,1.20,0.17,0.46,0.80,0.80,0.55,0.46,1001,2022-06-09 00:15:39.708,2022-06-08 17:15:39.708,16,0,0,16.223,33.737627,-118.104802,0.10,0.10,-0.10,-5.30,-0.30,-121.20,0,1,0,80,100,-7099,2794,16223,3071.50,11,Sport,1,0,0,0,32,0,0,1654733739707,4100,4099,4095,4079,0,0,27,,,,,,,0,0,0,53.00,-3.00,-1212.00,-44.00,0.00,-1338.00,31,8.00,1.73,4.55,1.00,1.00,-1.00,0,,,100,100,0,1,0,0,0,0,6,,,,,0.0,0.0,0.0,0.0,0.0,0.0,0
33.737630,-118.104798,0.80,1.20,0.14,0.49,0.80,0.80,0.55,0.49,1101,2022-06-09 00:15:39.807,2022-06-08 17:15:39.807,16,0,0,16.223,33.737627,-118.104802,0.10,0.10,0.00,-5.00,-0.50,-121.20,0,1,0,80,100,-7099,2794,16223,3071.50,11,Sport,1,0,0,0,0,0,0,1654733739807,4100,4099,4095,4079,0,0,27,,,,,,,0,0,0,50.00,-5.00,-1212.00,-42.00,0.00,-1338.00,31,8.00,1.41,4.91,1.00,1.00,0.00,0,,,100,100,0,1,0,0,0,0,6,,,,,0.0,0.0,0.0,0.0,0.0,0.0,0
33.737630,-118.104797,0.90,1.20,0.14,0.51,0.90,0.90,0.55,0.51,1201,2022-06-09 00:15:39.907,2022-06-08 17:15:39.907,16,0,0,16.223,33.737627,-118.104802,0.10,0.10,0.00,-5.00,-0.60,-121.20,0,1,0,80,100,-7099,2794,16223,3071.50,11,Sport,1,0,0,0,0,0,0,1654733739907,4100,4099,4095,4079,0,0,27,,,,,,,0,0,0,50.00,-6.00,-1212.00,-39.00,0.00,-1338.00,31,9.00,1.41,5.13,1.00,1.00,0.00,0,,,100,100,0,1,0,0,0,0,6,,,,,0.0,0.0,0.0,0.0,0.0,0.0,0
33.737630,-118.104797,0.90,1.20,0.10,0.52,0.90,0.90,0.55,0.52,1302,2022-06-09 00:15:40.008,2022-06-08 17:15:40.008,16,0,0,16.223,33.737627,-118.104802,0.00,0.10,0.00,-4.90,-0.60,-121.20,0,1,0,80,100,-7099,2794,16223,3071.50,11,Sport,1,0,0,0,47,0,0,1654733740008,4100,4099,4095,4079,0,0,27,,,,,,,0,0,0,49.00,-6.00,-1212.00,-40.00,0.00,-1338.00,31,9.00,1.00,5.17,0.00,1.00,0.00,0,,,100,100,0,1,0,0,0,0,6,,,,,0.0,0.0,0.0,0.0,0.0,0.0,0
33.737630,-118.104797,0.90,1.20,0.10,0.54,0.90,0.90,0.55,0.54,1401,2022-06-09 00:15:40.108,2022-06-08 17:15:40.108,16,0,0,16.223,33.737627,-118.104802,0.00,0.10,0.00,-4.70,-0.30,-121.20,0,1,0,80,100,-7099,2794,16223,3071.50,11,Sport,1,0,0,0,88,0,0,1654733740107,4100,4099,4095,4079,0,0,27,,,,,,,0,0,0,47.00,-3.00,-1212.00,-39.00,0.00,-1338.00,31,9.00,1.00,5.35,0.00,1.00,0.00,0,,,100,100,0,1,0,0,0,0,6,,,,,0.0,0.0,0.0,0.0,0.0,0.0,0
33.737630,-118.104797,0.90,1.20,0.10,0.55,0.90,0.90,0.55,0.55,1502,2022-06-09 00:15:40.208,2022-06-08 17:15:40.208,16,0,0,16.223,33.737627,-118.104802,0.00,0.10,0.00,-4.40,0.00,-121.20,0,1,0,80,100,-7099,2794,16223,3071.50,11,Sport,1,0,0,0,158,0,0,1654733740208,4100,4099,4095,4079,0,0,27,,,,,,,0,0,0,44.00,0.00,-1212.00,-37.00,0.00,-1338.00,31,9.00,1.00,5.52,0.00,1.00,0.00,0,,,100,100,0,1,0,0,0,0,6,,,,,0.0,0.0,0.0,0.0,0.0,0.0,0
33.737630,-118.104797,0.90,1.20,0.10,0.58,0.90,0.90,0.55,0.58,1602,2022-06-09 00:15:40.309,2022-06-08 17:15:40.309,16,0,0,16.223,33.737627,-118.104802,0.00,0.10,0.00,-4.10,0.00,-121.20,0,1,0,80,100,-7099,2794,16223,3071.50,11,Sport,1,0,0,0,156,0,0,1654733740308,4100,4099,4095,4079,0,0,27,,,,,,,0,0,0,41.00,0.00,-1212.00,-33.00,0.00,-1338.00,31,9.00,1.00,5.80,0.00,1.00,0.00,0,,,100,100,0,1,0,0,0,0,6,,,,,0.0,0.0,0.0,0.0,0.0,0.0,0
33.737630,-118.104797,0.90,1.20,0.14,0.60,0.90,0.90,0.55,0.60,1702,2022-06-09 00:15:40.408,2022-06-08 17:15:40.408,16,0,0,16.223,33.737627,-118.104802,0.00,0.10,-0.10,-3.90,0.20,-121.10,0,1,0,80,100,-7099,2794,16223,3071.50,11,Sport,1,0,0,0,13,0,0,1654733740408,4100,4099,4095,4079,0,0,27,,,,,,,0,0,0,39.00,2.00,-1211.00,-30.00,0.00,-1338.00,31,9.00,1.41,6.01,0.00,1.00,-1.00,0,,,100,100,0,1,0,0,0,0,6,,,,,0.0,0.0,0.0,0.0,0.0,0.0,0
33.737630,-118.104796,0.90,1.20,0.14,0.62,0.90,0.90,0.55,0.62,1801,2022-06-09 00:15:40.508,2022-06-08 17:15:40.508,16,0,0,16.223,33.737627,-118.104802,0.00,0.10,-0.10,-4.20,0.80,-121.10,0,1,0,80,100,-7099,2794,16223,3071.50,11,Sport,1,0,0,0,0,0,0,1654733740507,4100,4099,4095,4079,0,0,27,,,,,,,0,0,0,42.00,8.00,-1211.00,-30.00,0.00,-1338.00,31,9.00,1.41,6.18,0.00,1.00,-1.00,0,,,100,100,0,1,0,0,0,0,6,,,,,0.0,0.0,0.0,0.0,0.0,0.0,0
33.737630,-118.104796,0.90,1.20,0.10,0.63,0.90,0.90,0.55,0.63,1902,2022-06-09 00:15:40.608,2022-06-08 17:15:40.608,16,0,0,16.223,33.737627,-118.104802,0.00,0.10,0.00,-4.60,1.20,-121.00,0,1,0,80,100,-7099,2794,16223,3071.50,11,Sport,1,0,0,0,0,0,0,1654733740608,4100,4099,4095,4079,0,0,27,,,,,,,0,0,0,46.00,12.00,-1210.00,-34.00,0.00,-1338.00,31,9.00,1.00,6.25,0.00,1.00,0.00,0,,,100,100,0,1,0,0,0,0,6,,,,,0.0,0.0,0.0,0.0,0.0,0.0,0
33.737630,-118.104796,0.90,1.20,0.10,0.64,0.90,0.90,0.55,0.64,2002,2022-06-09 00:15:40.709,2022-06-08 17:15:40.709,16,0,0,16.178,33.737627,-118.104802,0.00,0.10,0.00,-4.90,1.20,-121.10,0,1,0,79,100,-6560,2791,16178,3071.50,11,Sport,1,0,0,0,0,0,0,1654733740708,4100,4099,4095,4079,0,0,27,,,,,,,0,0,0,49.00,12.00,-1211.00,-37.00,0.00,-1338.00,31,9.00,1.00,6.42,0.00,1.00,0.00,0,,,100,100,0,1,0,0,0,0,6,,,,,0.0,0.0,0.0,0.0,0.0,0.0,0
33.737631,-118.104796,0.90,1.20,0.10,0.64,0.90,0.90,0.55,0.64,2102,2022-06-09 00:15:40.808,2022-06-08 17:15:40.808,16,0,0,16.178,33.737627,-118.104802,0.00,0.10,0.00,-5.10,1.50,-121.10,0,1,0,79,100,-6560,2791,16178,3071.50,11,Sport,1,0,97,0,0,0,0,1654733740808,4100,4099,4095,4079,0,0,27,,,,,,,0,0,0,51.00,15.00,-1211.00,-40.00,0.00,-1338.00,31,9.00,1.00,6.43,0.00,1.00,0.00,0,,,100,100,0,1,0,0,0,0,6,,,,,0.0,0.0,0.0,0.0,0.0,0.0,0
33.737631,-118.104796,0.90,1.20,0.10,0.66,0.90,0.90,0.55,0.66,2203,2022-06-09 00:15:40.909,2022-06-08 17:15:40.909,16,0,0,16.178,33.737627,-118.104802,0.00,0.10,0.00,-5.90,1.70,-121.10,0,1,0,79,100,-6560,2791,16178,3071.50,11,Sport,1,0,276,0,0,0,0,1654733740909,4100,4099,4095,4079,0,0,27,,,,,,,0,0,0,59.00,17.00,-1211.00,-43.00,0.00,-1338.00,31,9.00,1.00,6.58,0.00,1.00,0.00,0,,,100,100,0,1,0,0,0,0,6,,,,,0.0,0.0,0.0,0.0,0.0,0.0,0
33.737631,-118.104796,0.90,1.20,0.10,0.67,0.90,0.90,0.55,0.67,2304,2022-06-09 00:15:41.011,2022-06-08 17:15:41.011,16,0,0,16.178,33.737627,-118.104802,0.00,0.10,0.00,-10.80,1.30,-121.20,0,1,0,79,100,-6560,2791,16178,3071.50,11,Sport,1,0,315,0,0,0,0,1654733741010,4100,4099,4095,4079,0,0,27,,,,,,,0,0,0,108.00,13.00,-1212.00,-75.00,0.00,-1338.00,31,9.00,1.00,6.70,0.00,1.00,0.00,0,,,100,100,0,1,0,0,0,0,6,,,,,0.0,0.0,0.0,0.0,0.0,0.0,0
33.737631,-118.104796,0.90,1.20,0.00,0.68,0.90,0.90,0.55,0.68,2404,2022-06-09 00:15:41.111,2022-06-08 17:15:41.111,16,0,0,16.178,33.737627,-118.104802,0.00,0.00,0.00,-16.90,1.00,-121.30,0,1,0,79,100,-6560,2791,16178,3071.50,11,Sport,1,0,0,0,0,0,0,1654733741110,4100,4099,4095,4079,0,0,27,,,,,,,0,0,0,169.00,10.00,-1213.00,-139.00,0.00,-1338.00,31,9.00,0.00,6.75,0.00,0.00,0.00,0,,,100,100,0,1,0,0,0,0,6,,,,,0.0,0.0,0.0,0.0,0.0,0.0,0
33.737631,-118.104796,0.90,1.20,0.14,0.66,0.90,0.90,0.55,0.68,2503,2022-06-09 00:15:41.210,2022-06-08 17:15:41.210,16,0,0,16.178,33.737627,-118.104802,-0.10,-0.10,0.00,-15.20,1.10,-121.20,0,1,0,79,100,-6560,2791,16178,3071.50,11,Sport,1,0,0,0,0,0,0,1654733741209,4100,4099,4095,4079,0,0,27,,,,,,,0,0,0,152.00,11.00,-1212.00,-166.00,0.00,-1338.00,31,9.00,1.41,6.61,-1.00,-1.00,0.00,0,,,100,100,0,1,0,0,0,0,6,,,,,0.0,0.0,0.0,0.0,0.0,0.0,0
33.737630,-118.104796,0.90,1.20,0.36,0.63,0.90,0.90,0.55,0.68,2604,2022-06-09 00:15:41.310,2022-06-08 17:15:41.310,16,0,0,16.178,33.737627,-118.104802,-0.20,-0.30,0.00,-6.00,1.00,-121.10,0,1,0,79,100,-6560,2791,16178,3071.50,11,Sport,1,0,37,0,0,0,0,1654733741310,4100,4099,4095,4079,0,0,27,,,,,,,0,0,0,60.00,10.00,-1211.00,-78.00,0.00,-1338.00,31,9.00,3.61,6.29,-2.00,-3.00,0.00,0,,,100,100,0,1,0,0,0,0,6,,,,,0.0,0.0,0.0,0.0,0.0,0.0,0
33.737630,-118.104797,0.90,1.20,0.36,0.59,0.90,0.90,0.55,0.68,2703,2022-06-09 00:15:41.410,2022-06-08 17:15:41.410,16,0,0,16.178,33.737627,-118.104802,-0.20,-0.30,0.00,-1.90,1.20,-121.00,0,1,0,79,100,-6560,2791,16178,3071.50,11,Sport,1,0,211,0,0,0,0,1654733741409,4100,4099,4095,4079,0,0,27,,,,,,,0,0,0,19.00,12.00,-1210.00,-19.00,0.00,-1338.00,31,9.00,3.61,5.91,-2.00,-3.00,0.00,0,,,100,100,0,1,0,0,0,0,6,,,,,0.0,0.0,0.0,0.0,0.0,0.0,0
33.737630,-118.104797,0.90,1.20,0.22,0.56,0.90,0.90,0.55,0.68,2801,2022-06-09 00:15:41.508,2022-06-08 17:15:41.508,16,0,0,16.178,33.737627,-118.104802,-0.10,-0.20,0.00,-4.10,1.20,-121.10,0,1,0,79,100,-6560,2791,16178,3071.50,11,Sport,1,0,264,0,0,0,0,1654733741507,4100,4099,4095,4079,0,0,27,,,,,,,0,0,0,41.00,12.00,-1211.00,-18.00,0.00,-1338.00,31,9.00,2.24,5.58,-1.00,-2.00,0.00,0,,,100,100,0,1,0,0,0,0,6,,,,,0.0,0.0,0.0,0.0,0.0,0.0,0
33.737630,-118.104797,0.90,1.20,0.22,0.53,0.90,0.90,0.55,0.68,2902,2022-06-09 00:15:41.608,2022-06-08 17:15:41.608,16,0,0,16.178,33.737627,-118.104802,-0.10,-0.20,0.00,-9.80,1.10,-121.30,0,1,0,79,100,-6560,2791,16178,3071.50,11,Sport,1,0,77,0,0,0,0,1654733741608,4100,4099,4095,4079,0,0,27,,,,,,,0,0,0,98.00,11.00,-1213.00,-69.00,0.00,-1338.00,31,9.00,2.24,5.28,-1.00,-2.00,0.00,0,,,100,100,0,1,0,0,0,0,6,,,,,0.0,0.0,0.0,0.0,0.0,0.0,0
33.737630,-118.104798,0.90,1.20,0.36,0.49,0.90,0.90,0.55,0.68,3002,2022-06-09 00:15:41.708,2022-06-08 17:15:41.708,16,0,0,16.178,33.737627,-118.104802,-0.20,-0.30,0.00,-10.00,0.60,-121.20,0,1,0,79,100,-6560,2791,16178,3071.50,11,Sport,1,0,0,0,0,0,0,1654733741708,4100,4099,4095,4079,0,0,27,,,,,,,0,0,0,100.00,6.00,-1212.00,-108.00,0.00,-1338.00,31,9.00,3.61,4.87,-2.00,-3.00,0.00,0,,,100,100,0,1,0,0,0,0,6,,,,,0.0,0.0,0.0,0.0,0.0,0.0,0
33.737630,-118.104798,0.90,1.20,0.45,0.43,0.90,0.90,0.55,0.68,3102,2022-06-09 00:15:41.808,2022-06-08 17:15:41.808,16,0,0,16.178,33.737627,-118.104802,-0.20,-0.40,0.00,-3.00,0.40,-121.10,0,1,0,79,100,-6560,2791,16178,3071.50,11,Sport,1,0,0,0,0,0,0,1654733741808,4100,4099,4095,4079,0,0,27,,,,,,,0,0,0,30.00,4.00,-1211.00,-38.00,0.00,-1338.00,31,9.00,4.47,4.33,-2.00,-4.00,0.00,0,,,100,100,0,1,0,0,0,0,6,,,,,0.0,0.0,0.0,0.0,0.0,0.0,0
33.737629,-118.104799,0.90,1.20,0.45,0.38,0.90,0.90,0.55,0.68,3202,2022-06-09 00:15:41.908,2022-06-08 17:15:41.908,16,0,0,16.178,33.737627,-118.104802,-0.20,-0.40,0.00,0.40,0.30,-121.20,0,1,0,79,100,-6560,2791,16178,3071.50,11,Sport,1,0,0,0,0,0,0,1654733741908,4100,4099,4095,4079,0,0,27,,,,,,,0,0,0,-4.00,3.00,-1212.00,6.00,0.00,-1338.00,31,9.00,4.47,3.84,-2.00,-4.00,0.00,0,,,100,100,0,1,0,0,0,0,6,,,,,0.0,0.0,0.0,0.0,0.0,0.0,0
33.737629,-118.104799,0.90,1.20,0.36,0.33,0.90,0.90,0.55,0.68,3302,2022-06-09 00:15:42.009,2022-06-08 17:15:42.009,16,0,0,16.178,33.737627,-118.104802,-0.20,-0.30,0.00,1.60,0.10,-121.20,0,1,0,79,100,-6560,2791,16178,3071.50,11,Sport,1,0,0,0,0,0,0,1654733742008,4100,4099,4095,4079,0,0,27,,,,,,,0,0,0,-16.00,1.00,-1212.00,24.00,0.00,-1338.00,31,9.00,3.61,3.28,-2.00,-3.00,0.00,0,,,100,100,0,1,0,0,0,0,6,,,,,0.0,0.0,0.0,0.0,0.0,0.0,0
33.737629,-118.104799,0.90,1.20,0.22,0.29,0.90,0.90,0.55,0.68,3402,2022-06-09 00:15:42.108,2022-06-08 17:15:42.108,16,0,0,16.178,33.737627,-118.104802,-0.10,-0.20,0.00,1.20,-0.20,-121.30,0,1,0,79,100,-6560,2791,16178,3071.50,11,Sport,1,0,0,0,0,0,0,1654733742108,4100,4099,4095,4079,0,0,27,,,,,,,0,0,0,-12.00,-2.00,-1213.00,24.00,0.00,-1338.00,31,9.00,2.24,2.95,-1.00,-2.00,0.00,0,,,100,100,0,1,0,0,0,0,6,,,,,0.0,0.0,0.0,0.0,0.0,0.0,0
33.737629,-118.104800,0.90,1.10,0.22,0.27,0.90,0.90,0.55,0.68,3502,2022-06-09 00:15:42.209,2022-06-08 17:15:42.209,16,0,0,16.178,33.737627,-118.104802,-0.10,-0.20,0.00,0.40,0.20,-121.30,0,1,0,79,100,-6560,2791,16178,3071.50,11,Sport,1,0,0,0,0,0,0,1654733742208,4100,4099,4095,4079,0,0,27,,,,,,,0,0,0,-4.00,2.00,-1213.00,16.00,0.00,-1338.00,31,9.00,2.24,2.74,-1.00,-2.00,0.00,0,,,100,100,0,1,0,0,0,0,6,,,,,0.0,0.0,0.0,0.0,0.0,0.0,0
33.737629,-118.104800,0.90,1.10,0.10,0.26,0.90,0.90,0.55,0.68,3603,2022-06-09 00:15:42.309,2022-06-08 17:15:42.309,16,0,0,16.178,33.737627,-118.104802,0.00,-0.10,0.00,-0.40,0.30,-121.30,0,1,0,79,100,-6560,2791,16178,3071.50,11,Sport,1,0,0,0,0,0,0,1654733742309,4100,4099,4095,4079,0,0,27,,,,,,,0,0,0,4.00,3.00,-1213.00,10.00,0.00,-1338.00,31,9.00,1.00,2.57,0.00,-1.00,0.00,0,,,100,100,0,1,0,0,0,0,6,,,,,0.0,0.0,0.0,0.0,0.0,0.0,0
33.737629,-118.104800,0.90,1.00,0.10,0.24,0.90,0.90,0.55,0.68,3703,2022-06-09 00:15:42.409,2022-06-08 17:15:42.409,16,0,0,16.178,33.737627,-118.104802,0.00,-0.10,0.00,-1.10,0.10,-121.30,0,1,0,79,100,-6560,2791,16178,3071.50,11,Sport,1,0,0,0,0,0,0,1654733742409,4100,4099,4095,4079,0,0,27,,,,,,,0,0,0,11.00,1.00,-1213.00,2.00,0.00,-1338.00,31,9.00,1.00,2.42,0.00,-1.00,0.00,0,,,100,100,0,1,0,0,0,0,6,,,,,0.0,0.0,0.0,0.0,0.0,0.0,0
33.737629,-118.104800,0.90,1.00,0.00,0.24,0.90,0.90,0.55,0.68,3803,2022-06-09 00:15:42.510,2022-06-08 17:15:42.510,16,0,0,16.178,33.737627,-118.104802,0.00,0.00,0.00,-1.90,0.00,-121.20,0,1,0,79,100,-6560,2791,16178,3071.50,11,Sport,1,0,11,0,0,0,0,1654733742509,4100,4099,4095,4079,0,0,27,,,,,,,0,0,0,19.00,0.00,-1212.00,-5.00,0.00,-1338.00,31,9.00,0.00,2.38,0.00,0.00,0.00,0,,,100,100,0,1,0,0,0,0,6,,,,,0.0,0.0,0.0,0.0,0.0,0.0,0
33.737629,-118.104800,0.90,1.00,0.00,0.24,0.90,0.90,0.55,0.68,3903,2022-06-09 00:15:42.610,2022-06-08 17:15:42.610,16,0,0,16.178,33.737627,-118.104802,0.00,0.00,0.00,-2.40,-0.20,-121.20,0,1,0,79,100,-6560,2791,16178,3071.50,11,Sport,1,0,145,0,0,0,0,1654733742609,4100,4099,4095,4079,0,0,27,,,,,,,0,0,0,24.00,-2.00,-1212.00,-10.00,0.00,-1338.00,31,9.00,0.00,2.38,0.00,0.00,0.00,0,,,100,100,0,1,0,0,0,0,6,,,,,0.0,0.0,0.0,0.0,0.0,0.0,0
33.737629,-118.104801,0.90,1.00,0.00,0.23,0.90,0.90,0.55,0.68,4003,2022-06-09 00:15:42.709,2022-06-08 17:15:42.709,16,0,0,16.178,33.737627,-118.104802,0.00,0.00,0.00,-3.90,-0.60,-121.10,0,1,0,79,100,-6560,2791,16178,3071.50,11,Sport,1,0,0,0,0,0,0,1654733742709,4100,4099,4095,4079,0,0,27,,,,,,,0,0,0,39.00,-6.00,-1211.00,-19.00,0.00,-1338.00,31,9.00,0.00,2.33,0.00,0.00,0.00,0,,,100,100,0,1,0,0,0,0,6,,,,,0.0,0.0,0.0,0.0,0.0,0.0,0
33.737629,-118.104801,0.90,1.00,0.00,0.24,0.90,0.90,0.55,0.68,4102,2022-06-09 00:15:42.809,2022-06-08 17:15:42.809,16,0,0,16.178,33.737627,-118.104802,0.00,0.00,0.00,-4.50,-0.60,-120.90,0,1,0,79,100,-7048,2787,16178,3071.50,11,Sport,1,0,0,0,0,0,0,1654733742808,4100,4099,4095,4079,0,0,27,,,,,,,0,0,0,45.00,-6.00,-1209.00,-38.00,0.00,-1338.00,31,9.00,0.00,2.37,0.00,0.00,0.00,0,,,100,100,0,1,0,0,0,0,6,,,,,0.0,0.0,0.0,0.0,0.0,0.0,0
33.737629,-118.104801,0.90,1.10,0.00,0.24,0.90,0.90,0.55,0.68,4203,2022-06-09 00:15:42.909,2022-06-08 17:15:42.909,16,0,0,16.178,33.737627,-118.104802,0.00,0.00,0.00,-3.30,0.00,-120.90,0,1,0,79,100,-7048,2787,16178,3071.50,11,Sport,1,0,0,0,0,0,0,1654733742909,4100,4099,4095,4079,0,0,27,,,,,,,0,0,0,33.00,0.00,-1209.00,-27.00,0.00,-1338.00,31,9.00,0.00,2.37,0.00,0.00,0.00,0,,,100,100,0,1,0,0,0,0,6,,,,,0.0,0.0,0.0,0.0,0.0,0.0,0
33.737629,-118.104800,0.90,1.10,0.00,0.23,0.90,0.90,0.55,0.68,4303,2022-06-09 00:15:43.010,2022-06-08 17:15:43.010,16,0,0,16.178,33.737627,-118.104802,0.00,0.00,0.00,-3.00,0.30,-120.90,0,1,0,79,100,-7048,2787,16178,3071.50,11,Sport,1,0,255,0,0,0,0,1654733743009,4100,4099,4095,4079,0,0,27,,,,,,,0,0,0,30.00,3.00,-1209.00,-20.00,0.00,-1338.00,31,9.00,0.00,2.32,0.00,0.00,0.00,0,,,100,100,0,1,0,0,0,0,6,,,,,0.0,0.0,0.0,0.0,0.0,0.0,0
33.737629,-118.104800,0.90,1.10,0.00,0.23,0.90,0.90,0.55,0.68,4403,2022-06-09 00:15:43.109,2022-06-08 17:15:43.109,16,0,0,16.178,33.737627,-118.104802,0.00,0.00,0.00,-6.90,0.80,-120.90,0,1,0,79,100,-7048,2787,16178,3071.50,11,Sport,1,0,345,44,0,0,0,1654733743109,4100,4099,4095,4079,0,0,27,,,,,,,0,0,0,69.00,8.00,-1209.00,-31.00,0.00,-1338.00,31,9.00,0.00,2.31,0.00,0.00,0.00,0,,,100,100,0,1,0,0,0,0,6,,,,,0.0,0.0,0.0,0.0,0.0,0.0,0
33.737629,-118.104800,0.90,1.10,0.00,0.24,0.90,0.90,0.55,0.68,4503,2022-06-09 00:15:43.209,2022-06-08 17:15:43.209,16,0,0,16.178,33.737627,-118.104802,0.00,0.00,0.00,-14.20,1.90,-120.90,0,1,0,79,100,-7048,2787,16178,3071.50,11,Sport,1,0,0,0,0,0,0,1654733743209,4100,4099,4095,4079,0,0,27,,,,,,,0,0,0,142.00,19.00,-1209.00,-109.00,0.00,-1338.00,31,9.00,0.00,2.38,0.00,0.00,0.00,0,,,100,100,0,1,0,0,0,0,6,,,,,0.0,0.0,0.0,0.0,0.0,0.0,0
33.737629,-118.104801,0.90,1.10,0.22,0.22,0.90,0.90,0.55,0.68,4603,2022-06-09 00:15:43.310,2022-06-08 17:15:43.310,16,0,0,16.178,33.737627,-118.104802,-0.10,-0.20,0.00,-9.00,1.40,-121.00,0,1,0,79,100,-7048,2787,16178,3071.50,11,Sport,1,0,0,0,0,0,0,1654733743309,4100,4099,4095,4079,0,0,27,,,,,,,0,0,0,90.00,14.00,-1210.00,-119.00,0.00,-1338.00,31,9.00,2.24,2.20,-1.00,-2.00,0.00,0,,,100,100,0,1,0,0,0,0,6,,,,,0.0,0.0,0.0,0.0,0.0,0.0,0
33.737629,-118.104801,0.90,1.20,0.22,0.19,0.90,0.90,0.55,0.68,4704,2022-06-09 00:15:43.410,2022-06-08 17:15:43.410,16,0,0,16.178,33.737627,-118.104802,-0.10,-0.20,0.00,-3.10,0.70,-121.00,0,1,0,79,100,-7048,2787,16178,3071.50,11,Sport,1,0,0,0,0,0,0,1654733743410,4100,4099,4095,4079,0,0,27,,,,,,,0,0,0,31.00,7.00,-1210.00,-40.00,0.00,-1338.00,31,9.00,2.24,1.92,-1.00,-2.00,0.00,0,,,100,100,0,1,0,0,0,0,6,,,,,0.0,0.0,0.0,0.0,0.0,0.0,0
33.737629,-118.104801,0.90,1.20,0.22,0.17,0.90,0.90,0.55,0.68,4803,2022-06-09 00:15:43.510,2022-06-08 17:15:43.510,16,0,0,16.178,33.737627,-118.104802,-0.10,-0.20,0.00,-0.30,0.30,-121.10,0,1,0,79,100,-7048,2787,16178,3071.50,11,Sport,1,0,0,0,0,0,0,1654733743509,4100,4099,4095,4079,0,0,27,,,,,,,0,0,0,3.00,3.00,-1211.00,0.00,0.00,-1338.00,31,9.00,2.24,1.66,-1.00,-2.00,0.00,0,,,100,100,0,1,0,0,0,0,6,,,,,0.0,0.0,0.0,0.0,0.0,0.0,0
33.737629,-118.104801,0.90,1.10,0.10,0.16,0.90,0.90,0.55,0.68,4904,2022-06-09 00:15:43.610,2022-06-08 17:15:43.611,16,0,0,16.178,33.737627,-118.104802,0.00,-0.10,0.00,0.30,0.10,-121.20,0,1,0,79,100,-7048,2787,16178,3071.50,11,Sport,1,0,0,0,0,0,0,1654733743610,4100,4099,4095,4079,0,0,27,,,,,,,0,0,0,-3.00,1.00,-1212.00,12.00,0.00,-1338.00,31,9.00,1.00,1.57,0.00,-1.00,0.00,0,,,100,100,0,1,0,0,0,0,6,,,,,0.0,0.0,0.0,0.0,0.0,0.0,0
33.737629,-118.104801,0.90,0.90,0.10,0.15,0.90,0.90,0.55,0.68,5003,2022-06-09 00:15:43.709,2022-06-08 17:15:43.709,16,0,0,16.178,33.737627,-118.104802,0.00,-0.10,0.00,-0.20,-0.40,-121.00,0,1,0,79,100,-7048,2787,16178,3071.50,11,Sport,1,0,0,0,0,0,0,1654733743709,4100,4099,4095,4079,0,0,27,,,,,,,0,0,0,2.00,-4.00,-1210.00,8.00,0.00,-1338.00,31,9.00,1.00,1.47,0.00,-1.00,0.00,0,,,100,100,0,1,0,0,0,0,6,,,,,0.0,0.0,0.0,0.0,0.0,0.0,0
33.737629,-118.104802,0.90,0.90,0.00,0.14,0.90,0.90,0.55,0.68,5103,2022-06-09 00:15:43.810,2022-06-08 17:15:43.810,16,0,0,16.178,33.737627,-118.104802,0.00,0.00,0.00,-1.30,0.30,-120.90,0,1,0,79,100,-7048,2787,16178,3071.50,11,Sport,1,0,0,0,22,0,0,1654733743809,4100,4099,4095,4079,0,0,27,,,,,,,0,0,0,13.00,3.00,-1209.00,1.00,0.00,-1338.00,31,9.00,0.00,1.39,0.00,0.00,0.00,0,,,100,100,0,1,0,0,0,0,6,,,,,0.0,0.0,0.0,0.0,0.0,0.0,0
33.737629,-118.104802,0.90,0.90,0.00,0.14,0.90,0.90,0.55,0.68,5204,2022-06-09 00:15:43.911,2022-06-08 17:15:43.911,16,0,0,16.178,33.737627,-118.104802,0.00,0.00,0.00,-2.20,0.80,-120.90,0,1,0,79,100,-7048,2787,16178,3071.50,11,Sport,1,0,0,0,243,0,0,1654733743910,4100,4099,4095,4079,0,0,27,,,,,,,0,0,0,22.00,8.00,-1209.00,-7.00,0.00,-1338.00,31,9.00,0.00,1.36,0.00,0.00,0.00,0,,,100,100,0,1,0,0,0,0,6,,,,,0.0,0.0,0.0,0.0,0.0,0.0,0
33.737629,-118.104802,0.90,0.90,0.00,0.14,0.90,0.90,0.55,0.68,5304,2022-06-09 00:15:44.010,2022-06-08 17:15:44.010,16,0,0,16.178,33.737627,-118.104802,0.00,0.00,0.00,-2.20,0.70,-120.90,0,1,0,79,100,-7048,2787,16178,3071.50,11,Sport,1,0,0,0,76,0,0,1654733744010,4100,4099,4095,4079,0,0,27,,,,,,,0,0,0,22.00,7.00,-1209.00,-12.00,0.00,-1338.00,31,9.00,0.00,1.37,0.00,0.00,0.00,0,,,100,100,0,1,0,0,0,0,6,,,,,0.0,0.0,0.0,0.0,0.0,0.0,0
33.737629,-118.104802,0.90,0.90,0.20,0.14,0.90,0.90,0.55,0.68,5403,2022-06-09 00:15:44.110,2022-06-08 17:15:44.110,16,0,0,16.178,33.737627,-118.104802,0.00,0.00,-0.20,-3.10,1.10,-121.00,0,1,0,79,100,-7048,2787,16178,3071.50,11,Sport,1,0,0,0,0,0,0,1654733744109,4100,4099,4095,4079,0,0,27,,,,,,,0,0,0,31.00,11.00,-1210.00,-15.00,0.00,-1338.00,31,9.00,2.00,1.39,0.00,0.00,-2.00,0,,,100,100,0,1,0,0,0,0,6,,,,,0.0,0.0,0.0,0.0,0.0,0.0,0
33.737629,-118.104802,0.90,1.00,0.10,0.13,0.90,0.90,0.55,0.68,5503,2022-06-09 00:15:44.210,2022-06-08 17:15:44.210,16,0,0,16.178,33.737627,-118.104802,0.00,0.00,-0.10,-3.50,1.00,-121.00,0,1,0,79,100,-7048,2787,16178,3071.50,11,Sport,1,0,0,0,0,0,0,1654733744209,4100,4099,4095,4079,0,0,27,,,,,,,0,0,0,35.00,10.00,-1210.00,-25.00,0.00,-1338.00,31,9.00,1.00,1.34,0.00,0.00,-1.00,0,,,100,100,0,1,0,0,0,0,6,,,,,0.0,0.0,0.0,0.0,0.0,0.0,0
33.737629,-118.104802,0.90,1.00,0.00,0.14,0.90,0.90,0.55,0.68,5604,2022-06-09 00:15:44.310,2022-06-08 17:15:44.311,16,0,0,16.178,33.737627,-118.104802,0.00,0.00,0.00,-3.00,0.60,-121.00,0,1,0,79,100,-7048,2787,16178,3071.50,11,Sport,1,0,0,0,59,0,0,1654733744310,4100,4099,4095,4079,0,0,27,,,,,,,0,0,0,30.00,6.00,-1210.00,-21.00,0.00,-1338.00,31,9.00,0.00,1.40,0.00,0.00,0.00,0,,,100,100,0,1,0,0,0,0,6,,,,,0.0,0.0,0.0,0.0,0.0,0.0,0
33.737629,-118.104802,0.90,1.00,0.00,0.17,0.90,0.90,0.55,0.68,5703,2022-06-09 00:15:44.410,2022-06-08 17:15:44.410,16,0,0,16.178,33.737627,-118.104802,0.00,0.00,0.00,-3.40,0.10,-121.10,0,1,0,79,100,-7048,2787,16178,3071.50,11,Sport,1,0,0,0,174,0,0,1654733744409,4100,4099,4095,4079,0,0,27,,,,,,,0,0,0,34.00,1.00,-1211.00,-20.00,0.00,-1338.00,31,9.00,0.00,1.67,0.00,0.00,0.00,0,,,100,100,0,1,0,0,0,0,6,,,,,0.0,0.0,0.0,0.0,0.0,0.0,0
33.737629,-118.104802,0.90,1.00,0.10,0.18,0.90,0.90,0.55,0.68,5803,2022-06-09 00:15:44.510,2022-06-08 17:15:44.510,16,0,0,16.178,33.737627,-118.104802,0.00,0.10,0.00,-4.10,0.10,-121.20,0,1,0,79,100,-7048,2787,16178,3071.50,11,Sport,1,0,0,0,178,0,0,1654733744509,4100,4099,4095,4079,0,0,27,,,,,,,0,0,0,41.00,1.00,-1212.00,-28.00,0.00,-1338.00,31,9.00,1.00,1.80,0.00,1.00,0.00,0,,,100,100,0,1,0,0,0,0,6,,,,,0.0,0.0,0.0,0.0,0.0,0.0,0
33.737629,-118.104802,0.90,1.00,0.14,0.18,0.90,0.90,0.55,0.68,5903,2022-06-09 00:15:44.609,2022-06-08 17:15:44.609,16,0,0,16.178,33.737627,-118.104802,0.00,0.10,-0.10,-4.80,0.00,-121.20,0,1,0,79,100,-7048,2787,16178,3071.50,11,Sport,1,0,0,0,178,0,0,1654733744609,4100,4099,4095,4079,0,0,27,,,,,,,0,0,0,48.00,0.00,-1212.00,-35.00,0.00,-1338.00,31,9.00,1.41,1.75,0.00,1.00,-1.00,0,,,100,100,0,1,0,0,0,0,6,,,,,0.0,0.0,0.0,0.0,0.0,0.0,0
33.737629,-118.104801,1.00,1.00,0.22,0.19,1.00,1.00,0.55,0.68,6003,2022-06-09 00:15:44.710,2022-06-08 17:15:44.710,16,0,0,16.178,33.737627,-118.104802,0.00,0.10,-0.20,-5.80,0.20,-121.30,0,1,0,79,100,-7048,2787,16178,3071.50,11,Sport,1,0,0,0,179,0,0,1654733744709,4100,4099,4095,4079,0,0,27,,,,,,,0,0,0,58.00,2.00,-1213.00,-45.00,0.00,-1338.00,31,10.00,2.24,1.89,0.00,1.00,-2.00,0,,,100,100,0,1,0,0,0,0,6,,,,,0.0,0.0,0.0,0.0,0.0,0.0,0
33.737629,-118.104801,1.00,1.10,0.22,0.20,1.00,1.00,0.55,0.68,6104,2022-06-09 00:15:44.810,2022-06-08 17:15:44.810,16,0,0,16.115,33.737627,-118.104802,0.00,0.10,-0.20,-6.40,0.00,-121.20,0,1,0,79,100,-6997,2785,16115,3071.50,11,Sport,1,0,0,0,180,0,0,1654733744810,4100,4099,4095,4079,0,0,27,,,,,,,0,0,0,64.00,0.00,-1212.00,-52.00,0.00,-1338.00,31,10.00,2.24,2.03,0.00,1.00,-2.00,0,,,100,100,0,1,0,0,0,0,6,,,,,0.0,0.0,0.0,0.0,0.0,0.0,0
33.737629,-118.104801,1.00,1.10,0.22,0.23,1.00,1.00,0.55,0.68,6204,2022-06-09 00:15:44.910,2022-06-08 17:15:44.910,16,0,0,16.115,33.737627,-118.104802,0.00,0.10,-0.20,-6.50,0.00,-121.20,0,1,0,79,100,-6997,2785,16115,3071.50,11,Sport,1,0,0,0,178,0,0,1654733744910,4100,4099,4095,4079,0,0,27,,,,,,,0,0,0,65.00,0.00,-1212.00,-54.00,0.00,-1338.00,31,10.00,2.24,2.28,0.00,1.00,-2.00,0,,,100,100,0,1,0,0,0,0,6,,,,,0.0,0.0,0.0,0.0,0.0,0.0,0
33.737629,-118.104801,1.00,1.20,0.20,0.24,1.00,1.00,0.55,0.68,6303,2022-06-09 00:15:45.010,2022-06-08 17:15:45.010,16,0,0,16.115,33.737627,-118.104802,0.00,0.00,-0.20,-6.30,-0.20,-121.20,0,1,0,79,100,-6997,2785,16115,3071.50,11,Sport,1,0,0,0,165,0,0,1654733745009,4100,4099,4095,4079,0,0,27,,,,,,,0,0,0,63.00,-2.00,-1212.00,-54.00,0.00,-1338.00,31,10.00,2.00,2.44,0.00,0.00,-2.00,0,,,100,100,0,1,0,0,0,0,6,,,,,0.0,0.0,0.0,0.0,0.0,0.0,0
33.737630,-118.104801,1.10,1.30,0.20,0.26,1.10,1.10,0.55,0.68,6404,2022-06-09 00:15:45.111,2022-06-08 17:15:45.111,16,0,0,16.115,33.737627,-118.104802,0.00,0.00,-0.20,-6.20,-0.40,-121.10,0,1,0,79,100,-6997,2785,16115,3071.50,11,Sport,1,0,0,0,29,0,0,1654733745110,4100,4099,4095,4079,0,0,27,,,,,,,0,0,0,62.00,-4.00,-1211.00,-53.00,0.00,-1338.00,31,11.00,2.00,2.57,0.00,0.00,-2.00,0,,,100,100,0,1,0,0,0,0,6,,,,,0.0,0.0,0.0,0.0,0.0,0.0,0
33.737630,-118.104801,1.10,1.40,0.10,0.27,1.10,1.10,0.55,0.68,6505,2022-06-09 00:15:45.212,2022-06-08 17:15:45.212,16,0,0,16.115,33.737627,-118.104802,0.00,0.00,-0.10,-6.30,-0.40,-121.10,0,1,0,79,100,-6997,2785,16115,3071.50,11,Sport,1,0,0,0,0,0,0,1654733745211,4100,4099,4095,4079,0,0,27,,,,,,,0,0,0,63.00,-4.00,-1211.00,-52.00,0.00,-1338.00,31,11.00,1.00,2.71,0.00,0.00,-1.00,0,,,100,100,0,1,0,0,0,0,6,,,,,0.0,0.0,0.0,0.0,0.0,0.0,0
33.737630,-118.104801,1.10,1.40,0.00,0.28,1.10,1.10,0.55,0.68,6604,2022-06-09 00:15:45.310,2022-06-08 17:15:45.310,16,0,0,16.115,33.737627,-118.104802,0.00,0.00,0.00,-6.10,-0.90,-121.00,0,1,0,79,100,-6997,2785,16115,3071.50,11,Sport,1,0,0,0,0,0,0,1654733745310,4100,4099,4095,4079,0,0,27,,,,,,,0,0,0,61.00,-9.00,-1210.00,-53.00,0.00,-1338.00,31,11.00,0.00,2.81,0.00,0.00,0.00,0,,,100,100,0,1,0,0,0,0,6,,,,,0.0,0.0,0.0,0.0,0.0,0.0,0
33.737630,-118.104801,1.10,1.40,0.00,0.31,1.10,1.10,0.55,0.68,6704,2022-06-09 00:15:45.411,2022-06-08 17:15:45.411,16,0,0,16.115,33.737627,-118.104802,0.00,0.00,0.00,-5.40,-1.10,-121.10,0,1,0,79,100,-6997,2785,16115,3071.50,11,Sport,1,0,124,0,0,0,0,1654733745410,4100,4099,4095,4079,0,0,27,,,,,,,0,0,0,54.00,-11.00,-1211.00,-47.00,0.00,-1338.00,31,11.00,0.00,3.05,0.00,0.00,0.00,0,,,100,100,0,1,0,0,0,0,6,,,,,0.0,0.0,0.0,0.0,0.0,0.0,0
33.737630,-118.104801,1.10,1.40,0.00,0.31,1.10,1.10,0.55,0.68,6804,2022-06-09 00:15:45.510,2022-06-08 17:15:45.510,16,0,0,16.115,33.737627,-118.104802,0.00,0.00,0.00,-5.90,-1.10,-121.10,0,1,0,79,100,-6997,2785,16115,3071.50,11,Sport,1,0,205,0,0,0,0,1654733745510,4100,4099,4095,4079,0,0,27,,,,,,,0,0,0,59.00,-11.00,-1211.00,-45.00,0.00,-1338.00,31,11.00,0.00,3.14,0.00,0.00,0.00,0,,,100,100,0,1,0,0,0,0,6,,,,,0.0,0.0,0.0,0.0,0.0,0.0,0
33.737630,-118.104801,1.10,1.40,0.00,0.32,1.10,1.10,0.55,0.68,6904,2022-06-09 00:15:45.611,2022-06-08 17:15:45.611,16,0,0,16.115,33.737627,-118.104802,0.00,0.00,0.00,-8.80,-1.00,-121.10,0,1,0,79,100,-6997,2785,16115,3071.50,11,Sport,1,0,175,0,0,0,0,1654733745610,4100,4099,4095,4079,0,0,27,,,,,,,0,0,0,88.00,-10.00,-1211.00,-66.00,0.00,-1338.00,31,11.00,0.00,3.21,0.00,0.00,0.00,0,,,100,100,0,1,0,0,0,0,6,,,,,0.0,0.0,0.0,0.0,0.0,0.0,0
33.737630,-118.104801,1.10,1.40,0.00,0.33,1.10,1.10,0.55,0.68,7004,2022-06-09 00:15:45.710,2022-06-08 17:15:45.710,16,0,0,16.115,33.737627,-118.104802,0.00,0.00,0.00,-11.10,-1.10,-121.00,0,1,0,79,100,-6997,2785,16115,3071.50,11,Sport,1,0,0,0,0,0,0,1654733745710,4100,4099,4095,4079,0,0,27,,,,,,,0,0,0,111.00,-11.00,-1210.00,-98.00,0.00,-1338.00,31,11.00,0.00,3.26,0.00,0.00,0.00,0,,,100,100,0,1,0,0,0,0,6,,,,,0.0,0.0,0.0,0.0,0.0,0.0,0
33.737630,-118.104801,1.10,1.40,0.10,0.32,1.10,1.10,0.55,0.68,7105,2022-06-09 00:15:45.811,2022-06-08 17:15:45.811,16,0,0,16.115,33.737627,-118.104802,0.00,-0.10,0.00,-6.90,-1.50,-121.20,0,1,0,79,100,-6997,2785,16115,3071.50,11,Sport,1,0,0,0,0,0,0,1654733745811,4100,4099,4095,4079,0,0,27,,,,,,,0,0,0,69.00,-15.00,-1212.00,-84.00,0.00,-1338.00,31,11.00,1.00,3.24,0.00,-1.00,0.00,0,,,100,100,0,1,0,0,0,0,6,,,,,0.0,0.0,0.0,0.0,0.0,0.0,0
33.737630,-118.104801,1.10,1.40,0.10,0.33,1.10,1.10,0.55,0.68,7206,2022-06-09 00:15:45.913,2022-06-08 17:15:45.913,16,0,0,16.115,33.737627,-118.104802,0.00,-0.10,0.00,-4.20,-1.40,-121.20,0,1,0,79,100,-6997,2785,16115,3071.50,11,Sport,1,0,0,0,0,0,0,1654733745912,4100,4099,4095,4079,0,0,27,,,,,,,0,0,0,42.00,-14.00,-1212.00,-41.00,0.00,-1338.00,31,11.00,1.00,3.27,0.00,-1.00,0.00,0,,,100,100,0,1,0,0,0,0,6,,,,,0.0,0.0,0.0,0.0,0.0,0.0,0
33.737630,-118.104801,1.10,1.40,0.00,0.32,1.10,1.10,0.55,0.68,7305,2022-06-09 00:15:46.011,2022-06-08 17:15:46.012,16,0,0,16.115,33.737627,-118.104802,0.00,0.00,0.00,-3.30,-1.10,-121.20,0,1,0,79,100,-6997,2785,16115,3071.50,11,Sport,1,0,0,0,144,0,0,1654733746011,4100,4099,4095,4079,0,0,27,,,,,,,0,0,0,33.00,-11.00,-1212.00,-25.00,0.00,-1338.00,31,11.00,0.00,3.24,0.00,0.00,0.00,0,,,100,100,0,1,0,0,0,0,6,,,,,0.0,0.0,0.0,0.0,0.0,0.0,0
33.737630,-118.104801,1.10,1.40,0.00,0.34,1.10,1.10,0.55,0.68,7405,2022-06-09 00:15:46.111,2022-06-08 17:15:46.111,16,0,0,16.115,33.737627,-118.104802,0.00,0.00,0.00,-3.10,-0.70,-121.20,0,1,0,79,100,-6997,2785,16115,3071.50,11,Sport,1,0,0,0,218,0,0,1654733746111,4100,4099,4095,4079,0,0,27,,,,,,,0,0,0,31.00,-7.00,-1212.00,-22.00,0.00,-1338.00,31,11.00,0.00,3.37,0.00,0.00,0.00,0,,,100,100,0,1,0,0,0,0,6,,,,,0.0,0.0,0.0,0.0,0.0,0.0,0
33.737630,-118.104801,1.10,1.30,0.10,0.35,1.10,1.10,0.55,0.68,7505,2022-06-09 00:15:46.211,2022-06-08 17:15:46.211,16,0,0,16.115,33.737627,-118.104802,0.00,0.00,-0.10,-3.30,-0.60,-121.30,0,1,0,79,100,-6997,2785,16115,3071.50,11,Sport,1,0,0,0,220,0,0,1654733746211,4100,4099,4095,4079,0,0,27,,,,,,,0,0,0,33.00,-6.00,-1213.00,-21.00,0.00,-1338.00,31,11.00,1.00,3.45,0.00,0.00,-1.00,0,,,100,100,0,1,0,0,0,0,6,,,,,0.0,0.0,0.0,0.0,0.0,0.0,0
33.737630,-118.104801,1.10,1.30,0.30,0.35,1.10,1.10,0.55,0.68,7605,2022-06-09 00:15:46.312,2022-06-08 17:15:46.312,16,0,0,16.115,33.737627,-118.104802,0.00,0.00,-0.30,-3.70,-0.20,-121.20,0,1,0,79,100,-6997,2785,16115,3071.50,11,Sport,1,0,0,0,143,0,0,1654733746311,4100,4099,4095,4079,0,0,27,,,,,,,0,0,0,37.00,-2.00,-1212.00,-26.00,0.00,-1338.00,31,11.00,3.00,3.53,0.00,0.00,-3.00,0,,,100,100,0,1,0,0,0,0,6,,,,,0.0,0.0,0.0,0.0,0.0,0.0,0
33.737630,-118.104801,1.10,1.40,0.30,0.36,1.10,1.10,0.55,0.68,7705,2022-06-09 00:15:46.411,2022-06-08 17:15:46.411,16,0,0,16.115,33.737627,-118.104802,0.00,0.00,-0.30,-5.30,0.00,-121.20,0,1,0,79,100,-6997,2785,16115,3071.50,11,Sport,1,0,0,0,0,0,0,1654733746411,4100,4099,4095,4079,0,0,27,,,,,,,0,0,0,53.00,0.00,-1212.00,-36.00,0.00,-1338.00,31,11.00,3.00,3.60,0.00,0.00,-3.00,0,,,100,100,0,1,0,0,0,0,6,,,,,0.0,0.0,0.0,0.0,0.0,0.0,0
33.737631,-118.104801,1.20,1.40,0.14,0.38,1.20,1.20,0.55,0.68,7805,2022-06-09 00:15:46.511,2022-06-08 17:15:46.511,16,0,0,16.115,33.737627,-118.104802,0.10,0.00,-0.10,-6.80,-0.30,-121.10,0,1,0,79,100,-6997,2785,16115,3071.50,11,Sport,1,0,0,0,0,0,0,1654733746511,4100,4099,4095,4079,0,0,27,,,,,,,0,0,0,68.00,-3.00,-1211.00,-54.00,0.00,-1338.00,31,12.00,1.41,3.76,1.00,0.00,-1.00,0,,,100,100,0,1,0,0,0,0,6,,,,,0.0,0.0,0.0,0.0,0.0,0.0,0
33.737631,-118.104801,1.20,1.40,0.10,0.39,1.20,1.20,0.55,0.68,7905,2022-06-09 00:15:46.611,2022-06-08 17:15:46.611,16,0,0,16.115,33.737627,-118.104802,0.10,0.00,0.00,-6.70,-0.80,-121.10,0,1,0,79,100,-6997,2785,16115,3071.50,11,Sport,1,0,0,0,0,0,0,1654733746611,4100,4099,4095,4079,0,0,27,,,,,,,0,0,0,67.00,-8.00,-1211.00,-58.00,0.00,-1338.00,31,12.00,1.00,3.91,1.00,0.00,0.00,0,,,100,100,0,1,0,0,0,0,6,,,,,0.0,0.0,0.0,0.0,0.0,0.0,0
33.737631,-118.104800,1.20,1.50,0.10,0.41,1.20,1.20,0.55,0.68,8005,2022-06-09 00:15:46.712,2022-06-08 17:15:46.712,16,0,0,16.115,33.737627,-118.104802,0.10,0.00,0.00,-6.50,-1.00,-121.20,0,1,0,79,100,-6997,2785,16115,3071.50,11,Sport,1,0,0,0,0,0,0,1654733746711,4100,4099,4095,4079,0,0,27,,,,,,,0,0,0,65.00,-10.00,-1212.00,-56.00,0.00,-1338.00,31,12.00,1.00,4.08,1.00,0.00,0.00,0,,,100,100,0,1,0,0,0,0,6,,,,,0.0,0.0,0.0,0.0,0.0,0.0,0
33.737631,-118.104800,1.20,1.50,0.14,0.43,1.20,1.20,0.55,0.68,8105,2022-06-09 00:15:46.812,2022-06-08 17:15:46.812,16,0,0,16.157,33.737627,-118.104802,0.10,0.10,0.00,-6.60,-1.00,-121.10,0,1,0,79,100,-6654,2781,16157,3071.50,11,Sport,1,0,0,0,0,0,0,1654733746811,4100,4099,4095,4079,0,0,27,,,,,,,0,0,0,66.00,-10.00,-1211.00,-55.00,0.00,-1338.00,31,12.00,1.41,4.26,1.00,1.00,0.00,0,,,100,100,0,1,0,0,0,0,6,,,,,0.0,0.0,0.0,0.0,0.0,0.0,0
33.737631,-118.104800,1.20,1.50,0.10,0.44,1.20,1.20,0.55,0.68,8205,2022-06-09 00:15:46.911,2022-06-08 17:15:46.911,16,0,0,16.157,33.737627,-118.104802,0.00,0.10,0.00,-6.70,-0.90,-121.10,0,1,0,79,100,-6654,2781,16157,3071.50,11,Sport,1,0,0,0,0,0,0,1654733746911,4100,4099,4095,4079,0,0,27,,,,,,,0,0,0,67.00,-9.00,-1211.00,-57.00,0.00,-1338.00,31,12.00,1.00,4.42,0.00,1.00,0.00,0,,,100,100,0,1,0,0,0,0,6,,,,,0.0,0.0,0.0,0.0,0.0,0.0,0
33.737631,-118.104800,1.20,1.50,0.10,0.45,1.20,1.20,0.55,0.68,8304,2022-06-09 00:15:47.011,2022-06-08 17:15:47.011,16,0,0,16.157,33.737627,-118.104802,0.00,0.10,0.00,-6.80,-1.00,-121.10,0,1,0,79,100,-6654,2781,16157,3071.50,11,Sport,1,0,0,0,0,0,0,1654733747010,4100,4099,4095,4079,0,0,27,,,,,,,0,0,0,68.00,-10.00,-1211.00,-59.00,0.00,-1338.00,31,12.00,1.00,4.52,0.00,1.00,0.00,0,,,100,100,0,1,0,0,0,0,6,,,,,0.0,0.0,0.0,0.0,0.0,0.0,0
33.737631,-118.104800,1.20,1.50,0.10,0.47,1.20,1.20,0.55,0.68,8405,2022-06-09 00:15:47.112,2022-06-08 17:15:47.112,16,0,0,16.157,33.737627,-118.104802,0.00,0.10,0.00,-7.00,-0.80,-121.00,0,1,0,79,100,-6654,2781,16157,3071.50,11,Sport,1,0,0,0,0,0,0,1654733747111,4100,4099,4095,4079,0,0,27,,,,,,,0,0,0,70.00,-8.00,-1210.00,-61.00,0.00,-1338.00,31,12.00,1.00,4.66,0.00,1.00,0.00,0,,,100,100,0,1,0,0,0,0,6,,,,,0.0,0.0,0.0,0.0,0.0,0.0,0
33.737631,-118.104800,1.20,1.50,0.10,0.47,1.20,1.20,0.55,0.68,8505,2022-06-09 00:15:47.212,2022-06-08 17:15:47.212,16,0,0,16.157,33.737627,-118.104802,0.00,0.10,0.00,-7.20,-0.50,-121.00,0,1,0,79,100,-6654,2781,16157,3071.50,11,Sport,1,0,0,0,0,0,0,1654733747211,4100,4099,4095,4079,0,0,27,,,,,,,0,0,0,72.00,-5.00,-1210.00,-62.00,0.00,-1338.00,31,12.00,1.00,4.72,0.00,1.00,0.00,0,,,100,100,0,1,0,0,0,0,6,,,,,0.0,0.0,0.0,0.0,0.0,0.0,0
33.737631,-118.104800,1.20,1.50,0.10,0.48,1.20,1.20,0.55,0.68,8606,2022-06-09 00:15:47.312,2022-06-08 17:15:47.312,16,0,0,16.157,33.737627,-118.104802,0.00,0.10,0.00,-7.30,-0.50,-121.10,0,1,0,79,100,-6654,2781,16157,3071.50,11,Sport,1,0,0,0,0,0,0,1654733747312,4046,4038,4026,4010,0,0,27,,,,,,,0,0,0,73.00,-5.00,-1211.00,-64.00,0.00,-1338.00,31,12.00,1.00,4.84,0.00,1.00,0.00,0,,,100,100,0,1,0,0,0,0,6,,,,,0.0,0.0,0.0,0.0,0.0,0.0,0
33.737631,-118.104800,1.20,1.50,0.10,0.50,1.20,1.20,0.55,0.68,8706,2022-06-09 00:15:47.413,2022-06-08 17:15:47.413,16,0,0,16.157,33.737627,-118.104802,0.00,0.10,0.00,-7.50,-0.20,-121.10,0,1,0,79,100,-6654,2781,16157,3071.50,11,Sport,1,0,0,0,0,0,0,1654733747412,4046,4038,4026,4010,0,0,27,,,,,,,0,0,0,75.00,-2.00,-1211.00,-66.00,0.00,-1338.00,31,12.00,1.00,4.99,0.00,1.00,0.00,0,,,100,100,0,1,0,0,0,0,6,,,,,0.0,0.0,0.0,0.0,0.0,0.0,0
33.737631,-118.104799,1.20,1.50,0.10,0.51,1.20,1.20,0.55,0.68,8805,2022-06-09 00:15:47.512,2022-06-08 17:15:47.512,16,0,0,16.157,33.737627,-118.104802,0.00,0.10,0.00,-7.50,0.00,-121.20,0,1,0,79,100,-6654,2781,16157,3071.50,11,Sport,1,0,0,0,0,0,0,1654733747511,4046,4038,4026,4010,0,0,27,,,,,,,0,0,0,75.00,0.00,-1212.00,-65.00,0.00,-1338.00,31,12.00,1.00,5.10,0.00,1.00,0.00,0,,,100,100,0,1,0,0,0,0,6,,,,,0.0,0.0,0.0,0.0,0.0,0.0,0
33.737632,-118.104799,1.20,1.50,0.00,0.52,1.20,1.20,0.55,0.68,8906,2022-06-09 00:15:47.612,2022-06-08 17:15:47.612,16,0,0,16.157,33.737627,-118.104802,0.00,0.00,0.00,-7.50,0.20,-121.20,0,1,0,79,100,-6654,2781,16157,3071.50,11,Sport,1,0,0,0,0,0,0,1654733747612,4046,4038,4026,4010,0,0,27,,,,,,,0,0,0,75.00,2.00,-1212.00,-65.00,0.00,-1338.00,31,12.00,0.00,5.19,0.00,0.00,0.00,0,,,100,100,0,1,0,0,0,0,6,,,,,0.0,0.0,0.0,0.0,0.0,0.0,0
33.737632,-118.104799,1.20,1.50,0.00,0.54,1.20,1.20,0.55,0.68,9005,2022-06-09 00:15:47.712,2022-06-08 17:15:47.712,16,0,0,16.157,33.737627,-118.104802,0.00,0.00,0.00,-7.40,0.00,-121.20,0,1,0,79,100,-6654,2781,16157,3071.50,11,Sport,1,0,0,0,0,0,0,1654733747711,4046,4038,4026,4010,0,0,27,,,,,,,0,0,0,74.00,0.00,-1212.00,-65.00,0.00,-1338.00,31,12.00,0.00,5.38,0.00,0.00,0.00,0,,,100,100,0,1,0,0,0,0,6,,,,,0.0,0.0,0.0,0.0,0.0,0.0,0
33.737632,-118.104799,1.20,1.50,0.00,0.55,1.20,1.20,0.55,0.68,9105,2022-06-09 00:15:47.812,2022-06-08 17:15:47.812,15,0,0,16.157,33.737627,-118.104802,0.00,0.00,0.00,-7.30,0.00,-121.20,0,1,0,79,100,-6654,2781,16157,3071.50,11,Sport,1,0,0,0,0,0,0,1654733747811,4046,4038,4026,4010,0,0,27,,,,,,,0,0,0,73.00,0.00,-1212.00,-64.00,0.00,-1338.00,31,12.00,0.00,5.47,0.00,0.00,0.00,0,,,100,100,0,1,0,0,0,0,6,,,,,0.0,0.0,0.0,0.0,0.0,0.0,0
33.737632,-118.104799,1.20,1.50,0.00,0.54,1.20,1.20,0.55,0.68,9206,2022-06-09 00:15:47.913,2022-06-08 17:15:47.913,15,0,0,16.157,33.737627,-118.104802,0.00,0.00,0.00,-7.20,-0.10,-121.20,0,1,0,79,100,-6654,2781,16157,3071.50,11,Sport,1,0,0,0,0,-427,0,1654733747912,4046,4038,4026,4010,0,0,27,,,,,,,0,0,0,72.00,-1.00,-1212.00,-63.00,0.00,-1338.00,31,12.00,0.00,5.38,0.00,0.00,0.00,0,,,100,100,0,1,0,0,0,0,6,,,,,0.0,0.0,0.0,0.0,0.0,0.0,0
33.737632,-118.104799,1.20,1.50,0.00,0.55,1.20,1.20,0.55,0.68,9306,2022-06-09 00:15:48.012,2022-06-08 17:15:48.012,15,0,0,16.157,33.737627,-118.104802,0.00,0.00,0.00,-7.70,0.80,-125.40,0,1,0,79,100,-6654,2781,16157,3071.50,11,Sport,1,0,0,0,0,-660,0,1654733748012,4046,4038,4026,4010,0,0,27,,,,,,,0,0,0,77.00,8.00,-1254.00,-64.00,1.00,-1347.00,31,12.00,0.00,5.46,0.00,0.00,0.00,0,,,100,100,0,1,0,0,0,0,6,,,,,0.0,0.0,0.0,0.0,0.0,0.0,0
33.737632,-118.104799,1.20,1.50,0.00,0.55,1.20,1.20,0.55,0.68,9406,2022-06-09 00:15:48.112,2022-06-08 17:15:48.112,15,0,0,16.157,33.737627,-118.104802,0.00,0.00,0.00,-7.60,2.10,-137.40,0,1,0,79,100,-6654,2781,16157,3071.50,11,Sport,1,0,0,0,0,-593,0,1654733748112,4046,4038,4026,4010,0,0,27,,,,,,,0,0,0,76.00,21.00,-1374.00,-68.00,9.00,-1450.00,31,12.00,0.00,5.50,0.00,0.00,0.00,0,,,100,100,0,1,0,0,0,0,6,,,,,0.0,0.0,0.0,0.0,0.0,0.0,0
33.737632,-118.104799,1.20,1.50,0.00,0.55,1.20,1.20,0.55,0.68,9507,2022-06-09 00:15:48.213,2022-06-08 17:15:48.213,15,0,0,16.157,33.737627,-118.104802,0.00,0.00,0.00,-7.20,2.90,-150.10,0,1,0,79,100,-6654,2781,16157,3071.50,11,Sport,1,0,0,0,0,0,0,1654733748213,4046,4038,4026,4010,0,0,27,,,,,,,0,0,0,72.00,29.00,-1501.00,-64.00,12.00,-1604.00,31,12.00,0.00,5.51,0.00,0.00,0.00,0,,,100,100,0,1,0,0,0,0,6,,,,,0.0,0.0,0.0,0.0,0.0,0.0,0
33.737631,-118.104799,1.20,1.50,0.00,0.54,1.20,1.20,0.55,0.68,9606,2022-06-09 00:15:48.313,2022-06-08 17:15:48.313,15,0,0,16.157,33.737627,-118.104802,0.00,0.00,0.00,-6.00,2.60,-154.20,0,1,0,79,100,-6654,2781,16157,3071.50,11,Sport,1,0,0,0,0,551,0,1654733748312,4046,4038,4026,4010,0,0,27,,,,,,,0,0,0,60.00,26.00,-1542.00,-54.00,5.00,-1686.00,31,12.00,0.00,5.41,0.00,0.00,0.00,0,,,100,100,0,1,0,0,0,0,6,,,,,0.0,0.0,0.0,0.0,0.0,0.0,0
33.737631,-118.104799,1.20,1.50,0.00,0.53,1.20,1.20,0.55,0.68,9706,2022-06-09 00:15:48.413,2022-06-08 17:15:48.413,15,0,0,16.157,33.737627,-118.104802,0.00,0.00,0.00,-5.10,2.10,-152.30,0,1,0,79,100,-6654,2781,16157,3071.50,11,Sport,1,0,0,0,0,660,0,1654733748412,4046,4038,4026,4010,0,0,27,,,,,,,0,0,0,51.00,21.00,-1523.00,-45.00,0.00,-1687.00,31,12.00,0.00,5.34,0.00,0.00,0.00,0,,,100,100,0,1,0,0,0,0,6,,,,,0.0,0.0,0.0,0.0,0.0,0.0,0
33.737631,-118.104799,1.20,1.50,0.00,0.53,1.20,1.20,0.55,0.68,9807,2022-06-09 00:15:48.513,2022-06-08 17:15:48.513,15,0,0,16.157,33.737627,-118.104802,0.00,0.00,0.00,-4.80,1.70,-140.90,0,1,0,79,100,-6654,2781,16157,3071.50,11,Sport,1,0,0,0,0,660,0,1654733748513,4046,4038,4026,4010,0,0,27,,,,,,,0,0,0,48.00,17.00,-1409.00,-39.00,-7.00,-1584.00,31,12.00,0.00,5.29,0.00,0.00,0.00,0,,,100,100,0,1,0,0,0,0,6,,,,,0.0,0.0,0.0,0.0,0.0,0.0,0
33.737631,-118.104799,1.20,1.50,0.00,0.51,1.20,1.20,0.55,0.68,9906,2022-06-09 00:15:48.612,2022-06-08 17:15:48.612,15,0,0,16.157,33.737627,-118.104802,0.00,0.00,0.00,-4.90,2.00,-126.70,0,1,0,79,100,-6654,2781,16157,3071.50,11,Sport,1,0,0,0,0,660,0,1654733748612,4046,4038,4026,4010,0,0,27,,,,,,,0,0,0,49.00,20.00,-1267.00,-37.00,-9.00,-1429.00,31,12.00,0.00,5.13,0.00,0.00,0.00,0,,,100,100,0,1,0,0,0,0,6,,,,,0.0,0.0,0.0,0.0,0.0,0.0,0
33.737631,-118.104799,1.20,1.50,0.00,0.51,1.20,1.20,0.55,0.68,10006,2022-06-09 00:15:48.712,2022-06-08 17:15:48.713,15,0,0,16.157,33.737627,-118.104802,0.00,0.00,0.00,-5.40,0.90,-112.00,0,1,0,79,100,-6654,2781,16157,3071.50,11,Sport,1,0,0,0,0,400,0,1654733748712,4046,4038,4026,4010,0,0,27,,,,,,,0,0,0,54.00,9.00,-1120.00,-41.00,-10.00,-1272.00,31,12.00,0.00,5.10,0.00,0.00,0.00,0,,,100,100,0,1,0,0,0,0,6,,,,,0.0,0.0,0.0,0.0,0.0,0.0,0
33.737631,-118.104799,1.20,1.50,0.00,0.51,1.20,1.20,0.55,0.68,10106,2022-06-09 00:15:48.813,2022-06-08 17:15:48.813,15,0,0,16.131,33.737627,-118.104802,0.00,0.00,0.00,-5.40,0.20,-102.10,0,1,0,79,100,-6789,2777,16131,3071.50,11,Sport,1,0,0,0,0,0,0,1654733748812,4046,4038,4026,4010,0,0,27,,,,,,,0,0,0,54.00,2.00,-1021.00,-40.00,-7.00,-1144.00,31,12.00,0.00,5.07,0.00,0.00,0.00,0,,,100,100,0,1,0,0,0,0,6,,,,,0.0,0.0,0.0,0.0,0.0,0.0,0
33.737631,-118.104799,1.20,1.50,0.00,0.51,1.20,1.20,0.55,0.68,10157,2022-06-09 00:15:48.863,2022-06-08 17:15:48.863,15,0,0,16.131,33.737627,-118.104802,0.00,0.00,0.00,-6.40,-0.30,-98.10,0,1,0,79,100,-6789,2777,16131,3071.50,11,Sport,1,0,0,0,0,-8,0,1654733748863,4046,4038,4026,4010,0,0,27,,,,,,,0,0,0,64.00,-3.00,-981.00,-48.00,-2.00,-1088.00,31,12.00,0.00,5.08,0.00,0.00,0.00,0,,,100,100,0,1,0,0,0,0,6,,,,,0.0,0.0,0.0,0.0,0.0,0.0,0
33.737631,-118.104799,1.20,1.50,0.00,0.54,1.20,1.20,0.55,0.68,10307,2022-06-09 00:15:49.013,2022-06-08 17:15:49.013,15,0,0,16.131,33.737627,-118.104802,0.00,0.00,0.00,-6.00,-1.30,-96.90,0,1,0,79,100,-6789,2777,16131,3071.50,11,Sport,1,0,0,0,27,-655,0,1654733749013,4046,4038,4026,4010,0,0,27,,,,,,,0,0,0,60.00,-13.00,-969.00,-50.00,0.00,-1082.00,31,12.00,0.00,5.40,0.00,0.00,0.00,0,,,100,100,0,1,0,0,0,0,6,,,,,0.0,0.0,0.0,0.0,0.0,0.0,0
33.737632,-118.104799,1.20,1.50,0.00,0.55,1.20,1.20,0.55,0.68,10407,2022-06-09 00:15:49.114,2022-06-08 17:15:49.114,15,0,0,16.131,33.737627,-118.104802,0.00,0.00,0.00,-5.70,-1.70,-104.10,0,1,0,79,100,-6789,2777,16131,3071.50,11,Sport,1,0,0,0,23,-660,0,1654733749113,4046,4038,4026,4010,0,0,27,,,,,,,0,0,0,57.00,-17.00,-1041.00,-47.00,3.00,-1112.00,31,12.00,0.00,5.45,0.00,0.00,0.00,0,,,100,100,0,1,0,0,0,0,6,,,,,0.0,0.0,0.0,0.0,0.0,0.0,0
33.737632,-118.104799,1.20,1.40,0.00,0.56,1.20,1.20,0.55,0.68,10506,2022-06-09 00:15:49.213,2022-06-08 17:15:49.213,16,0,0,16.131,33.737627,-118.104802,0.00,0.00,0.00,-5.40,-1.90,-116.60,0,1,0,79,100,-6789,2777,16131,3071.50,11,Sport,1,0,0,0,0,-660,0,1654733749212,4046,4038,4026,4010,0,0,27,,,,,,,0,0,0,54.00,-19.00,-1166.00,-45.00,9.00,-1243.00,31,12.00,0.00,5.62,0.00,0.00,0.00,0,,,100,100,0,1,0,0,0,0,6,,,,,0.0,0.0,0.0,0.0,0.0,0.0,0
33.737632,-118.104799,1.20,1.40,0.00,0.57,1.20,1.20,0.55,0.68,10607,2022-06-09 00:15:49.313,2022-06-08 17:15:49.313,16,0,0,16.131,33.737627,-118.104802,0.00,0.00,0.00,-5.60,-1.20,-131.00,0,1,0,79,100,-6789,2777,16131,3071.50,11,Sport,1,0,0,0,0,-53,0,1654733749313,4046,4038,4026,4010,0,0,27,,,,,,,0,0,0,56.00,-12.00,-1310.00,-49.00,10.00,-1400.00,31,12.00,0.00,5.67,0.00,0.00,0.00,0,,,100,100,0,1,0,0,0,0,6,,,,,0.0,0.0,0.0,0.0,0.0,0.0,0
33.737632,-118.104799,1.10,1.40,0.00,0.58,1.20,1.20,0.55,0.68,10706,2022-06-09 00:15:49.413,2022-06-08 17:15:49.413,16,0,0,16.131,33.737627,-118.104802,0.00,0.00,0.00,-5.50,-1.20,-139.50,0,1,0,79,100,-6789,2777,16131,3071.50,11,Sport,1,0,0,0,0,0,0,1654733749412,4046,4038,4026,4010,0,0,27,,,,,,,0,0,0,55.00,-12.00,-1395.00,-48.00,8.00,-1541.00,31,11.00,0.00,5.75,0.00,0.00,0.00,0,,,100,100,0,1,0,0,0,0,6,,,,,0.0,0.0,0.0,0.0,0.0,0.0,0
33.737632,-118.104799,1.10,1.40,0.00,0.58,1.20,1.20,0.55,0.68,10807,2022-06-09 00:15:49.514,2022-06-08 17:15:49.514,16,0,0,16.131,33.737627,-118.104802,0.00,0.00,0.00,-5.90,-0.20,-142.60,0,1,0,79,100,-6789,2777,16131,3071.50,11,Sport,1,0,0,0,0,379,0,1654733749513,4046,4038,4026,4010,0,0,27,,,,,,,0,0,0,59.00,-2.00,-1426.00,-49.00,1.00,-1574.00,31,11.00,0.00,5.79,0.00,0.00,0.00,0,,,100,100,0,1,0,0,0,0,6,,,,,0.0,0.0,0.0,0.0,0.0,0.0,0
33.737632,-118.104799,1.10,1.40,0.00,0.55,1.20,1.20,0.55,0.68,10906,2022-06-09 00:15:49.613,2022-06-08 17:15:49.613,16,0,0,16.131,33.737627,-118.104802,0.00,0.00,0.00,-6.40,0.20,-141.80,0,1,0,79,100,-6789,2777,16131,3071.50,11,Sport,1,0,0,0,0,660,0,1654733749612,4046,4038,4026,4010,0,0,27,,,,,,,0,0,0,64.00,2.00,-1418.00,-55.00,0.00,-1575.00,31,11.00,0.00,5.54,0.00,0.00,0.00,0,,,100,100,0,1,0,0,0,0,6,,,,,0.0,0.0,0.0,0.0,0.0,0.0,0
33.737632,-118.104799,1.10,1.40,0.00,0.55,1.20,1.20,0.55,0.68,11007,2022-06-09 00:15:49.713,2022-06-08 17:15:49.713,16,0,0,16.131,33.737627,-118.104802,0.00,0.00,0.00,-5.90,0.10,-131.60,0,1,0,79,100,-6789,2777,16131,3071.50,11,Sport,1,0,0,0,0,660,0,1654733749713,4046,4038,4026,4010,0,0,27,,,,,,,0,0,0,59.00,1.00,-1316.00,-52.00,-6.00,-1497.00,31,11.00,0.00,5.52,0.00,0.00,0.00,0,,,100,100,0,1,0,0,0,0,6,,,,,0.0,0.0,0.0,0.0,0.0,0.0,0
33.737632,-118.104799,1.10,1.40,0.00,0.54,1.20,1.20,0.55,0.68,11107,2022-06-09 00:15:49.813,2022-06-08 17:15:49.813,16,0,0,16.131,33.737627,-118.104802,0.00,0.00,0.00,-5.80,0.10,-118.10,0,1,0,79,100,-6789,2777,16131,3071.50,11,Sport,1,0,0,0,0,0,0,1654733749813,4046,4038,4026,4010,0,0,27,,,,,,,0,0,0,58.00,1.00,-1181.00,-46.00,-10.00,-1346.00,31,11.00,0.00,5.44,0.00,0.00,0.00,0,,,100,100,0,1,0,0,0,0,6,,,,,0.0,0.0,0.0,0.0,0.0,0.0,0
33.737632,-118.104799,1.10,1.40,0.00,0.54,1.20,1.20,0.55,0.68,11207,2022-06-09 00:15:49.914,2022-06-08 17:15:49.914,16,0,0,16.131,33.737627,-118.104802,0.00,0.00,0.00,-6.00,0.50,-111.00,0,1,0,79,100,-6789,2777,16131,3071.50,11,Sport,1,0,0,0,0,0,0,1654733749913,4046,4038,4026,4010,0,0,27,,,,,,,0,0,0,60.00,5.00,-1110.00,-46.00,-7.00,-1219.00,31,11.00,0.00,5.41,0.00,0.00,0.00,0,,,100,100,0,1,0,0,0,0,6,,,,,0.0,0.0,0.0,0.0,0.0,0.0,0
33.737632,-118.104799,1.10,1.40,0.00,0.54,1.20,1.20,0.55,0.68,11308,2022-06-09 00:15:50.014,2022-06-08 17:15:50.014,16,0,0,16.131,33.737627,-118.104802,0.00,0.00,0.00,-5.80,0.00,-108.50,0,1,0,79,100,-6789,2777,16131,3071.50,11,Sport,1,0,0,0,0,0,0,1654733750014,4046,4038,4026,4010,0,0,27,,,,,,,0,0,0,58.00,0.00,-1085.00,-47.00,-1.00,-1196.00,31,11.00,0.00,5.43,0.00,0.00,0.00,0,,,100,100,0,1,0,0,0,0,6,,,,,0.0,0.0,0.0,0.0,0.0,0.0,0
33.737632,-118.104799,1.10,1.40,0.00,0.54,1.20,1.20,0.55,0.68,11407,2022-06-09 00:15:50.114,2022-06-08 17:15:50.114,16,0,0,16.131,33.737627,-118.104802,0.00,0.00,0.00,-5.70,-0.40,-107.50,0,1,0,79,100,-6789,2777,16131,3071.50,11,Sport,1,0,0,0,0,0,0,1654733750113,4046,4038,4026,4010,0,0,27,,,,,,,0,0,0,57.00,-4.00,-1075.00,-45.00,0.00,-1194.00,31,11.00,0.00,5.42,0.00,0.00,0.00,0,,,100,100,0,1,0,0,0,0,6,,,,,0.0,0.0,0.0,0.0,0.0,0.0,0
33.737632,-118.104799,1.10,1.40,0.00,0.56,1.20,1.20,0.55,0.68,11508,2022-06-09 00:15:50.214,2022-06-08 17:15:50.214,16,0,0,16.131,33.737627,-118.104802,0.00,0.00,0.00,-5.40,-1.20,-107.20,0,1,0,79,100,-6789,2777,16131,3071.50,11,Sport,1,0,0,0,69,0,0,1654733750214,4046,4038,4026,4010,0,0,27,,,,,,,0,0,0,54.00,-12.00,-1072.00,-44.00,0.00,-1194.00,31,11.00,0.00,5.62,0.00,0.00,0.00,0,,,100,100,0,1,0,0,0,0,6,,,,,0.0,0.0,0.0,0.0,0.0,0.0,0
33.737632,-118.104799,1.10,1.40,0.00,0.57,1.20,1.20,0.55,0.68,11609,2022-06-09 00:15:50.315,2022-06-08 17:15:50.315,16,0,0,16.131,33.737627,-118.104802,0.00,0.00,0.00,-5.50,-2.00,-107.10,0,1,0,79,100,-6789,2777,16131,3071.50,11,Sport,1,0,0,0,168,0,0,1654733750315,4046,4038,4026,4010,0,0,27,,,,,,,0,0,0,55.00,-20.00,-1071.00,-43.00,0.00,-1194.00,31,11.00,0.00,5.67,0.00,0.00,0.00,0,,,100,100,0,1,0,0,0,0,6,,,,,0.0,0.0,0.0,0.0,0.0,0.0,0
33.737632,-118.104799,1.10,1.40,0.00,0.58,1.20,1.20,0.55,0.68,11708,2022-06-09 00:15:50.414,2022-06-08 17:15:50.414,16,0,0,16.131,33.737627,-118.104802,0.00,0.00,0.00,-5.80,-2.10,-107.00,0,1,0,79,100,-6789,2777,16131,3071.50,11,Sport,1,0,0,0,181,0,0,1654733750414,4046,4038,4026,4010,0,0,27,,,,,,,0,0,0,58.00,-21.00,-1070.00,-47.00,0.00,-1194.00,31,11.00,0.00,5.83,0.00,0.00,0.00,0,,,100,100,0,1,0,0,0,0,6,,,,,0.0,0.0,0.0,0.0,0.0,0.0,0
33.737632,-118.104799,1.10,1.40,0.10,0.59,1.20,1.20,0.55,0.68,11807,2022-06-09 00:15:50.514,2022-06-08 17:15:50.514,16,0,0,16.131,33.737627,-118.104802,0.00,0.00,-0.10,-5.40,-2.50,-106.90,0,1,0,79,100,-6789,2777,16131,3071.50,11,Sport,1,0,0,0,179,0,0,1654733750513,4046,4038,4026,4010,0,0,27,,,,,,,0,0,0,54.00,-25.00,-1069.00,-45.00,0.00,-1194.00,31,11.00,1.00,5.90,0.00,0.00,-1.00,0,,,100,100,0,1,0,0,0,0,6,,,,,0.0,0.0,0.0,0.0,0.0,0.0,0
33.737632,-118.104799,1.10,1.40,0.20,0.60,1.20,1.20,0.55,0.68,11908,2022-06-09 00:15:50.615,2022-06-08 17:15:50.615,16,0,0,16.131,33.737627,-118.104802,0.00,0.00,-0.20,-5.80,-3.00,-106.70,0,1,0,79,100,-6789,2777,16131,3071.50,11,Sport,1,0,0,0,13,0,0,1654733750614,4046,4038,4026,4010,0,0,27,,,,,,,0,0,0,58.00,-30.00,-1067.00,-46.00,0.00,-1195.00,31,11.00,2.00,5.97,0.00,0.00,-2.00,0,,,100,100,0,1,0,0,0,0,6,,,,,0.0,0.0,0.0,0.0,0.0,0.0,0
33.737632,-118.104799,1.20,1.40,0.10,0.60,1.20,1.20,0.55,0.68,12008,2022-06-09 00:15:50.714,2022-06-08 17:15:50.715,16,0,0,16.131,33.737627,-118.104802,0.00,0.00,-0.10,-6.70,-2.70,-106.60,0,1,0,79,100,-6789,2777,16131,3071.50,11,Sport,1,0,0,0,0,0,0,1654733750714,4046,4038,4026,4010,0,0,27,,,,,,,0,0,0,67.00,-27.00,-1066.00,-52.00,0.00,-1194.00,31,12.00,1.00,6.04,0.00,0.00,-1.00,0,,,100,100,0,1,0,0,0,0,6,,,,,0.0,0.0,0.0,0.0,0.0,0.0,0
33.737632,-118.104799,1.20,1.40,0.00,0.60,1.20,1.20,0.55,0.68,12108,2022-06-09 00:15:50.814,2022-06-08 17:15:50.814,16,0,0,16.117,33.737627,-118.104802,0.00,0.00,0.00,-6.40,-2.70,-106.70,0,1,0,79,100,-7208,2774,16117,3071.50,11,Sport,1,0,0,0,0,0,0,1654733750814,4046,4038,4026,4010,0,0,27,,,,,,,0,0,0,64.00,-27.00,-1067.00,-57.00,0.00,-1195.00,31,12.00,0.00,5.99,0.00,0.00,0.00,0,,,100,100,0,1,0,0,0,0,6,,,,,0.0,0.0,0.0,0.0,0.0,0.0,0
33.737632,-118.104799,1.20,1.40,0.00,0.60,1.20,1.20,0.55,0.68,12208,2022-06-09 00:15:50.914,2022-06-08 17:15:50.914,16,0,0,16.117,33.737627,-118.104802,0.00,0.00,0.00,-6.00,-2.80,-106.70,0,1,0,79,100,-7208,2774,16117,3071.50,11,Sport,1,0,0,0,0,0,0,1654733750914,4046,4038,4026,4010,0,0,27,,,,,,,0,0,0,60.00,-28.00,-1067.00,-50.00,0.00,-1194.00,31,12.00,0.00,6.03,0.00,0.00,0.00,0,,,100,100,0,1,0,0,0,0,6,,,,,0.0,0.0,0.0,0.0,0.0,0.0,0
33.737633,-118.104799,1.20,1.40,0.00,0.62,1.20,1.20,0.55,0.68,12308,2022-06-09 00:15:51.014,2022-06-08 17:15:51.014,16,0,0,16.117,33.737627,-118.104802,0.00,0.00,0.00,-6.10,-2.60,-106.80,0,1,0,79,100,-7208,2774,16117,3071.50,11,Sport,1,0,0,0,0,0,0,1654733751014,4046,4038,4026,4010,0,0,27,,,,,,,0,0,0,61.00,-26.00,-1068.00,-48.00,0.00,-1194.00,31,12.00,0.00,6.17,0.00,0.00,0.00,0,,,100,100,0,1,0,0,0,0,6,,,,,0.0,0.0,0.0,0.0,0.0,0.0,0
33.737633,-118.104799,1.20,1.40,0.00,0.62,1.20,1.20,0.55,0.68,12408,2022-06-09 00:15:51.114,2022-06-08 17:15:51.114,16,0,0,16.117,33.737627,-118.104802,0.00,0.00,0.00,-6.10,-2.50,-106.70,0,1,0,79,100,-7208,2774,16117,3071.50,11,Sport,1,0,0,0,0,0,0,1654733751114,4046,4038,4026,4010,0,0,27,,,,,,,0,0,0,61.00,-25.00,-1067.00,-50.00,0.00,-1194.00,31,12.00,0.00,6.21,0.00,0.00,0.00,0,,,100,100,0,1,0,0,0,0,6,,,,,0.0,0.0,0.0,0.0,0.0,0.0,0
33.737633,-118.104799,1.20,1.40,0.00,0.62,1.20,1.20,0.55,0.68,12509,2022-06-09 00:15:51.216,2022-06-08 17:15:51.216,16,0,0,16.117,33.737627,-118.104802,0.00,0.00,0.00,-6.00,-2.30,-106.70,0,1,0,79,100,-7208,2774,16117,3071.50,11,Sport,1,0,0,0,0,0,0,1654733751215,4046,4038,4026,4010,0,0,27,,,,,,,0,0,0,60.00,-23.00,-1067.00,-50.00,0.00,-1194.00,31,12.00,0.00,6.20,0.00,0.00,0.00,0,,,100,100,0,1,0,0,0,0,6,,,,,0.0,0.0,0.0,0.0,0.0,0.0,0
33.737633,-118.104799,1.20,1.40,0.00,0.62,1.20,1.20,0.55,0.68,12608,2022-06-09 00:15:51.314,2022-06-08 17:15:51.314,16,0,0,16.117,33.737627,-118.104802,0.00,0.00,0.00,-6.20,-2.20,-106.80,0,1,0,79,100,-7208,2774,16117,3071.50,11,Sport,1,0,0,0,0,0,0,1654733751314,4046,4038,4026,4010,0,0,27,,,,,,,0,0,0,62.00,-22.00,-1068.00,-50.00,0.00,-1194.00,31,12.00,0.00,6.21,0.00,0.00,0.00,0,,,100,100,0,1,0,0,0,0,6,,,,,0.0,0.0,0.0,0.0,0.0,0.0,0
33.737632,-118.104799,1.20,1.40,0.00,0.61,1.20,1.20,0.55,0.68,12708,2022-06-09 00:15:51.414,2022-06-08 17:15:51.414,16,0,0,16.117,33.737627,-118.104802,0.00,0.00,0.00,-6.00,-2.00,-106.70,0,1,0,79,100,-7208,2774,16117,3071.50,11,Sport,1,0,0,0,0,0,0,1654733751414,4046,4038,4026,4010,0,0,27,,,,,,,0,0,0,60.00,-20.00,-1067.00,-50.00,0.00,-1194.00,31,12.00,0.00,6.12,0.00,0.00,0.00,0,,,100,100,0,1,0,0,0,0,6,,,,,0.0,0.0,0.0,0.0,0.0,0.0,0
33.737632,-118.104799,1.20,1.40,0.00,0.61,1.20,1.20,0.55,0.68,12808,2022-06-09 00:15:51.515,2022-06-08 17:15:51.515,16,0,0,16.117,33.737627,-118.104802,0.00,0.00,0.00,-5.80,-2.10,-106.80,0,1,0,79,100,-7208,2774,16117,3071.50,11,Sport,1,0,0,0,0,0,0,1654733751514,4046,4038,4026,4010,0,0,27,,,,,,,0,0,0,58.00,-21.00,-1068.00,-48.00,0.00,-1194.00,31,12.00,0.00,6.11,0.00,0.00,0.00,0,,,100,100,0,1,0,0,0,0,6,,,,,0.0,0.0,0.0,0.0,0.0,0.0,0
33.737632,-118.104799,1.10,1.40,0.00,0.61,1.20,1.20,0.55,0.68,12908,2022-06-09 00:15:51.614,2022-06-08 17:15:51.615,16,0,0,16.117,33.737627,-118.104802,0.00,0.00,0.00,-5.70,-2.20,-106.70,0,1,0,79,100,-7208,2774,16117,3071.50,11,Sport,1,0,0,0,0,0,0,1654733751614,4046,4038,4026,4010,0,0,27,,,,,,,0,0,0,57.00,-22.00,-1067.00,-45.00,0.00,-1194.00,31,11.00,0.00,6.08,0.00,0.00,0.00,0,,,100,100,0,1,0,0,0,0,6,,,,,0.0,0.0,0.0,0.0,0.0,0.0,0
33.737632,-118.104799,1.10,1.40,0.00,0.61,1.20,1.20,0.55,0.68,13009,2022-06-09 00:15:51.716,2022-06-08 17:15:51.716,16,0,0,16.117,33.737627,-118.104802,0.00,0.00,0.00,-5.60,-1.90,-106.70,0,1,0,79,100,-7208,2774,16117,3071.50,11,Sport,1,0,0,0,0,0,0,1654733751715,4046,4038,4026,4010,0,0,27,,,,,,,0,0,0,56.00,-19.00,-1067.00,-45.00,0.00,-1194.00,31,11.00,0.00,6.06,0.00,0.00,0.00,0,,,100,100,0,1,0,0,0,0,6,,,,,0.0,0.0,0.0,0.0,0.0,0.0,0
33.737632,-118.104799,1.10,1.40,0.00,0.61,1.20,1.20,0.55,0.68,13108,2022-06-09 00:15:51.815,2022-06-08 17:15:51.815,16,0,0,16.117,33.737627,-118.104802,0.00,0.00,0.00,-5.60,-1.80,-106.70,0,1,0,79,100,-7208,2774,16117,3071.50,11,Sport,1,0,0,0,0,0,0,1654733751814,4046,4038,4026,4010,0,0,27,,,,,,,0,0,0,56.00,-18.00,-1067.00,-45.00,0.00,-1194.00,31,11.00,0.00,6.07,0.00,0.00,0.00,0,,,100,100,0,1,0,0,0,0,6,,,,,0.0,0.0,0.0,0.0,0.0,0.0,0
33.737632,-118.104799,1.10,1.40,0.00,0.61,1.20,1.20,0.55,0.68,13208,2022-06-09 00:15:51.914,2022-06-08 17:15:51.914,16,0,0,16.117,33.737627,-118.104802,0.00,0.00,0.00,-5.50,-1.90,-106.70,0,1,0,79,100,-7208,2774,16117,3071.50,11,Sport,1,0,0,0,0,0,0,1654733751914,4046,4038,4026,4010,0,0,27,,,,,,,0,0,0,55.00,-19.00,-1067.00,-44.00,0.00,-1194.00,31,11.00,0.00,6.06,0.00,0.00,0.00,0,,,100,100,0,1,0,0,0,0,6,,,,,0.0,0.0,0.0,0.0,0.0,0.0,0
33.737632,-118.104799,1.10,1.40,0.00,0.59,1.20,1.20,0.55,0.68,13308,2022-06-09 00:15:52.015,2022-06-08 17:15:52.015,16,0,0,16.117,33.737627,-118.104802,0.00,0.00,0.00,-5.40,-2.20,-106.60,0,1,0,79,100,-7208,2774,16117,3071.50,11,Sport,1,0,0,0,0,0,0,1654733752014,4046,4038,4026,4010,0,0,27,,,,,,,0,0,0,54.00,-22.00,-1066.00,-43.00,0.00,-1194.00,31,11.00,0.00,5.90,0.00,0.00,0.00,0,,,100,100,0,1,0,0,0,0,6,,,,,0.0,0.0,0.0,0.0,0.0,0.0,0
33.737632,-118.104800,1.10,1.40,0.00,0.59,1.20,1.20,0.55,0.68,13409,2022-06-09 00:15:52.115,2022-06-08 17:15:52.115,16,0,0,16.117,33.737627,-118.104802,0.00,0.00,0.00,-5.40,-2.00,-106.70,0,1,0,79,100,-7208,2774,16117,3071.50,11,Sport,1,0,0,0,0,0,0,1654733752115,4046,4038,4026,4010,0,0,27,,,,,,,0,0,0,54.00,-20.00,-1067.00,-43.00,0.00,-1194.00,31,11.00,0.00,5.87,0.00,0.00,0.00,0,,,100,100,0,1,0,0,0,0,6,,,,,0.0,0.0,0.0,0.0,0.0,0.0,0
