latitude,longitude,altitude(m),ultrasonicHeight(m),speed(mps),distance(m),max_altitude(m),max_ascent(m),max_speed(mps),max_distance(m),time(millisecond),datetime(utc),datetime(local),satellites,pressure(Pa),temperature(F),voltage(v),home_latitude,home_longitude,velocityX(mps),velocityY(mps),velocityZ(mps),pitch(deg),roll(deg),yaw(deg),powerlevel,isflying,istakingphoto,remainPowerPercent,remainLifePercent,currentCurrent,currentElectricity,currentVoltage,batteryTemperature,dischargeCount,flightmode,isMotorsOn,isTakingVideo,Rc_elevator,Rc_aileron,Rc_throttle,Rc_rudder,Rc_gyro,timestamp,Battery_Cell1,Battery_Cell2,Battery_Cell3,Battery_Cell4,Battery_Cell5,Battery_Cell6,Dronetype,AppVersion,Planename,FlyControllerSerialNumber,RemoteSerialNumber,BatterySerialNumber,CENTER_BATTERY.productDate,CENTER_BATTERY.serialNo,CENTER_BATTERY.fullCapacity,CENTER_BATTERY.productDateRaw,pitchRaw,rollRaw,yawRaw,gimbalPitchRaw,gimbalRollRaw,gimbalYawRaw,flyState,altitudeRaw,speedRaw,distanceRaw,velocityXRaw,velocityYRaw,velocityZRaw,data_reuse,App_Tip,App_Warning,downlinkSignalQuality,uplinkSignalQuality,transmissionChannel,rcModeSwitch,rcHome,rcPause,rcTransform,rcJoystickMode,appMode,FlyControllerSerialNumber_legacy,RemoteSerialNumber_legacy,BatterySerialNumber_legacy,Battery2SerialNumber,frontAvoidDist,backAvoidDist,rightAvoidDist,leftAvoidDist,upAvoidDist,downAvoidDist,isBrakingToAvoid
34.182585,-118.129109,0.30,0.40,0.40,0.14,0.30,0.30,0.40,0.14,1,2022-06-08 14:31:45.544,2022-06-08 07:31:45.544,16,0,0,16.448,34.182586,-118.129110,0.00,0.00,-0.40,1.20,0.00,165.70,0,1,0,91,100,-4161,3324,16448,2991.50,1,TakeOff,1,0,0,0,0,0,0,1654698705543,4213,4207,4210,4210,0,0,27,Litchi_iOS_2.14.0,Brian-MAVIC 2,163DFCK001S13F,1DUCFB800104PR,0P2AG1J53400UY,,0,3693,0,-12.00,0.00,1657.00,0.00,0.00,1659.00,11,3.00,4.00,1.41,0.00,0.00,-4.00,0,,,100,100,0,2,0,0,0,1,0,(null),(null),(null),(null),0.0,0.0,0.0,0.0,0.0,0.0,0
34.182584,-118.129109,0.40,0.40,0.40,0.17,0.40,0.40,0.40,0.17,100,2022-06-08 14:31:45.642,2022-06-08 07:31:45.642,16,0,0,16.448,34.182586,-118.129110,0.00,0.00,-0.40,1.10,0.00,165.70,0,1,0,91,100,-4161,3324,16448,2991.50,1,TakeOff,1,0,0,0,0,0,0,1654698705642,4213,4207,4210,4210,0,0,27,,,,,,,0,0,0,-11.00,0.00,1657.00,0.00,0.00,1659.00,11,4.00,4.00,1.74,0.00,0.00,-4.00,0,,,100,100,0,2,0,0,0,1,0,,,,,0.0,0.0,0.0,0.0,0.0,0.0,0
34.182584,-118.129109,0.40,0.50,0.40,0.18,0.40,0.40,0.40,0.18,200,2022-06-08 14:31:45.743,2022-06-08 07:31:45.743,16,0,0,16.448,34.182586,-118.129110,0.00,0.00,-0.40,0.70,0.00,165.70,0,1,0,91,100,-4161,3324,16448,2991.50,1,TakeOff,1,0,0,0,0,0,0,1654698705742,4213,4207,4210,4210,0,0,27,,,,,,,0,0,0,-7.00,0.00,1657.00,0.00,0.00,1658.00,11,4.00,4.00,1.78,0.00,0.00,-4.00,0,,,100,100,0,2,0,0,0,1,0,,,,,0.0,0.0,0.0,0.0,0.0,0.0,0
34.182584,-118.129109,0.50,0.50,0.40,0.19,0.50,0.50,0.40,0.19,299,2022-06-08 14:31:45.842,2022-06-08 07:31:45.842,16,0,0,16.448,34.182586,-118.129110,0.00,0.00,-0.40,0.40,0.00,165.70,0,1,0,91,100,-4161,3324,16448,2991.50,1,TakeOff,1,0,0,0,0,0,0,1654698705841,4213,4207,4210,4210,0,0,27,,,,,,,0,0,0,-4.00,0.00,1657.00,0.00,0.00,1658.00,11,5.00,4.00,1.92,0.00,0.00,-4.00,0,,,100,100,0,2,0,0,0,1,0,,,,,0.0,0.0,0.0,0.0,0.0,0.0,0
34.182584,-118.129109,0.50,0.60,0.40,0.20,0.50,0.50,0.40,0.20,400,2022-06-08 14:31:45.943,2022-06-08 07:31:45.943,16,0,0,16.448,34.182586,-118.129110,0.00,0.00,-0.40,0.20,0.00,165.70,0,1,0,91,100,-4161,3324,16448,2991.50,1,TakeOff,1,0,0,0,0,0,0,1654698705942,4213,4207,4210,4210,0,0,27,,,,,,,0,0,0,-2.00,0.00,1657.00,0.00,0.00,1658.00,11,5.00,4.00,1.96,0.00,0.00,-4.00,0,,,100,100,0,2,0,0,0,1,0,,,,,0.0,0.0,0.0,0.0,0.0,0.0,0
34.182585,-118.129109,0.60,0.60,0.50,0.17,0.60,0.60,0.50,0.20,501,2022-06-08 14:31:46.043,2022-06-08 07:31:46.043,16,0,0,16.210,34.182586,-118.129110,0.00,0.00,-0.50,0.20,0.00,165.70,0,1,0,90,100,-7102,3321,16210,2991.50,1,TakeOff,1,0,0,0,0,0,0,1654698706043,4213,4207,4210,4210,0,0,27,,,,,,,0,0,0,-2.00,0.00,1657.00,0.00,0.00,1658.00,11,6.00,5.00,1.69,0.00,0.00,-5.00,0,,,100,100,0,2,0,0,0,1,0,,,,,0.0,0.0,0.0,0.0,0.0,0.0,0
34.182585,-118.129109,0.60,0.70,0.50,0.17,0.60,0.60,0.50,0.20,601,2022-06-08 14:31:46.143,2022-06-08 07:31:46.143,16,0,0,16.210,34.182586,-118.129110,0.00,0.00,-0.50,0.30,-0.10,165.70,0,1,0,90,100,-7102,3321,16210,2991.50,1,TakeOff,1,0,0,0,0,0,0,1654698706143,4213,4207,4210,4210,0,0,27,,,,,,,0,0,0,-3.00,-1.00,1657.00,0.00,0.00,1658.00,11,6.00,5.00,1.70,0.00,0.00,-5.00,0,,,100,100,0,2,0,0,0,1,0,,,,,0.0,0.0,0.0,0.0,0.0,0.0,0
34.182584,-118.129109,0.70,0.70,0.50,0.20,0.70,0.70,0.50,0.20,700,2022-06-08 14:31:46.242,2022-06-08 07:31:46.242,16,0,0,16.210,34.182586,-118.129110,0.00,0.00,-0.50,0.30,-0.30,165.60,0,1,0,90,100,-7102,3321,16210,2991.50,1,TakeOff,1,0,0,0,0,0,0,1654698706242,4213,4207,4210,4210,0,0,27,,,,,,,0,0,0,-3.00,-3.00,1656.00,0.00,0.00,1658.00,11,7.00,5.00,1.98,0.00,0.00,-5.00,0,,,100,100,0,2,0,0,0,1,0,,,,,0.0,0.0,0.0,0.0,0.0,0.0,0
34.182584,-118.129109,0.70,0.80,0.50,0.20,0.70,0.70,0.50,0.20,800,2022-06-08 14:31:46.343,2022-06-08 07:31:46.343,16,0,0,16.210,34.182586,-118.129110,0.00,0.00,-0.50,0.20,-0.30,165.70,0,1,0,90,100,-7102,3321,16210,2991.50,1,TakeOff,1,0,0,0,0,0,0,1654698706342,4213,4207,4210,4210,0,0,27,,,,,,,0,0,0,-2.00,-3.00,1657.00,0.00,0.00,1658.00,11,7.00,5.00,2.02,0.00,0.00,-5.00,0,,,100,100,0,2,0,0,0,1,0,,,,,0.0,0.0,0.0,0.0,0.0,0.0,0
34.182584,-118.129109,0.80,0.80,0.50,0.21,0.80,0.80,0.50,0.21,901,2022-06-08 14:31:46.444,2022-06-08 07:31:46.444,16,0,0,16.210,34.182586,-118.129110,0.00,0.00,-0.50,0.30,-0.30,165.70,0,1,0,90,100,-7102,3321,16210,2991.50,1,TakeOff,1,0,0,0,0,0,0,1654698706443,4213,4207,4210,4210,0,0,27,,,,,,,0,0,0,-3.00,-3.00,1657.00,0.00,0.00,1658.00,11,8.00,5.00,2.06,0.00,0.00,-5.00,0,,,100,100,0,2,0,0,0,1,0,,,,,0.0,0.0,0.0,0.0,0.0,0.0,0
34.182584,-118.129109,0.80,0.90,0.50,0.21,0.80,0.80,0.50,0.21,953,2022-06-08 14:31:46.496,2022-06-08 07:31:46.496,16,0,0,16.210,34.182586,-118.129110,0.00,0.00,-0.50,0.40,-0.20,165.70,0,1,0,90,100,-7102,3321,16210,2991.50,1,TakeOff,1,0,0,0,0,0,0,1654698706495,4213,4207,4210,4210,0,0,27,,,,,,,0,0,0,-4.00,-2.00,1657.00,0.00,0.00,1658.00,11,8.00,5.00,2.11,0.00,0.00,-5.00,0,,,100,100,0,2,0,0,0,1,0,,,,,0.0,0.0,0.0,0.0,0.0,0.0,0
34.182584,-118.129109,0.90,0.90,0.50,0.19,0.90,0.90,0.50,0.21,1100,2022-06-08 14:31:46.643,2022-06-08 07:31:46.643,16,0,0,16.210,34.182586,-118.129110,0.00,0.00,-0.50,0.40,-0.20,165.60,0,1,0,90,100,-7102,3321,16210,2991.50,1,TakeOff,1,0,0,0,0,0,0,1654698706642,4213,4207,4210,4210,0,0,27,,,,,,,0,0,0,-4.00,-2.00,1656.00,0.00,0.00,1658.00,11,9.00,5.00,1.87,0.00,0.00,-5.00,0,,,100,100,0,2,0,0,0,1,0,,,,,0.0,0.0,0.0,0.0,0.0,0.0,0
34.182584,-118.129109,0.90,1.00,0.50,0.19,0.90,0.90,0.50,0.21,1201,2022-06-08 14:31:46.743,2022-06-08 07:31:46.743,16,0,0,16.210,34.182586,-118.129110,0.00,0.00,-0.50,0.40,-0.30,165.60,0,1,0,90,100,-7102,3321,16210,2991.50,1,TakeOff,1,0,0,0,0,0,0,1654698706743,4213,4207,4210,4210,0,0,27,,,,,,,0,0,0,-4.00,-3.00,1656.00,0.00,0.00,1658.00,11,9.00,5.00,1.89,0.00,0.00,-5.00,0,,,100,100,0,2,0,0,0,1,0,,,,,0.0,0.0,0.0,0.0,0.0,0.0,0
34.182584,-118.129109,1.00,1.00,0.40,0.18,1.00,1.00,0.50,0.21,1300,2022-06-08 14:31:46.843,2022-06-08 07:31:46.843,16,0,0,16.210,34.182586,-118.129110,0.00,0.00,-0.40,0.30,-0.50,165.60,0,1,0,90,100,-7102,3321,16210,2991.50,1,TakeOff,1,0,0,0,0,0,0,1654698706842,4213,4207,4210,4210,0,0,27,,,,,,,0,0,0,-3.00,-5.00,1656.00,0.00,0.00,1658.00,11,10.00,4.00,1.82,0.00,0.00,-4.00,0,,,100,100,0,2,0,0,0,1,0,,,,,0.0,0.0,0.0,0.0,0.0,0.0,0
34.182584,-118.129109,1.00,1.10,0.40,0.18,1.00,1.00,0.50,0.21,1401,2022-06-08 14:31:46.943,2022-06-08 07:31:46.943,16,0,0,16.210,34.182586,-118.129110,0.00,0.00,-0.40,0.30,-0.40,165.60,0,1,0,90,100,-7102,3321,16210,2991.50,1,WP,1,0,0,0,0,0,0,1654698706943,4213,4207,4210,4210,0,0,27,,,,,,,0,0,0,-3.00,-4.00,1656.00,0.00,0.00,1658.00,14,10.00,4.00,1.83,0.00,0.00,-4.00,0,,,100,100,0,2,0,0,0,1,0,,,,,0.0,0.0,0.0,0.0,0.0,0.0,0
34.182584,-118.129109,1.10,1.10,0.40,0.20,1.10,1.10,0.50,0.21,1501,2022-06-08 14:31:47.044,2022-06-08 07:31:47.044,16,0,0,16.210,34.182586,-118.129110,0.00,0.00,-0.40,0.30,-0.20,165.60,0,1,0,90,100,-7102,3321,16210,2991.50,1,WP,1,0,0,0,0,0,0,1654698707043,4213,4207,4210,4210,0,0,27,,,,,,,0,0,0,-3.00,-2.00,1656.00,0.00,0.00,1658.00,14,11.00,4.00,1.97,0.00,0.00,-4.00,0,,,100,100,0,2,0,0,0,1,0,,,,,0.0,0.0,0.0,0.0,0.0,0.0,0
34.182584,-118.129109,1.10,1.20,0.40,0.20,1.10,1.10,0.50,0.21,1605,2022-06-08 14:31:47.147,2022-06-08 07:31:47.147,16,0,0,16.210,34.182586,-118.129110,0.00,0.00,-0.40,0.30,-0.20,165.50,0,1,0,90,100,-7102,3321,16210,2991.50,1,WP,1,0,0,0,0,0,0,1654698707147,4213,4207,4210,4210,0,0,27,,,,,,,0,0,0,-3.00,-2.00,1655.00,0.00,0.00,1658.00,14,11.00,4.00,1.99,0.00,0.00,-4.00,0,,,100,100,0,2,0,0,0,1,0,,,,,0.0,0.0,0.0,0.0,0.0,0.0,0
34.182584,-118.129109,1.10,1.20,0.40,0.17,1.10,1.10,0.50,0.21,1701,2022-06-08 14:31:47.244,2022-06-08 07:31:47.244,16,0,0,16.210,34.182586,-118.129110,0.00,0.00,-0.40,0.40,-0.10,165.50,0,1,0,90,100,-7102,3321,16210,2991.50,1,WP,1,0,0,0,0,0,0,1654698707243,4213,4207,4210,4210,0,0,27,,,,,,,0,0,0,-4.00,-1.00,1655.00,0.00,0.00,1658.00,14,11.00,4.00,1.74,0.00,0.00,-4.00,0,,,100,100,0,2,0,0,0,1,0,,,,,0.0,0.0,0.0,0.0,0.0,0.0,0
34.182584,-118.129110,1.20,1.30,0.40,0.17,1.20,1.20,0.50,0.21,1800,2022-06-08 14:31:47.343,2022-06-08 07:31:47.343,16,0,0,16.210,34.182586,-118.129110,0.00,0.00,-0.40,0.20,-0.10,165.40,0,1,0,90,100,-7102,3321,16210,2991.50,1,WP,1,0,0,0,0,0,0,1654698707342,4213,4207,4210,4210,0,0,27,,,,,,,0,0,0,-2.00,-1.00,1654.00,0.00,0.00,1658.00,14,12.00,4.00,1.73,0.00,0.00,-4.00,0,,,100,100,0,2,0,0,0,1,0,,,,,0.0,0.0,0.0,0.0,0.0,0.0,0
34.182584,-118.129109,1.20,1.30,0.40,0.17,1.20,1.20,0.50,0.21,1900,2022-06-08 14:31:47.443,2022-06-08 07:31:47.443,16,0,0,16.210,34.182586,-118.129110,0.00,0.00,-0.40,0.10,0.00,165.40,0,1,0,90,100,-7102,3321,16210,2991.50,1,WP,1,0,0,0,0,0,0,1654698707442,4213,4207,4210,4210,0,0,27,,,,,,,0,0,0,-1.00,0.00,1654.00,0.00,0.00,1658.00,14,12.00,4.00,1.73,0.00,0.00,-4.00,0,,,100,100,0,2,0,0,0,1,0,,,,,0.0,0.0,0.0,0.0,0.0,0.0,0
34.182584,-118.129109,1.30,1.40,0.40,0.17,1.30,1.30,0.50,0.21,2000,2022-06-08 14:31:47.543,2022-06-08 07:31:47.543,16,0,0,16.210,34.182586,-118.129110,0.00,0.00,-0.40,0.20,0.10,165.40,0,1,0,90,100,-7102,3321,16210,2991.50,1,WP,1,0,0,0,0,0,0,1654698707542,4213,4207,4210,4210,0,0,27,,,,,,,0,0,0,-2.00,1.00,1654.00,0.00,0.00,1658.00,14,13.00,4.00,1.72,0.00,0.00,-4.00,0,,,100,100,0,2,0,0,0,1,0,,,,,0.0,0.0,0.0,0.0,0.0,0.0,0
34.182585,-118.129109,1.30,1.40,0.40,0.16,1.30,1.30,0.50,0.21,2101,2022-06-08 14:31:47.644,2022-06-08 07:31:47.644,16,0,0,16.210,34.182586,-118.129110,0.00,0.00,-0.40,0.10,0.20,165.40,0,1,0,90,100,-7102,3321,16210,2991.50,1,WP,1,0,0,0,0,0,0,1654698707643,4040,4032,4040,4037,0,0,27,,,,,,,0,0,0,-1.00,2.00,1654.00,0.00,0.00,1658.00,14,13.00,4.00,1.59,0.00,0.00,-4.00,0,,,100,100,0,2,0,0,0,1,0,,,,,0.0,0.0,0.0,0.0,0.0,0.0,0
34.182585,-118.129109,1.40,1.50,0.40,0.16,1.40,1.40,0.50,0.21,2201,2022-06-08 14:31:47.743,2022-06-08 07:31:47.743,16,0,0,16.210,34.182586,-118.129110,0.00,0.00,-0.40,0.00,0.40,165.40,0,1,0,90,100,-7102,3321,16210,2991.50,1,WP,1,0,0,0,0,0,0,1654698707743,4040,4032,4040,4037,0,0,27,,,,,,,0,0,0,-0.00,4.00,1654.00,0.00,0.00,1658.00,14,14.00,4.00,1.57,0.00,0.00,-4.00,0,,,100,100,0,2,0,0,0,1,0,,,,,0.0,0.0,0.0,0.0,0.0,0.0,0
34.182584,-118.129109,1.40,1.50,0.40,0.18,1.40,1.40,0.50,0.21,2301,2022-06-08 14:31:47.844,2022-06-08 07:31:47.844,16,0,0,16.210,34.182586,-118.129110,0.00,0.00,-0.40,0.20,0.40,165.40,0,1,0,90,100,-7102,3321,16210,2991.50,1,WP,1,0,0,0,0,0,0,1654698707843,4040,4032,4040,4037,0,0,27,,,,,,,0,0,0,-2.00,4.00,1654.00,0.00,0.00,1657.00,14,14.00,4.00,1.78,0.00,0.00,-4.00,0,,,100,100,0,2,0,0,0,1,0,,,,,0.0,0.0,0.0,0.0,0.0,0.0,0
34.182584,-118.129109,1.50,1.60,0.40,0.18,1.50,1.50,0.50,0.21,2401,2022-06-08 14:31:47.944,2022-06-08 07:31:47.944,16,0,0,16.210,34.182586,-118.129110,0.00,0.00,-0.40,0.50,0.20,165.40,0,1,0,90,100,-7102,3321,16210,2991.50,1,WP,1,0,0,0,0,0,0,1654698707943,4040,4032,4040,4037,0,0,27,,,,,,,0,0,0,-5.00,2.00,1654.00,0.00,0.00,1657.00,14,15.00,4.00,1.78,0.00,0.00,-4.00,0,,,100,100,0,2,0,0,0,1,0,,,,,0.0,0.0,0.0,0.0,0.0,0.0,0
34.182584,-118.129109,1.50,1.60,0.40,0.18,1.50,1.50,0.50,0.21,2502,2022-06-08 14:31:48.045,2022-06-08 07:31:48.045,16,0,0,16.144,34.182586,-118.129110,0.00,0.00,-0.40,0.40,0.00,165.40,0,1,0,90,100,-7385,3317,16144,2991.50,1,WP,1,0,0,0,0,0,0,1654698708044,4040,4032,4040,4037,0,0,27,,,,,,,0,0,0,-4.00,0.00,1654.00,0.00,0.00,1657.00,14,15.00,4.00,1.78,0.00,0.00,-4.00,0,,,100,100,0,2,0,0,0,1,0,,,,,0.0,0.0,0.0,0.0,0.0,0.0,0
34.182584,-118.129109,1.50,1.70,0.40,0.18,1.50,1.50,0.50,0.21,2601,2022-06-08 14:31:48.144,2022-06-08 07:31:48.144,16,0,0,16.144,34.182586,-118.129110,0.00,0.00,-0.40,0.30,-0.20,165.40,0,1,0,90,100,-7385,3317,16144,2991.50,1,WP,1,0,0,0,0,0,0,1654698708143,4040,4032,4040,4037,0,0,27,,,,,,,0,0,0,-3.00,-2.00,1654.00,0.00,0.00,1657.00,14,15.00,4.00,1.78,0.00,0.00,-4.00,0,,,100,100,0,2,0,0,0,1,0,,,,,0.0,0.0,0.0,0.0,0.0,0.0,0
34.182585,-118.129109,1.60,1.70,0.40,0.16,1.60,1.60,0.50,0.21,2701,2022-06-08 14:31:48.243,2022-06-08 07:31:48.243,16,0,0,16.144,34.182586,-118.129110,0.00,0.00,-0.40,0.10,-0.20,165.40,0,1,0,90,100,-7385,3317,16144,2991.50,1,WP,1,0,0,0,0,0,0,1654698708243,4040,4032,4040,4037,0,0,27,,,,,,,0,0,0,-1.00,-2.00,1654.00,0.00,0.00,1657.00,14,16.00,4.00,1.61,0.00,0.00,-4.00,0,,,100,100,0,2,0,0,0,1,0,,,,,0.0,0.0,0.0,0.0,0.0,0.0,0
34.182585,-118.129109,1.60,1.70,0.40,0.16,1.60,1.60,0.50,0.21,2802,2022-06-08 14:31:48.344,2022-06-08 07:31:48.344,16,0,0,16.144,34.182586,-118.129110,0.00,0.00,-0.40,0.00,-0.10,165.40,0,1,0,90,100,-7385,3317,16144,2991.50,1,WP,1,0,0,0,0,0,0,1654698708344,4040,4032,4040,4037,0,0,27,,,,,,,0,0,0,-0.00,-1.00,1654.00,0.00,0.00,1657.00,14,16.00,4.00,1.59,0.00,0.00,-4.00,0,,,100,100,0,2,0,0,0,1,0,,,,,0.0,0.0,0.0,0.0,0.0,0.0,0
34.182585,-118.129110,1.70,1.80,0.40,0.14,1.70,1.70,0.50,0.21,2901,2022-06-08 14:31:48.444,2022-06-08 07:31:48.444,16,0,0,16.144,34.182586,-118.129110,0.00,0.00,-0.40,0.20,-0.20,165.30,0,1,0,90,100,-7385,3317,16144,2991.50,1,WP,1,0,0,0,0,0,0,1654698708443,4040,4032,4040,4037,0,0,27,,,,,,,0,0,0,-2.00,-2.00,1653.00,0.00,0.00,1656.00,14,17.00,4.00,1.45,0.00,0.00,-4.00,0,,,100,100,0,2,0,0,0,1,0,,,,,0.0,0.0,0.0,0.0,0.0,0.0,0
34.182585,-118.129110,1.70,1.80,0.30,0.14,1.70,1.70,0.50,0.21,3001,2022-06-08 14:31:48.543,2022-06-08 07:31:48.543,16,0,0,16.144,34.182586,-118.129110,0.00,0.00,-0.30,0.50,-0.20,164.80,0,1,0,90,100,-7385,3317,16144,2991.50,1,WP,1,0,0,0,0,0,0,1654698708543,4040,4032,4040,4037,0,0,27,,,,,,,0,0,0,-5.00,-2.00,1648.00,0.00,0.00,1656.00,14,17.00,3.00,1.42,0.00,0.00,-3.00,0,,,100,100,0,2,0,0,0,1,0,,,,,0.0,0.0,0.0,0.0,0.0,0.0,0
34.182585,-118.129110,1.80,1.90,0.20,0.15,1.80,1.80,0.50,0.21,3102,2022-06-08 14:31:48.644,2022-06-08 07:31:48.644,16,0,0,16.144,34.182586,-118.129110,0.00,0.00,-0.20,0.60,-0.20,163.70,0,1,0,90,100,-7385,3317,16144,2991.50,1,WP,1,0,0,0,0,0,0,1654698708644,4040,4032,4040,4037,0,0,27,,,,,,,0,0,0,-6.00,-2.00,1637.00,0.00,0.00,1656.00,14,18.00,2.00,1.46,0.00,0.00,-2.00,0,,,100,100,0,2,0,0,0,1,0,,,,,0.0,0.0,0.0,0.0,0.0,0.0,0
34.182585,-118.129110,1.80,1.90,0.10,0.14,1.80,1.80,0.50,0.21,3202,2022-06-08 14:31:48.745,2022-06-08 07:31:48.745,16,0,0,16.144,34.182586,-118.129110,0.00,0.00,-0.10,0.50,-0.20,162.00,0,1,0,90,100,-7385,3317,16144,2991.50,1,WP,1,0,0,0,0,0,0,1654698708744,4040,4032,4040,4037,0,0,27,,,,,,,0,0,0,-5.00,-2.00,1620.00,0.00,0.00,1654.00,14,18.00,1.00,1.43,0.00,0.00,-1.00,0,,,100,100,0,2,0,0,0,1,0,,,,,0.0,0.0,0.0,0.0,0.0,0.0,0
34.182584,-118.129110,1.80,1.90,0.10,0.18,1.80,1.80,0.50,0.21,3301,2022-06-08 14:31:48.844,2022-06-08 07:31:48.844,16,0,0,16.144,34.182586,-118.129110,0.00,0.00,-0.10,0.40,-0.20,159.80,0,1,0,90,100,-7385,3317,16144,2991.50,1,WP,1,0,0,0,0,0,0,1654698708843,4040,4032,4040,4037,0,0,27,,,,,,,0,0,0,-4.00,-2.00,1598.00,0.00,0.00,1647.00,14,18.00,1.00,1.77,0.00,0.00,-1.00,0,,,100,100,0,2,0,0,0,1,0,,,,,0.0,0.0,0.0,0.0,0.0,0.0,0
34.182584,-118.129110,1.80,1.90,0.10,0.18,1.80,1.80,0.50,0.21,3402,2022-06-08 14:31:48.945,2022-06-08 07:31:48.945,16,0,0,16.144,34.182586,-118.129110,0.00,0.00,-0.10,0.40,-0.10,156.90,0,1,0,90,100,-7385,3317,16144,2991.50,1,WP,1,0,0,0,0,0,0,1654698708944,4040,4032,4040,4037,0,0,27,,,,,,,0,0,0,-4.00,-1.00,1569.00,0.00,0.00,1632.00,14,18.00,1.00,1.76,0.00,0.00,-1.00,0,,,100,100,0,2,0,0,0,1,0,,,,,0.0,0.0,0.0,0.0,0.0,0.0,0
34.182585,-118.129110,1.80,1.90,0.00,0.14,1.80,1.80,0.50,0.21,3501,2022-06-08 14:31:49.044,2022-06-08 07:31:49.044,16,0,0,16.144,34.182586,-118.129110,0.00,0.00,0.00,0.20,-0.10,153.60,0,1,0,90,100,-7385,3317,16144,2991.50,1,WP,1,0,0,0,0,0,0,1654698709043,4040,4032,4040,4037,0,0,27,,,,,,,0,0,0,-2.00,-1.00,1536.00,0.00,0.00,1607.00,14,18.00,0.00,1.42,0.00,0.00,0.00,0,,,100,100,0,2,0,0,0,1,0,,,,,0.0,0.0,0.0,0.0,0.0,0.0,0
34.182585,-118.129110,1.80,1.90,0.00,0.14,1.80,1.80,0.50,0.21,3602,2022-06-08 14:31:49.144,2022-06-08 07:31:49.144,16,0,0,16.144,34.182586,-118.129110,0.00,0.00,0.00,0.10,0.00,150.60,0,1,0,90,100,-7385,3317,16144,2991.50,1,WP,1,0,0,0,0,0,0,1654698709144,4040,4032,4040,4037,0,0,27,,,,,,,0,0,0,-1.00,0.00,1506.00,0.00,0.00,1574.00,14,18.00,0.00,1.37,0.00,0.00,0.00,0,,,100,100,0,2,0,0,0,1,0,,,,,0.0,0.0,0.0,0.0,0.0,0.0,0
34.182585,-118.129110,1.80,1.90,0.00,0.14,1.80,1.80,0.50,0.21,3702,2022-06-08 14:31:49.245,2022-06-08 07:31:49.245,16,0,0,16.144,34.182586,-118.129110,0.00,0.00,0.00,0.00,0.00,148.20,0,1,0,90,100,-7385,3317,16144,2991.50,1,WP,1,0,0,0,0,0,0,1654698709244,4040,4032,4040,4037,0,0,27,,,,,,,0,0,0,-0.00,0.00,1482.00,0.00,0.00,1540.00,14,18.00,0.00,1.44,0.00,0.00,0.00,0,,,100,100,0,2,0,0,0,1,0,,,,,0.0,0.0,0.0,0.0,0.0,0.0,0
34.182585,-118.129110,1.80,1.90,0.00,0.14,1.80,1.80,0.50,0.21,3801,2022-06-08 14:31:49.344,2022-06-08 07:31:49.344,16,0,0,16.144,34.182586,-118.129110,0.00,0.00,0.00,0.00,0.10,146.60,0,1,0,90,100,-7385,3317,16144,2991.50,1,WP,1,0,0,0,0,0,0,1654698709343,4040,4032,4040,4037,0,0,27,,,,,,,0,0,0,-0.00,1.00,1466.00,0.00,0.00,1512.00,14,18.00,0.00,1.41,0.00,0.00,0.00,0,,,100,100,0,2,0,0,0,1,0,,,,,0.0,0.0,0.0,0.0,0.0,0.0,0
34.182585,-118.129110,1.80,1.90,0.00,0.13,1.80,1.80,0.50,0.21,3902,2022-06-08 14:31:49.445,2022-06-08 07:31:49.445,16,0,0,16.144,34.182586,-118.129110,0.00,0.00,0.00,0.10,0.10,145.70,0,1,0,90,100,-7385,3317,16144,2991.50,1,WP,1,0,0,0,0,0,0,1654698709444,4040,4032,4040,4037,0,0,27,,,,,,,0,0,0,-1.00,1.00,1457.00,0.00,0.00,1492.00,14,18.00,0.00,1.34,0.00,0.00,0.00,0,,,100,100,0,2,0,0,0,1,0,,,,,0.0,0.0,0.0,0.0,0.0,0.0,0
34.182585,-118.129110,1.80,1.90,0.00,0.13,1.80,1.80,0.50,0.21,4002,2022-06-08 14:31:49.545,2022-06-08 07:31:49.545,16,0,0,16.144,34.182586,-118.129110,0.00,0.00,0.00,0.10,0.20,145.20,0,1,0,90,100,-7385,3317,16144,2991.50,1,WP,1,0,0,0,0,0,0,1654698709544,4040,4032,4040,4037,0,0,27,,,,,,,0,0,0,-1.00,2.00,1452.00,0.00,0.00,1480.00,14,18.00,0.00,1.31,0.00,0.00,0.00,0,,,100,100,0,2,0,0,0,1,0,,,,,0.0,0.0,0.0,0.0,0.0,0.0,0
34.182585,-118.129110,1.80,1.90,0.00,0.12,1.80,1.80,0.50,0.21,4103,2022-06-08 14:31:49.645,2022-06-08 07:31:49.645,16,0,0,16.144,34.182586,-118.129110,0.00,0.00,0.00,0.10,0.20,145.20,0,1,0,90,100,-7385,3317,16144,2991.50,1,WP,1,0,0,0,0,0,0,1654698709645,4040,4032,4040,4037,0,0,27,,,,,,,0,0,0,-1.00,2.00,1452.00,0.00,0.00,1472.00,14,18.00,0.00,1.25,0.00,0.00,0.00,0,,,100,100,0,2,0,0,0,1,0,,,,,0.0,0.0,0.0,0.0,0.0,0.0,0
34.182585,-118.129110,1.80,1.90,0.00,0.12,1.80,1.80,0.50,0.21,4153,2022-06-08 14:31:49.695,2022-06-08 07:31:49.695,16,0,0,16.144,34.182586,-118.129110,0.00,0.00,0.00,0.10,0.10,145.00,0,1,0,90,100,-7385,3317,16144,2991.50,1,WP,1,0,0,0,0,0,0,1654698709695,4040,4032,4040,4037,0,0,27,,,,,,,0,0,0,-1.00,1.00,1450.00,0.00,0.00,1468.00,14,18.00,0.00,1.22,0.00,0.00,0.00,0,,,100,100,0,2,0,0,0,1,0,,,,,0.0,0.0,0.0,0.0,0.0,0.0,0
34.182585,-118.129110,1.80,1.90,0.00,0.12,1.80,1.80,0.50,0.21,4302,2022-06-08 14:31:49.845,2022-06-08 07:31:49.845,16,0,0,16.144,34.182586,-118.129110,0.00,0.00,0.00,0.20,0.10,144.90,0,1,0,90,100,-7385,3317,16144,2991.50,1,WP,1,0,0,0,0,0,0,1654698709844,4040,4032,4040,4037,0,0,27,,,,,,,0,0,0,-2.00,1.00,1449.00,0.00,0.00,1466.00,14,18.00,0.00,1.15,0.00,0.00,0.00,0,,,100,100,0,2,0,0,0,1,0,,,,,0.0,0.0,0.0,0.0,0.0,0.0,0
34.182585,-118.129110,1.80,1.90,0.00,0.11,1.80,1.80,0.50,0.21,4403,2022-06-08 14:31:49.945,2022-06-08 07:31:49.945,16,0,0,16.144,34.182586,-118.129110,0.00,0.00,0.00,-1.90,0.10,144.90,0,1,0,90,100,-7385,3317,16144,2991.50,1,WP,1,0,0,0,0,0,0,1654698709945,4040,4032,4040,4037,0,0,27,,,,,,,0,0,0,19.00,1.00,1449.00,0.00,0.00,1464.00,14,18.00,0.00,1.12,0.00,0.00,0.00,0,,,100,100,0,2,0,0,0,1,0,,,,,0.0,0.0,0.0,0.0,0.0,0.0,0
34.182585,-118.129110,1.80,1.90,0.00,0.11,1.80,1.80,0.50,0.21,4503,2022-06-08 14:31:50.046,2022-06-08 07:31:50.046,16,0,0,16.144,34.182586,-118.129110,0.00,0.00,0.00,-5.10,0.20,144.90,0,1,0,90,100,-7385,3317,16144,2991.50,1,WP,1,0,0,0,0,0,0,1654698710045,4040,4032,4040,4037,0,0,27,,,,,,,0,0,0,51.00,2.00,1449.00,0.00,0.00,1462.00,14,18.00,0.00,1.06,0.00,0.00,0.00,0,,,100,100,0,2,0,0,0,1,0,,,,,0.0,0.0,0.0,0.0,0.0,0.0,0
34.182585,-118.129110,1.80,1.90,0.14,0.11,1.80,1.80,0.50,0.21,4603,2022-06-08 14:31:50.145,2022-06-08 07:31:50.145,16,0,0,16.145,34.182586,-118.129110,-0.10,0.10,0.00,-8.00,0.20,144.90,0,1,0,90,100,-7052,3313,16145,2991.50,1,WP,1,0,0,0,0,0,0,1654698710145,4040,4032,4040,4037,0,0,27,,,,,,,0,0,0,80.00,2.00,1449.00,0.00,0.00,1460.00,14,18.00,1.41,1.13,-1.00,1.00,0.00,0,,,100,100,0,2,0,0,0,1,0,,,,,0.0,0.0,0.0,0.0,0.0,0.0,0
34.182585,-118.129109,1.80,2.00,0.22,0.13,1.80,1.80,0.50,0.21,4703,2022-06-08 14:31:50.245,2022-06-08 07:31:50.245,16,0,0,16.145,34.182586,-118.129110,-0.20,0.10,0.00,-10.10,0.20,144.90,0,1,0,90,100,-7052,3313,16145,2991.50,1,WP,1,0,0,0,0,0,0,1654698710245,4040,4032,4040,4037,0,0,27,,,,,,,0,0,0,101.00,2.00,1449.00,0.00,0.00,1459.00,14,18.00,2.24,1.26,-2.00,1.00,0.00,0,,,100,100,0,2,0,0,0,1,0,,,,,0.0,0.0,0.0,0.0,0.0,0.0,0
34.182585,-118.129109,1.80,2.00,0.45,0.16,1.80,1.80,0.50,0.21,4802,2022-06-08 14:31:50.345,2022-06-08 07:31:50.345,16,0,0,16.145,34.182586,-118.129110,-0.40,0.20,0.00,-11.40,0.30,144.90,0,1,0,90,100,-7052,3313,16145,2991.50,1,WP,1,0,0,0,0,0,0,1654698710344,4040,4032,4040,4037,0,0,27,,,,,,,0,0,0,114.00,3.00,1449.00,0.00,0.00,1458.00,14,18.00,4.47,1.61,-4.00,2.00,0.00,0,,,100,100,0,2,0,0,0,1,0,,,,,0.0,0.0,0.0,0.0,0.0,0.0,0
34.182584,-118.129109,1.80,1.90,0.58,0.21,1.80,1.80,0.58,0.21,4903,2022-06-08 14:31:50.445,2022-06-08 07:31:50.445,16,0,0,16.145,34.182586,-118.129110,-0.50,0.30,0.00,-11.90,0.30,144.90,0,1,0,90,100,-7052,3313,16145,2991.50,1,WP,1,0,0,0,0,0,0,1654698710445,4040,4032,4040,4037,0,0,27,,,,,,,0,0,0,119.00,3.00,1449.00,0.00,0.00,1457.00,14,18.00,5.83,2.09,-5.00,3.00,0.00,0,,,100,100,0,2,0,0,0,1,0,,,,,0.0,0.0,0.0,0.0,0.0,0.0,0
34.182584,-118.129108,1.80,1.90,0.86,0.28,1.80,1.80,0.86,0.28,5002,2022-06-08 14:31:50.545,2022-06-08 07:31:50.545,16,0,0,16.145,34.182586,-118.129110,-0.70,0.50,0.00,-12.10,0.10,144.90,0,1,0,90,100,-7052,3313,16145,2991.50,1,WP,1,0,0,0,0,0,0,1654698710544,4040,4032,4040,4037,0,0,27,,,,,,,0,0,0,121.00,1.00,1449.00,0.00,0.00,1457.00,14,18.00,8.60,2.83,-7.00,5.00,0.00,0,,,100,100,0,2,0,0,0,1,0,,,,,0.0,0.0,0.0,0.0,0.0,0.0,0
34.182583,-118.129108,1.80,1.90,1.00,0.36,1.80,1.80,1.00,0.36,5102,2022-06-08 14:31:50.644,2022-06-08 07:31:50.644,16,0,0,16.145,34.182586,-118.129110,-0.80,0.60,0.00,-11.50,0.00,144.90,0,1,0,90,100,-7052,3313,16145,2991.50,1,WP,1,0,0,0,0,0,0,1654698710644,4040,4032,4040,4037,0,0,27,,,,,,,0,0,0,115.00,0.00,1449.00,0.00,0.00,1456.00,14,18.00,10.00,3.58,-8.00,6.00,0.00,0,,,100,100,0,2,0,0,0,1,0,,,,,0.0,0.0,0.0,0.0,0.0,0.0,0
34.182582,-118.129107,1.90,2.00,1.22,0.47,1.90,1.90,1.22,0.47,5152,2022-06-08 14:31:50.695,2022-06-08 07:31:50.695,16,0,0,16.145,34.182586,-118.129110,-1.00,0.70,0.00,-9.20,-0.10,145.60,0,1,0,90,100,-7052,3313,16145,2991.50,1,WP,1,0,0,0,0,0,0,1654698710694,4040,4032,4040,4037,0,0,27,,,,,,,0,0,0,92.00,-1.00,1456.00,0.00,0.00,1455.00,14,19.00,12.21,4.70,-10.00,7.00,0.00,0,,,100,100,0,2,0,0,0,1,0,,,,,0.0,0.0,0.0,0.0,0.0,0.0,0
34.182581,-118.129107,1.90,2.00,1.30,0.60,1.90,1.90,1.30,0.60,5302,2022-06-08 14:31:50.845,2022-06-08 07:31:50.845,16,0,0,16.145,34.182586,-118.129110,-1.10,0.70,0.00,-6.10,-0.30,145.50,0,1,0,90,100,-7052,3313,16145,2991.50,1,WP,1,0,0,0,0,0,0,1654698710844,4040,4032,4040,4037,0,0,27,,,,,,,0,0,0,61.00,-3.00,1455.00,0.00,0.00,1454.00,14,19.00,13.04,5.98,-11.00,7.00,0.00,0,,,100,100,0,2,0,0,0,1,0,,,,,0.0,0.0,0.0,0.0,0.0,0.0,0
34.182580,-118.129106,1.90,2.00,1.44,0.74,1.90,1.90,1.44,0.74,5403,2022-06-08 14:31:50.945,2022-06-08 07:31:50.945,16,0,0,16.145,34.182586,-118.129110,-1.20,0.80,0.00,-3.30,-1.00,146.10,0,1,0,90,100,-7052,3313,16145,2991.50,1,WP,1,0,0,0,0,0,0,1654698710945,4040,4032,4040,4037,0,0,27,,,,,,,0,0,0,33.00,-10.00,1461.00,0.00,0.00,1452.00,14,19.00,14.42,7.36,-12.00,8.00,0.00,0,,,100,100,0,2,0,0,0,1,0,,,,,0.0,0.0,0.0,0.0,0.0,0.0,0
34.182579,-118.129106,1.90,2.00,1.44,0.88,1.90,1.90,1.44,0.88,5502,2022-06-08 14:31:51.045,2022-06-08 07:31:51.045,16,0,0,16.145,34.182586,-118.129110,-1.20,0.80,0.00,-1.50,-1.60,145.80,0,1,0,90,100,-7052,3313,16145,2991.50,1,WP,1,0,0,0,0,0,0,1654698711044,4040,4032,4040,4037,0,0,27,,,,,,,0,0,0,15.00,-16.00,1458.00,0.00,0.00,1448.00,14,19.00,14.42,8.77,-12.00,8.00,0.00,0,,,100,100,0,2,0,0,0,1,0,,,,,0.0,0.0,0.0,0.0,0.0,0.0,0
34.182578,-118.129105,1.90,2.00,1.44,1.02,1.90,1.90,1.44,1.02,5603,2022-06-08 14:31:51.146,2022-06-08 07:31:51.146,16,0,0,16.145,34.182586,-118.129110,-1.20,0.80,0.00,-0.20,-2.00,145.90,0,1,0,90,100,-7052,3313,16145,2991.50,1,WP,1,0,0,0,0,0,0,1654698711145,4040,4032,4040,4037,0,0,27,,,,,,,0,0,0,2.00,-20.00,1459.00,0.00,0.00,1443.00,14,19.00,14.42,10.19,-12.00,8.00,0.00,0,,,100,100,0,2,0,0,0,1,0,,,,,0.0,0.0,0.0,0.0,0.0,0.0,0
34.182576,-118.129105,1.90,1.90,1.50,1.17,1.90,1.90,1.50,1.17,5703,2022-06-08 14:31:51.246,2022-06-08 07:31:51.246,16,0,0,16.145,34.182586,-118.129110,-1.20,0.90,0.00,0.70,-1.80,145.60,0,1,0,90,100,-7052,3313,16145,2991.50,1,WP,1,0,0,0,0,0,0,1654698711245,4040,4032,4040,4037,0,0,27,,,,,,,0,0,0,-7.00,-18.00,1456.00,0.00,0.00,1438.00,14,19.00,15.00,11.68,-12.00,9.00,0.00,0,,,100,100,0,2,0,0,0,1,0,,,,,0.0,0.0,0.0,0.0,0.0,0.0,0
34.182575,-118.129104,1.90,1.90,1.42,1.31,1.90,1.90,1.50,1.31,5803,2022-06-08 14:31:51.346,2022-06-08 07:31:51.346,16,0,0,16.145,34.182586,-118.129110,-1.10,0.90,0.00,1.10,-2.60,145.40,0,1,0,90,100,-7052,3313,16145,2991.50,1,WP,1,0,0,0,0,0,0,1654698711345,4040,4032,4040,4037,0,0,27,,,,,,,0,0,0,-11.00,-26.00,1454.00,0.00,0.00,1434.00,14,19.00,14.21,13.06,-11.00,9.00,0.00,0,,,100,100,0,2,0,0,0,1,0,,,,,0.0,0.0,0.0,0.0,0.0,0.0,0
34.182574,-118.129104,1.90,1.90,1.42,1.45,1.90,1.90,1.50,1.45,5903,2022-06-08 14:31:51.445,2022-06-08 07:31:51.445,16,0,0,16.145,34.182586,-118.129110,-1.10,0.90,0.00,1.50,-2.30,145.20,0,1,0,90,100,-7052,3313,16145,2991.50,1,WP,1,0,0,0,0,0,0,1654698711445,4040,4032,4040,4037,0,0,27,,,,,,,0,0,0,-15.00,-23.00,1452.00,0.00,0.00,1430.00,14,19.00,14.21,14.48,-11.00,9.00,0.00,0,,,100,100,0,2,0,0,0,1,0,,,,,0.0,0.0,0.0,0.0,0.0,0.0,0
34.182573,-118.129103,1.90,2.00,1.35,1.58,1.90,1.90,1.50,1.58,6003,2022-06-08 14:31:51.546,2022-06-08 07:31:51.546,16,0,0,16.145,34.182586,-118.129110,-1.00,0.90,0.00,2.00,-2.30,145.10,0,1,0,90,100,-7052,3313,16145,2991.50,1,WP,1,0,0,0,0,0,0,1654698711545,4040,4032,4040,4037,0,0,27,,,,,,,0,0,0,-20.00,-23.00,1451.00,0.00,0.00,1427.00,14,19.00,13.45,15.77,-10.00,9.00,0.00,0,,,100,100,0,2,0,0,0,1,0,,,,,0.0,0.0,0.0,0.0,0.0,0.0,0
34.182572,-118.129103,1.90,2.00,1.27,1.73,1.90,1.90,1.50,1.73,6053,2022-06-08 14:31:51.596,2022-06-08 07:31:51.596,16,0,0,16.145,34.182586,-118.129110,-0.90,0.90,0.00,2.60,-1.80,145.00,0,1,0,90,100,-7052,3313,16145,2991.50,1,WP,1,0,0,0,0,0,0,1654698711595,4040,4032,4040,4037,0,0,27,,,,,,,0,0,0,-26.00,-18.00,1450.00,0.00,0.00,1425.00,14,19.00,12.73,17.30,-9.00,9.00,0.00,0,,,100,100,0,2,0,0,0,1,0,,,,,0.0,0.0,0.0,0.0,0.0,0.0,0
34.182571,-118.129102,1.90,2.00,1.27,1.85,1.90,1.90,1.50,1.85,6154,2022-06-08 14:31:51.696,2022-06-08 07:31:51.696,16,0,0,16.145,34.182586,-118.129110,-0.90,0.90,0.00,3.40,-2.10,145.00,0,1,0,90,100,-7052,3313,16145,2991.50,1,WP,1,0,0,0,0,0,0,1654698711696,4040,4032,4040,4037,0,0,27,,,,,,,0,0,0,-34.00,-21.00,1450.00,0.00,0.00,1423.00,14,19.00,12.73,18.50,-9.00,9.00,0.00,0,,,100,100,0,2,0,0,0,1,0,,,,,0.0,0.0,0.0,0.0,0.0,0.0,0
34.182570,-118.129101,1.90,2.00,1.20,1.97,1.90,1.90,1.50,1.97,6303,2022-06-08 14:31:51.846,2022-06-08 07:31:51.846,16,0,0,16.145,34.182586,-118.129110,-0.80,0.90,0.00,3.40,-1.50,145.00,0,1,0,90,100,-7052,3313,16145,2991.50,1,WP,1,0,0,0,0,0,0,1654698711845,4040,4032,4040,4037,0,0,27,,,,,,,0,0,0,-34.00,-15.00,1450.00,0.00,0.00,1421.00,14,19.00,12.04,19.73,-8.00,9.00,0.00,0,,,100,100,0,2,0,0,0,1,0,,,,,0.0,0.0,0.0,0.0,0.0,0.0,0
34.182569,-118.129100,1.90,2.00,1.14,2.08,1.90,1.90,1.50,2.08,6403,2022-06-08 14:31:51.945,2022-06-08 07:31:51.945,16,0,0,16.145,34.182586,-118.129110,-0.70,0.90,0.00,3.40,-1.30,144.90,0,1,0,90,100,-7052,3313,16145,2991.50,1,WP,1,0,0,0,0,0,0,1654698711945,4040,4032,4040,4037,0,0,27,,,,,,,0,0,0,-34.00,-13.00,1449.00,0.00,0.00,1420.00,14,19.00,11.40,20.79,-7.00,9.00,0.00,0,,,100,100,0,2,0,0,0,1,0,,,,,0.0,0.0,0.0,0.0,0.0,0.0,0
34.182568,-118.129100,1.90,2.00,1.08,2.20,1.90,1.90,1.50,2.20,6504,2022-06-08 14:31:52.047,2022-06-08 07:31:52.047,16,0,0,16.145,34.182586,-118.129110,-0.60,0.90,0.00,3.20,-1.00,145.40,0,1,0,90,100,-7052,3313,16145,2991.50,1,WP,1,0,0,0,0,0,0,1654698712046,4040,4032,4040,4037,0,0,27,,,,,,,0,0,0,-32.00,-10.00,1454.00,0.00,0.00,1419.00,14,19.00,10.82,22.02,-6.00,9.00,0.00,0,,,100,100,0,2,0,0,0,1,0,,,,,0.0,0.0,0.0,0.0,0.0,0.0,0
34.182567,-118.129099,1.90,2.00,1.00,2.30,1.90,1.90,1.50,2.30,6603,2022-06-08 14:31:52.145,2022-06-08 07:31:52.145,16,0,0,16.118,34.182586,-118.129110,-0.60,0.80,0.00,3.20,-0.90,147.20,0,1,0,90,100,-7114,3309,16118,2991.50,1,WP,1,0,0,0,0,0,0,1654698712145,4040,4032,4040,4037,0,0,27,,,,,,,0,0,0,-32.00,-9.00,1472.00,0.00,0.00,1418.00,14,19.00,10.00,22.98,-6.00,8.00,0.00,0,,,100,100,0,2,0,0,0,1,0,,,,,0.0,0.0,0.0,0.0,0.0,0.0,0
34.182567,-118.129098,1.90,2.00,1.00,2.40,1.90,1.90,1.50,2.40,6653,2022-06-08 14:31:52.196,2022-06-08 07:31:52.196,16,0,0,16.118,34.182586,-118.129110,-0.60,0.80,0.00,3.00,-0.60,147.80,0,1,0,90,100,-7114,3309,16118,2991.50,1,WP,1,0,0,0,0,0,0,1654698712195,4040,4032,4040,4037,0,0,27,,,,,,,0,0,0,-30.00,-6.00,1478.00,0.00,0.00,1411.00,14,19.00,10.00,23.99,-6.00,8.00,0.00,0,,,100,100,0,2,0,0,0,1,0,,,,,0.0,0.0,0.0,0.0,0.0,0.0,0
34.182566,-118.129097,1.90,2.00,0.86,2.48,1.90,1.90,1.50,2.48,6755,2022-06-08 14:31:52.298,2022-06-08 07:31:52.298,16,0,0,16.118,34.182586,-118.129110,-0.50,0.70,0.00,3.00,-0.10,147.60,0,1,0,90,100,-7114,3309,16118,2991.50,1,WP,1,0,0,0,0,0,0,1654698712297,4040,4032,4040,4037,0,0,27,,,,,,,0,0,0,-30.00,-1.00,1476.00,0.00,0.00,1393.00,14,19.00,8.60,24.83,-5.00,7.00,0.00,0,,,100,100,0,2,0,0,0,1,0,,,,,0.0,0.0,0.0,0.0,0.0,0.0,0
34.182565,-118.129096,1.90,2.00,0.86,2.58,1.90,1.90,1.50,2.58,6904,2022-06-08 14:31:52.446,2022-06-08 07:31:52.446,16,0,0,16.118,34.182586,-118.129110,-0.50,0.70,0.00,2.90,0.00,147.10,0,1,0,90,100,-7114,3309,16118,2991.50,1,WP,1,0,0,0,0,0,0,1654698712446,4040,4032,4040,4037,0,0,27,,,,,,,0,0,0,-29.00,0.00,1471.00,0.00,0.00,1371.00,14,19.00,8.60,25.84,-5.00,7.00,0.00,0,,,100,100,0,2,0,0,0,1,0,,,,,0.0,0.0,0.0,0.0,0.0,0.0,0
34.182565,-118.129096,1.90,2.00,0.72,2.66,1.90,1.90,1.50,2.66,7004,2022-06-08 14:31:52.547,2022-06-08 07:31:52.547,16,0,0,16.118,34.182586,-118.129110,-0.40,0.60,0.00,3.20,0.40,146.50,0,1,0,90,100,-7114,3309,16118,2991.50,1,WP,1,0,0,0,0,0,0,1654698712546,4040,4032,4040,4037,0,0,27,,,,,,,0,0,0,-32.00,4.00,1465.00,0.00,0.00,1355.00,14,19.00,7.21,26.59,-4.00,6.00,0.00,0,,,100,100,0,2,0,0,0,1,0,,,,,0.0,0.0,0.0,0.0,0.0,0.0,0
34.182565,-118.129095,1.90,2.00,0.72,2.74,1.90,1.90,1.50,2.74,7103,2022-06-08 14:31:52.646,2022-06-08 07:31:52.646,16,0,0,16.118,34.182586,-118.129110,-0.40,0.60,0.00,3.60,0.60,146.10,0,1,0,90,100,-7114,3309,16118,2991.50,1,WP,1,0,0,0,0,0,0,1654698712645,4040,4032,4040,4037,0,0,27,,,,,,,0,0,0,-36.00,6.00,1461.00,0.00,0.00,1344.00,14,19.00,7.21,27.35,-4.00,6.00,0.00,0,,,100,100,0,2,0,0,0,1,0,,,,,0.0,0.0,0.0,0.0,0.0,0.0,0
34.182564,-118.129095,1.90,2.00,0.58,2.80,1.90,1.90,1.50,2.80,7154,2022-06-08 14:31:52.697,2022-06-08 07:31:52.697,16,0,0,16.118,34.182586,-118.129110,-0.30,0.50,0.00,4.20,1.00,145.80,0,1,0,90,100,-7114,3309,16118,2991.50,1,WP,1,0,0,0,0,0,0,1654698712696,4040,4032,4040,4037,0,0,27,,,,,,,0,0,0,-42.00,10.00,1458.00,0.00,0.00,1336.00,14,19.00,5.83,28.00,-3.00,5.00,0.00,0,,,100,100,0,2,0,0,0,1,0,,,,,0.0,0.0,0.0,0.0,0.0,0.0,0
34.182564,-118.129094,1.90,2.00,0.58,2.86,1.90,1.90,1.50,2.86,7255,2022-06-08 14:31:52.798,2022-06-08 07:31:52.798,16,0,0,16.118,34.182586,-118.129110,-0.30,0.50,0.00,4.50,1.10,145.50,0,1,0,90,100,-7114,3309,16118,2991.50,1,WP,1,0,0,0,0,0,0,1654698712797,4040,4032,4040,4037,0,0,27,,,,,,,0,0,0,-45.00,11.00,1455.00,0.00,0.00,1331.00,14,19.00,5.83,28.63,-3.00,5.00,0.00,0,,,100,100,0,2,0,0,0,1,0,,,,,0.0,0.0,0.0,0.0,0.0,0.0,0
34.182563,-118.129093,1.90,2.00,0.45,2.91,1.90,1.90,1.50,2.91,7404,2022-06-08 14:31:52.946,2022-06-08 07:31:52.946,16,0,0,16.118,34.182586,-118.129110,-0.20,0.40,0.00,4.70,1.20,145.20,0,1,0,90,100,-7114,3309,16118,2991.50,1,WP,1,0,0,0,0,0,0,1654698712946,4040,4032,4040,4037,0,0,27,,,,,,,0,0,0,-47.00,12.00,1452.00,0.00,0.00,1327.00,14,19.00,4.47,29.14,-2.00,4.00,0.00,0,,,100,100,0,2,0,0,0,1,0,,,,,0.0,0.0,0.0,0.0,0.0,0.0,0
34.182563,-118.129093,1.90,2.00,0.45,2.95,1.90,1.90,1.50,2.95,7505,2022-06-08 14:31:53.047,2022-06-08 07:31:53.047,16,0,0,16.118,34.182586,-118.129110,-0.20,0.40,0.00,4.40,1.20,145.10,0,1,0,90,100,-7114,3309,16118,2991.50,1,WP,1,0,0,0,0,0,0,1654698713047,4040,4032,4040,4037,0,0,27,,,,,,,0,0,0,-44.00,12.00,1451.00,0.00,0.00,1324.00,14,19.00,4.47,29.53,-2.00,4.00,0.00,0,,,100,100,0,2,0,0,0,1,0,,,,,0.0,0.0,0.0,0.0,0.0,0.0,0
34.182563,-118.129092,1.90,2.00,0.32,2.99,1.90,1.90,1.50,2.99,7604,2022-06-08 14:31:53.146,2022-06-08 07:31:53.146,16,0,0,16.118,34.182586,-118.129110,-0.10,0.30,0.00,4.40,2.10,145.10,0,1,0,90,100,-7114,3309,16118,2991.50,1,WP,1,0,0,0,0,0,0,1654698713146,4040,4032,4040,4037,0,0,27,,,,,,,0,0,0,-44.00,21.00,1451.00,0.00,0.00,1321.00,14,19.00,3.16,29.88,-1.00,3.00,0.00,0,,,100,100,0,2,0,0,0,1,0,,,,,0.0,0.0,0.0,0.0,0.0,0.0,0
34.182563,-118.129092,1.90,2.00,0.22,3.02,1.90,1.90,1.50,3.02,7704,2022-06-08 14:31:53.247,2022-06-08 07:31:53.247,16,0,0,16.118,34.182586,-118.129110,-0.10,0.20,0.00,5.20,3.20,145.10,0,1,0,90,100,-7114,3309,16118,2991.50,1,WP,1,0,0,0,0,0,0,1654698713246,4040,4032,4040,4037,0,0,27,,,,,,,0,0,0,-52.00,32.00,1451.00,0.00,0.00,1319.00,14,19.00,2.24,30.25,-1.00,2.00,0.00,0,,,100,100,0,2,0,0,0,1,0,,,,,0.0,0.0,0.0,0.0,0.0,0.0,0
34.182563,-118.129092,1.90,2.00,0.10,3.04,1.90,1.90,1.50,3.04,7805,2022-06-08 14:31:53.348,2022-06-08 07:31:53.348,16,0,0,16.118,34.182586,-118.129110,0.00,0.10,0.00,4.00,2.30,145.10,0,1,0,90,100,-7114,3309,16118,2991.50,1,WP,1,0,0,0,0,0,0,1654698713347,4040,4032,4040,4037,0,0,27,,,,,,,0,0,0,-40.00,23.00,1451.00,0.00,0.00,1318.00,14,19.00,1.00,30.45,0.00,1.00,0.00,0,,,100,100,0,2,0,0,0,1,0,,,,,0.0,0.0,0.0,0.0,0.0,0.0,0
34.182563,-118.129092,1.90,2.00,0.10,3.05,1.90,1.90,1.50,3.05,7904,2022-06-08 14:31:53.446,2022-06-08 07:31:53.446,16,0,0,16.118,34.182586,-118.129110,0.00,0.10,0.00,2.80,1.60,144.60,0,1,0,90,100,-7114,3309,16118,2991.50,1,WP,1,0,0,0,0,0,0,1654698713446,4040,4032,4040,4037,0,0,27,,,,,,,0,0,0,-28.00,16.00,1446.00,0.00,0.00,1317.00,14,19.00,1.00,30.54,0.00,1.00,0.00,0,,,100,100,0,2,0,0,0,1,0,,,,,0.0,0.0,0.0,0.0,0.0,0.0,0
34.182563,-118.129092,1.90,2.00,0.00,3.06,1.90,1.90,1.50,3.06,8005,2022-06-08 14:31:53.547,2022-06-08 07:31:53.547,16,0,0,16.118,34.182586,-118.129110,0.00,0.00,0.00,2.00,0.90,137.30,0,1,0,90,100,-7114,3309,16118,2991.50,1,WP,1,0,0,0,0,0,0,1654698713547,4040,4032,4040,4037,0,0,27,,,,,,,0,0,0,-20.00,9.00,1373.00,0.00,0.00,1315.00,14,19.00,0.00,30.63,0.00,0.00,0.00,0,,,100,100,0,2,0,0,0,1,0,,,,,0.0,0.0,0.0,0.0,0.0,0.0,0
34.182563,-118.129091,1.90,2.00,0.00,3.07,1.90,1.90,1.50,3.07,8104,2022-06-08 14:31:53.647,2022-06-08 07:31:53.647,16,0,0,16.118,34.182586,-118.129110,0.00,0.00,0.00,1.40,0.00,129.70,0,1,0,90,100,-7114,3309,16118,2991.50,1,WP,1,0,0,0,0,0,0,1654698713646,4040,4032,4040,4037,0,0,27,,,,,,,0,0,0,-14.00,0.00,1297.00,0.00,0.00,1290.00,14,19.00,0.00,30.70,0.00,0.00,0.00,0,,,100,100,0,2,0,0,0,1,0,,,,,0.0,0.0,0.0,0.0,0.0,0.0,0
34.182563,-118.129092,1.90,2.00,0.00,3.07,1.90,1.90,1.50,3.07,8204,2022-06-08 14:31:53.747,2022-06-08 07:31:53.747,16,0,0,16.118,34.182586,-118.129110,0.00,0.00,0.00,1.00,-0.20,122.20,0,1,0,90,100,-7114,3309,16118,2991.50,1,WP,1,0,0,0,0,0,0,1654698713746,4040,4032,4040,4037,0,0,27,,,,,,,0,0,0,-10.00,-2.00,1222.00,0.00,0.00,1214.00,14,19.00,0.00,30.74,0.00,0.00,0.00,0,,,100,100,0,2,0,0,0,1,0,,,,,0.0,0.0,0.0,0.0,0.0,0.0,0
34.182563,-118.129092,1.90,2.00,0.00,3.05,1.90,1.90,1.50,3.07,8305,2022-06-08 14:31:53.848,2022-06-08 07:31:53.848,16,0,0,16.118,34.182586,-118.129110,0.00,0.00,0.00,0.70,-0.30,114.70,0,1,0,90,100,-7114,3309,16118,2991.50,1,WP,1,0,0,0,0,0,0,1654698713847,4040,4032,4040,4037,0,0,27,,,,,,,0,0,0,-7.00,-3.00,1147.00,0.00,0.00,1128.00,14,19.00,0.00,30.53,0.00,0.00,0.00,0,,,100,100,0,2,0,0,0,1,0,,,,,0.0,0.0,0.0,0.0,0.0,0.0,0
34.182563,-118.129092,1.90,2.00,0.00,3.05,1.90,1.90,1.50,3.07,8405,2022-06-08 14:31:53.947,2022-06-08 07:31:53.947,16,0,0,16.118,34.182586,-118.129110,0.00,0.00,0.00,0.40,-0.10,107.20,0,1,0,90,100,-7114,3309,16118,2991.50,1,WP,1,0,0,0,0,0,0,1654698713947,4040,4032,4040,4037,0,0,27,,,,,,,0,0,0,-4.00,-1.00,1072.00,0.00,0.00,1045.00,14,19.00,0.00,30.51,0.00,0.00,0.00,0,,,100,100,0,2,0,0,0,1,0,,,,,0.0,0.0,0.0,0.0,0.0,0.0,0
34.182563,-118.129092,1.90,2.00,0.00,3.04,1.90,1.90,1.50,3.07,8505,2022-06-08 14:31:54.048,2022-06-08 07:31:54.048,16,0,0,16.063,34.182586,-118.129110,0.00,0.00,0.00,0.40,0.00,99.80,0,1,0,90,100,-7584,3305,16063,2991.50,1,WP,1,0,0,0,0,0,0,1654698714047,4040,4032,4040,4037,0,0,27,,,,,,,0,0,0,-4.00,0.00,998.00,0.00,0.00,965.00,14,19.00,0.00,30.41,0.00,0.00,0.00,0,,,100,100,0,2,0,0,0,1,0,,,,,0.0,0.0,0.0,0.0,0.0,0.0,0
34.182563,-118.129092,1.90,2.00,0.00,3.04,1.90,1.90,1.50,3.07,8605,2022-06-08 14:31:54.148,2022-06-08 07:31:54.148,16,0,0,16.063,34.182586,-118.129110,0.00,0.00,0.00,0.40,0.10,92.30,0,1,0,90,100,-7584,3305,16063,2991.50,1,WP,1,0,0,0,0,0,0,1654698714147,4040,4032,4040,4037,0,0,27,,,,,,,0,0,0,-4.00,1.00,923.00,0.00,0.00,886.00,14,19.00,0.00,30.38,0.00,0.00,0.00,0,,,100,100,0,2,0,0,0,1,0,,,,,0.0,0.0,0.0,0.0,0.0,0.0,0
34.182563,-118.129092,1.90,1.90,0.00,3.02,1.90,1.90,1.50,3.07,8656,2022-06-08 14:31:54.199,2022-06-08 07:31:54.199,16,0,0,16.063,34.182586,-118.129110,0.00,0.00,0.00,0.50,0.20,84.80,0,1,0,90,100,-7584,3305,16063,2991.50,1,WP,1,0,0,0,0,0,0,1654698714198,4040,4032,4040,4037,0,0,27,,,,,,,0,0,0,-5.00,2.00,848.00,0.00,0.00,809.00,14,19.00,0.00,30.21,0.00,0.00,0.00,0,,,100,100,0,2,0,0,0,1,0,,,,,0.0,0.0,0.0,0.0,0.0,0.0,0
34.182563,-118.129092,1.90,1.90,0.00,3.02,1.90,1.90,1.50,3.07,8804,2022-06-08 14:31:54.347,2022-06-08 07:31:54.347,16,0,0,16.063,34.182586,-118.129110,0.00,0.00,0.00,0.60,0.30,77.40,0,1,0,90,100,-7584,3305,16063,2991.50,1,WP,1,0,0,0,0,0,0,1654698714346,4040,4032,4040,4037,0,0,27,,,,,,,0,0,0,-6.00,3.00,774.00,0.00,0.00,732.00,14,19.00,0.00,30.17,0.00,0.00,0.00,0,,,100,100,0,2,0,0,0,1,0,,,,,0.0,0.0,0.0,0.0,0.0,0.0,0
34.182564,-118.129091,1.90,1.90,0.00,3.00,1.90,1.90,1.50,3.07,8904,2022-06-08 14:31:54.447,2022-06-08 07:31:54.447,16,0,0,16.063,34.182586,-118.129110,0.00,0.00,0.00,0.80,0.30,69.80,0,1,0,90,100,-7584,3305,16063,2991.50,1,WP,1,0,0,0,0,0,0,1654698714446,4040,4032,4040,4037,0,0,27,,,,,,,0,0,0,-8.00,3.00,698.00,0.00,0.00,655.00,14,19.00,0.00,29.97,0.00,0.00,0.00,0,,,100,100,0,2,0,0,0,1,0,,,,,0.0,0.0,0.0,0.0,0.0,0.0,0
34.182564,-118.129091,1.90,2.00,0.00,2.99,1.90,1.90,1.50,3.07,9005,2022-06-08 14:31:54.548,2022-06-08 07:31:54.548,16,0,0,16.063,34.182586,-118.129110,0.00,0.00,0.00,1.00,0.40,62.30,0,1,0,90,100,-7584,3305,16063,2991.50,1,WP,1,0,0,0,0,0,0,1654698714547,4040,4032,4040,4037,0,0,27,,,,,,,0,0,0,-10.00,4.00,623.00,0.00,0.00,580.00,14,19.00,0.00,29.91,0.00,0.00,0.00,0,,,100,100,0,2,0,0,0,1,0,,,,,0.0,0.0,0.0,0.0,0.0,0.0,0
34.182564,-118.129091,1.90,1.90,0.00,2.97,1.90,1.90,1.50,3.07,9106,2022-06-08 14:31:54.649,2022-06-08 07:31:54.649,16,0,0,16.063,34.182586,-118.129110,0.00,0.00,0.00,1.20,0.30,54.90,0,1,0,90,100,-7584,3305,16063,2991.50,1,WP,1,0,0,0,0,0,0,1654698714648,4040,4032,4040,4037,0,0,27,,,,,,,0,0,0,-12.00,3.00,549.00,0.00,0.00,504.00,14,19.00,0.00,29.69,0.00,0.00,0.00,0,,,100,100,0,2,0,0,0,1,0,,,,,0.0,0.0,0.0,0.0,0.0,0.0,0
34.182564,-118.129091,1.90,1.90,0.00,2.96,1.90,1.90,1.50,3.07,9157,2022-06-08 14:31:54.700,2022-06-08 07:31:54.700,16,0,0,16.063,34.182586,-118.129110,0.00,0.00,0.00,1.40,0.10,47.40,0,1,0,90,100,-7584,3305,16063,2991.50,1,WP,1,0,0,0,0,0,0,1654698714699,4040,4032,4040,4037,0,0,27,,,,,,,0,0,0,-14.00,1.00,474.00,0.00,0.00,428.00,14,19.00,0.00,29.62,0.00,0.00,0.00,0,,,100,100,0,2,0,0,0,1,0,,,,,0.0,0.0,0.0,0.0,0.0,0.0,0
34.182564,-118.129091,1.90,1.90,0.00,2.94,1.90,1.90,1.50,3.07,9304,2022-06-08 14:31:54.847,2022-06-08 07:31:54.847,16,0,0,16.063,34.182586,-118.129110,0.00,0.00,0.00,1.50,0.00,39.80,0,1,0,90,100,-7584,3305,16063,2991.50,1,WP,1,0,0,0,0,0,0,1654698714846,4040,4032,4040,4037,0,0,27,,,,,,,0,0,0,-15.00,0.00,398.00,0.00,0.00,352.00,14,19.00,0.00,29.44,0.00,0.00,0.00,0,,,100,100,0,2,0,0,0,1,0,,,,,0.0,0.0,0.0,0.0,0.0,0.0,0
34.182564,-118.129091,1.90,1.90,0.00,2.94,1.90,1.90,1.50,3.07,9406,2022-06-08 14:31:54.949,2022-06-08 07:31:54.949,16,0,0,16.063,34.182586,-118.129110,0.00,0.00,0.00,1.60,-0.20,32.40,0,1,0,90,100,-7584,3305,16063,2991.50,1,WP,1,0,0,0,0,0,0,1654698714948,4040,4032,4040,4037,0,0,27,,,,,,,0,0,0,-16.00,-2.00,324.00,0.00,0.00,276.00,14,19.00,0.00,29.36,0.00,0.00,0.00,0,,,100,100,0,2,0,0,0,1,0,,,,,0.0,0.0,0.0,0.0,0.0,0.0,0
34.182564,-118.129091,1.90,1.90,0.00,2.93,1.90,1.90,1.50,3.07,9505,2022-06-08 14:31:55.048,2022-06-08 07:31:55.048,16,0,0,16.063,34.182586,-118.129110,0.00,0.00,0.00,1.60,-0.40,26.00,0,1,0,90,100,-7584,3305,16063,2991.50,1,WP,1,0,0,0,0,0,0,1654698715047,4040,4032,4040,4037,0,0,27,,,,,,,0,0,0,-16.00,-4.00,260.00,0.00,0.00,203.00,14,19.00,0.00,29.32,0.00,0.00,0.00,0,,,100,100,0,2,0,0,0,1,0,,,,,0.0,0.0,0.0,0.0,0.0,0.0,0
34.182564,-118.129091,1.90,1.90,0.00,2.92,1.90,1.90,1.50,3.07,9605,2022-06-08 14:31:55.148,2022-06-08 07:31:55.148,16,0,0,16.063,34.182586,-118.129110,0.00,0.00,0.00,1.60,-0.50,21.00,0,1,0,90,100,-7584,3305,16063,2991.50,1,WP,1,0,0,0,0,0,0,1654698715147,4040,4032,4040,4037,0,0,27,,,,,,,0,0,0,-16.00,-5.00,210.00,0.00,0.00,138.00,14,19.00,0.00,29.24,0.00,0.00,0.00,0,,,100,100,0,2,0,0,0,1,0,,,,,0.0,0.0,0.0,0.0,0.0,0.0,0
34.182564,-118.129092,1.90,1.90,0.00,2.91,1.90,1.90,1.50,3.07,9705,2022-06-08 14:31:55.248,2022-06-08 07:31:55.248,16,0,0,16.063,34.182586,-118.129110,0.00,0.00,0.00,1.60,-0.60,17.00,0,1,0,90,100,-7584,3305,16063,2991.50,1,WP,1,0,0,0,0,0,0,1654698715247,4040,4032,4040,4037,0,0,27,,,,,,,0,0,0,-16.00,-6.00,170.00,0.00,0.00,86.00,14,19.00,0.00,29.10,0.00,0.00,0.00,0,,,100,100,0,2,0,0,0,1,0,,,,,0.0,0.0,0.0,0.0,0.0,0.0,0
34.182565,-118.129092,1.90,1.90,0.00,2.90,1.90,1.90,1.50,3.07,9806,2022-06-08 14:31:55.348,2022-06-08 07:31:55.348,16,0,0,16.063,34.182586,-118.129110,0.00,0.00,0.00,1.60,-0.60,13.70,0,1,0,90,100,-7584,3305,16063,2991.50,1,WP,1,0,0,0,0,0,0,1654698715348,4040,4032,4040,4037,0,0,27,,,,,,,0,0,0,-16.00,-6.00,137.00,0.00,0.00,43.00,14,19.00,0.00,29.01,0.00,0.00,0.00,0,,,100,100,0,2,0,0,0,1,0,,,,,0.0,0.0,0.0,0.0,0.0,0.0,0
34.182564,-118.129092,1.90,1.90,0.00,2.90,1.90,1.90,1.50,3.07,9905,2022-06-08 14:31:55.448,2022-06-08 07:31:55.448,16,0,0,16.063,34.182586,-118.129110,0.00,0.00,0.00,1.60,-0.60,11.00,0,1,0,90,100,-7584,3305,16063,2991.50,1,WP,1,0,0,0,0,0,0,1654698715447,4040,4032,4040,4037,0,0,27,,,,,,,0,0,0,-16.00,-6.00,110.00,0.00,0.00,9.00,14,19.00,0.00,28.98,0.00,0.00,0.00,0,,,100,100,0,2,0,0,0,1,0,,,,,0.0,0.0,0.0,0.0,0.0,0.0,0
34.182565,-118.129092,1.90,1.90,0.00,2.89,1.90,1.90,1.50,3.07,10005,2022-06-08 14:31:55.548,2022-06-08 07:31:55.548,16,0,0,16.063,34.182586,-118.129110,0.00,0.00,0.00,1.50,-0.60,8.90,0,1,0,90,100,-7584,3305,16063,2991.50,1,WP,1,0,0,0,0,0,0,1654698715547,4040,4032,4040,4037,0,0,27,,,,,,,0,0,0,-15.00,-6.00,89.00,0.00,0.00,-17.00,14,19.00,0.00,28.88,0.00,0.00,0.00,0,,,100,100,0,2,0,0,0,1,0,,,,,0.0,0.0,0.0,0.0,0.0,0.0,0
34.182564,-118.129092,1.90,1.90,0.00,2.89,1.90,1.90,1.50,3.07,10106,2022-06-08 14:31:55.648,2022-06-08 07:31:55.648,16,0,0,16.063,34.182586,-118.129110,0.00,0.00,0.00,1.40,-0.50,7.20,0,1,0,90,100,-7584,3305,16063,2991.50,1,WP,1,0,0,0,0,0,0,1654698715648,4040,4032,4040,4037,0,0,27,,,,,,,0,0,0,-14.00,-5.00,72.00,0.00,0.00,-39.00,14,19.00,0.00,28.93,0.00,0.00,0.00,0,,,100,100,0,2,0,0,0,1,0,,,,,0.0,0.0,0.0,0.0,0.0,0.0,0
34.182564,-118.129092,1.90,1.90,0.00,2.88,1.90,1.90,1.50,3.07,10206,2022-06-08 14:31:55.749,2022-06-08 07:31:55.749,16,0,0,16.063,34.182586,-118.129110,0.00,0.00,0.00,1.40,-0.40,5.70,0,1,0,90,100,-7584,3305,16063,2991.50,1,WP,1,0,0,0,0,0,0,1654698715748,4040,4032,4040,4037,0,0,27,,,,,,,0,0,0,-14.00,-4.00,57.00,0.00,0.00,-57.00,14,19.00,0.00,28.84,0.00,0.00,0.00,0,,,100,100,0,2,0,0,0,1,0,,,,,0.0,0.0,0.0,0.0,0.0,0.0,0
34.182564,-118.129092,1.90,1.90,0.00,2.89,1.90,1.90,1.50,3.07,10306,2022-06-08 14:31:55.849,2022-06-08 07:31:55.849,16,0,0,16.063,34.182586,-118.129110,0.00,0.00,0.00,1.40,-0.40,4.60,0,1,0,90,100,-7584,3305,16063,2991.50,1,WP,1,0,0,0,0,0,0,1654698715848,4040,4032,4040,4037,0,0,27,,,,,,,0,0,0,-14.00,-4.00,46.00,0.00,0.00,-72.00,14,19.00,0.00,28.94,0.00,0.00,0.00,0,,,100,100,0,2,0,0,0,1,0,,,,,0.0,0.0,0.0,0.0,0.0,0.0,0
34.182564,-118.129092,1.90,1.90,0.00,2.89,1.90,1.90,1.50,3.07,10407,2022-06-08 14:31:55.949,2022-06-08 07:31:55.949,16,0,0,16.063,34.182586,-118.129110,0.00,0.00,0.00,0.90,-0.80,4.70,0,1,0,90,100,-7584,3305,16063,2991.50,1,WP,1,0,0,0,0,0,0,1654698715949,4040,4032,4040,4037,0,0,27,,,,,,,0,0,0,-9.00,-8.00,47.00,0.00,0.00,-84.00,14,19.00,0.00,28.86,0.00,0.00,0.00,0,,,100,100,0,2,0,0,0,1,0,,,,,0.0,0.0,0.0,0.0,0.0,0.0,0
34.182564,-118.129092,1.90,1.90,0.00,2.89,1.90,1.90,1.50,3.07,10507,2022-06-08 14:31:56.050,2022-06-08 07:31:56.050,16,0,0,16.063,34.182586,-118.129110,0.00,0.00,0.00,1.00,-0.70,4.70,0,1,0,90,100,-7584,3305,16063,2991.50,1,WP,1,0,0,0,0,0,0,1654698716049,4040,4032,4040,4037,0,0,27,,,,,,,0,0,0,-10.00,-7.00,47.00,0.00,0.00,-90.00,14,19.00,0.00,28.92,0.00,0.00,0.00,0,,,100,100,0,2,0,0,0,1,0,,,,,0.0,0.0,0.0,0.0,0.0,0.0,0
34.182564,-118.129092,1.90,1.90,0.00,2.88,1.90,1.90,1.50,3.07,10560,2022-06-08 14:31:56.103,2022-06-08 07:31:56.103,16,0,0,16.067,34.182586,-118.129110,0.00,0.00,0.00,1.10,-0.70,4.80,0,1,0,90,100,-7243,3299,16067,2991.50,1,WP,1,0,0,0,0,0,0,1654698716102,4040,4032,4040,4037,0,0,27,,,,,,,0,0,0,-11.00,-7.00,48.00,0.00,0.00,-92.00,14,19.00,0.00,28.83,0.00,0.00,0.00,0,,,100,100,0,2,0,0,0,1,0,,,,,0.0,0.0,0.0,0.0,0.0,0.0,0
34.182564,-118.129092,1.90,2.00,0.00,2.89,1.90,1.90,1.50,3.07,10706,2022-06-08 14:31:56.249,2022-06-08 07:31:56.249,16,0,0,16.067,34.182586,-118.129110,0.00,0.00,0.00,1.10,-0.70,4.80,0,1,0,90,100,-7243,3299,16067,2991.50,1,WP,1,0,0,0,0,0,0,1654698716248,4040,4032,4040,4037,0,0,27,,,,,,,0,0,0,-11.00,-7.00,48.00,0.00,0.00,-93.00,14,19.00,0.00,28.92,0.00,0.00,0.00,0,,,100,100,0,2,0,0,0,1,0,,,,,0.0,0.0,0.0,0.0,0.0,0.0,0
34.182564,-118.129092,1.90,1.90,0.00,2.88,1.90,1.90,1.50,3.07,10806,2022-06-08 14:31:56.348,2022-06-08 07:31:56.348,16,0,0,16.067,34.182586,-118.129110,0.00,0.00,0.00,1.20,-0.70,4.80,0,1,0,90,100,-7243,3299,16067,2991.50,1,WP,1,0,0,0,0,0,0,1654698716348,4040,4032,4040,4037,0,0,27,,,,,,,0,0,0,-12.00,-7.00,48.00,0.00,0.00,-93.00,14,19.00,0.00,28.83,0.00,0.00,0.00,0,,,100,100,0,2,0,0,0,1,0,,,,,0.0,0.0,0.0,0.0,0.0,0.0,0
34.182564,-118.129092,1.90,1.90,0.00,2.91,1.90,1.90,1.50,3.07,10906,2022-06-08 14:31:56.449,2022-06-08 07:31:56.449,16,0,0,16.067,34.182586,-118.129110,0.00,0.00,0.00,1.10,-0.50,4.80,0,1,0,90,100,-7243,3299,16067,2991.50,1,WP,1,0,0,0,0,0,0,1654698716448,4040,4032,4040,4037,0,0,27,,,,,,,0,0,0,-11.00,-5.00,48.00,0.00,0.00,-94.00,14,19.00,0.00,29.06,0.00,0.00,0.00,0,,,100,100,0,2,0,0,0,1,0,,,,,0.0,0.0,0.0,0.0,0.0,0.0,0
34.182564,-118.129092,1.90,2.00,0.00,2.90,1.90,1.90,1.50,3.07,11006,2022-06-08 14:31:56.549,2022-06-08 07:31:56.549,16,0,0,16.067,34.182586,-118.129110,0.00,0.00,0.00,1.10,-0.40,4.80,0,1,0,90,100,-7243,3299,16067,2991.50,1,WP,1,0,0,0,0,0,0,1654698716548,4040,4032,4040,4037,0,0,27,,,,,,,0,0,0,-11.00,-4.00,48.00,0.00,0.00,-94.00,14,19.00,0.00,28.99,0.00,0.00,0.00,0,,,100,100,0,2,0,0,0,1,0,,,,,0.0,0.0,0.0,0.0,0.0,0.0,0
34.182564,-118.129093,1.90,1.90,0.00,2.91,1.90,1.90,1.50,3.07,11108,2022-06-08 14:31:56.650,2022-06-08 07:31:56.650,16,0,0,16.067,34.182586,-118.129110,0.00,0.00,0.00,1.10,-0.40,4.80,0,1,0,90,100,-7243,3299,16067,2991.50,1,WP,1,0,0,0,0,0,0,1654698716650,4040,4032,4040,4037,0,0,27,,,,,,,0,0,0,-11.00,-4.00,48.00,0.00,0.00,-94.00,14,19.00,0.00,29.07,0.00,0.00,0.00,0,,,100,100,0,2,0,0,0,1,0,,,,,0.0,0.0,0.0,0.0,0.0,0.0,0
34.182564,-118.129093,1.90,1.90,0.00,2.90,1.90,1.90,1.50,3.07,11208,2022-06-08 14:31:56.751,2022-06-08 07:31:56.751,16,0,0,16.067,34.182586,-118.129110,0.00,0.00,0.00,1.00,-0.20,4.70,0,1,0,90,100,-7243,3299,16067,2991.50,1,WP,1,0,0,0,0,0,0,1654698716750,4040,4032,4040,4037,0,0,27,,,,,,,0,0,0,-10.00,-2.00,47.00,0.00,0.00,-94.00,14,19.00,0.00,29.00,0.00,0.00,0.00,0,,,100,100,0,2,0,0,0,1,0,,,,,0.0,0.0,0.0,0.0,0.0,0.0,0
34.182564,-118.129093,1.90,1.90,0.00,2.90,1.90,1.90,1.50,3.07,11308,2022-06-08 14:31:56.851,2022-06-08 07:31:56.851,16,0,0,16.067,34.182586,-118.129110,0.00,0.00,0.00,1.00,0.00,4.70,0,1,0,90,100,-7243,3299,16067,2991.50,1,WP,1,0,0,0,0,0,0,1654698716850,4040,4032,4040,4037,0,0,27,,,,,,,0,0,0,-10.00,0.00,47.00,0.00,0.00,-94.00,14,19.00,0.00,29.02,0.00,0.00,0.00,0,,,100,100,0,2,0,0,0,1,0,,,,,0.0,0.0,0.0,0.0,0.0,0.0,0
34.182564,-118.129093,1.90,1.90,0.00,2.90,1.90,1.90,1.50,3.07,11357,2022-06-08 14:31:56.899,2022-06-08 07:31:56.900,16,0,0,16.067,34.182586,-118.129110,0.00,0.00,0.00,1.00,-0.10,4.70,0,1,0,90,100,-7243,3299,16067,2991.50,1,WP,1,0,0,0,0,0,0,1654698716899,4040,4032,4040,4037,0,0,27,,,,,,,0,0,0,-10.00,-1.00,47.00,0.00,0.00,-94.00,14,19.00,0.00,28.96,0.00,0.00,0.00,0,,,100,100,0,2,0,0,0,1,0,,,,,0.0,0.0,0.0,0.0,0.0,0.0,0
34.182564,-118.129093,1.90,1.90,0.00,2.90,1.90,1.90,1.50,3.07,11457,2022-06-08 14:31:57.000,2022-06-08 07:31:57.000,16,0,0,16.067,34.182586,-118.129110,0.00,0.00,0.00,1.00,-0.20,4.70,0,1,0,90,100,-7243,3299,16067,2991.50,1,WP,1,0,0,0,0,0,0,1654698716999,4040,4032,4040,4037,0,0,27,,,,,,,0,0,0,-10.00,-2.00,47.00,0.00,0.00,-94.00,14,19.00,0.00,29.05,0.00,0.00,0.00,0,,,100,100,0,2,0,0,0,1,0,,,,,0.0,0.0,0.0,0.0,0.0,0.0,0
34.182564,-118.129093,1.90,1.90,0.00,2.90,1.90,1.90,1.50,3.07,11559,2022-06-08 14:31:57.101,2022-06-08 07:31:57.101,16,0,0,16.067,34.182586,-118.129110,0.00,0.00,0.00,1.10,-0.30,4.70,0,1,0,90,100,-7243,3299,16067,2991.50,1,WP,1,0,0,0,0,0,0,1654698717101,4040,4032,4040,4037,0,0,27,,,,,,,0,0,0,-11.00,-3.00,47.00,0.00,0.00,-94.00,14,19.00,0.00,29.00,0.00,0.00,0.00,0,,,100,100,0,2,0,0,0,1,0,,,,,0.0,0.0,0.0,0.0,0.0,0.0,0
34.182564,-118.129093,1.90,2.00,0.00,2.92,1.90,1.90,1.50,3.07,11659,2022-06-08 14:31:57.201,2022-06-08 07:31:57.201,16,0,0,16.067,34.182586,-118.129110,0.00,0.00,0.00,1.10,-0.60,4.80,0,1,0,90,100,-7243,3299,16067,2991.50,1,WP,1,0,0,0,0,0,0,1654698717201,4040,4032,4040,4037,0,0,27,,,,,,,0,0,0,-11.00,-6.00,48.00,0.00,0.00,-95.00,14,19.00,0.00,29.16,0.00,0.00,0.00,0,,,100,100,0,2,0,0,0,1,0,,,,,0.0,0.0,0.0,0.0,0.0,0.0,0
34.182564,-118.129093,1.90,2.00,0.00,2.91,1.90,1.90,1.50,3.07,11759,2022-06-08 14:31:57.301,2022-06-08 07:31:57.301,16,0,0,16.067,34.182586,-118.129110,0.00,0.00,0.00,1.10,-0.60,4.80,0,1,0,90,100,-7243,3299,16067,2991.50,1,WP,1,0,0,0,0,0,0,1654698717301,4040,4032,4040,4037,0,0,27,,,,,,,0,0,0,-11.00,-6.00,48.00,0.00,0.00,-95.00,14,19.00,0.00,29.12,0.00,0.00,0.00,0,,,100,100,0,2,0,0,0,1,0,,,,,0.0,0.0,0.0,0.0,0.0,0.0,0
34.182564,-118.129093,1.90,2.00,0.00,2.93,1.90,1.90,1.50,3.07,11859,2022-06-08 14:31:57.402,2022-06-08 07:31:57.402,16,0,0,16.067,34.182586,-118.129110,0.00,0.00,0.00,1.10,-0.50,4.90,0,1,0,90,100,-7243,3299,16067,2991.50,1,WP,1,0,0,0,0,0,0,1654698717401,4040,4032,4040,4037,0,0,27,,,,,,,0,0,0,-11.00,-5.00,49.00,0.00,0.00,-95.00,14,19.00,0.00,29.31,0.00,0.00,0.00,0,,,100,100,0,2,0,0,0,1,0,,,,,0.0,0.0,0.0,0.0,0.0,0.0,0
34.182564,-118.129093,1.90,1.90,0.00,2.93,1.90,1.90,1.50,3.07,11959,2022-06-08 14:31:57.502,2022-06-08 07:31:57.502,16,0,0,16.067,34.182586,-118.129110,0.00,0.00,0.00,1.00,-0.50,4.90,0,1,0,90,100,-7243,3299,16067,2991.50,1,WP,1,0,0,0,0,0,0,1654698717501,4040,4032,4040,4037,0,0,27,,,,,,,0,0,0,-10.00,-5.00,49.00,0.00,0.00,-95.00,14,19.00,0.00,29.29,0.00,0.00,0.00,0,,,100,100,0,2,0,0,0,1,0,,,,,0.0,0.0,0.0,0.0,0.0,0.0,0
34.182563,-118.129093,1.90,2.00,0.00,2.94,1.90,1.90,1.50,3.07,12059,2022-06-08 14:31:57.602,2022-06-08 07:31:57.602,16,0,0,16.067,34.182586,-118.129110,0.00,0.00,0.00,1.00,-0.50,4.90,0,1,0,90,100,-7243,3299,16067,2991.50,1,WP,1,0,0,0,0,0,0,1654698717601,4040,4032,4040,4037,0,0,27,,,,,,,0,0,0,-10.00,-5.00,49.00,0.00,0.00,-95.00,14,19.00,0.00,29.37,0.00,0.00,0.00,0,,,100,100,0,2,0,0,0,1,0,,,,,0.0,0.0,0.0,0.0,0.0,0.0,0
34.182563,-118.129093,1.90,2.00,0.00,2.93,1.90,1.90,1.50,3.07,12209,2022-06-08 14:31:57.751,2022-06-08 07:31:57.751,16,0,0,16.067,34.182586,-118.129110,0.00,0.00,0.00,1.00,-0.40,4.90,0,1,0,90,100,-7243,3299,16067,2991.50,1,WP,1,0,0,0,0,0,0,1654698717751,4040,4032,4040,4037,0,0,27,,,,,,,0,0,0,-10.00,-4.00,49.00,0.00,0.00,-95.00,14,19.00,0.00,29.35,0.00,0.00,0.00,0,,,100,100,0,2,0,0,0,1,0,,,,,0.0,0.0,0.0,0.0,0.0,0.0,0
34.182563,-118.129093,1.90,2.00,0.00,2.93,1.90,1.90,1.50,3.07,12309,2022-06-08 14:31:57.851,2022-06-08 07:31:57.851,16,0,0,16.067,34.182586,-118.129110,0.00,0.00,0.00,1.00,-0.40,5.00,0,1,0,90,100,-7243,3299,16067,2991.50,1,WP,1,0,0,0,0,0,0,1654698717851,4040,4032,4040,4037,0,0,27,,,,,,,0,0,0,-10.00,-4.00,50.00,0.00,0.00,-95.00,14,19.00,0.00,29.35,0.00,0.00,0.00,0,,,100,100,0,2,0,0,0,1,0,,,,,0.0,0.0,0.0,0.0,0.0,0.0,0
34.182563,-118.129093,1.80,2.00,0.00,2.93,1.90,1.90,1.50,3.07,12359,2022-06-08 14:31:57.901,2022-06-08 07:31:57.901,16,0,0,16.067,34.182586,-118.129110,0.00,0.00,0.00,1.00,-0.30,5.00,0,1,0,90,100,-7243,3299,16067,2991.50,1,WP,1,0,0,0,0,0,0,1654698717901,4040,4032,4040,4037,0,0,27,,,,,,,0,0,0,-10.00,-3.00,50.00,0.00,0.00,-95.00,14,18.00,0.00,29.33,0.00,0.00,0.00,0,,,100,100,0,2,0,0,0,1,0,,,,,0.0,0.0,0.0,0.0,0.0,0.0,0
34.182563,-118.129093,1.80,2.00,0.00,2.94,1.90,1.90,1.50,3.07,12509,2022-06-08 14:31:58.051,2022-06-08 07:31:58.051,16,0,0,16.067,34.182586,-118.129110,0.00,0.00,0.00,1.10,-0.20,5.00,0,1,0,90,100,-7243,3299,16067,2991.50,1,WP,1,0,0,0,0,0,0,1654698718051,4040,4032,4040,4037,0,0,27,,,,,,,0,0,0,-11.00,-2.00,50.00,0.00,0.00,-95.00,14,18.00,0.00,29.41,0.00,0.00,0.00,0,,,100,100,0,2,0,0,0,1,0,,,,,0.0,0.0,0.0,0.0,0.0,0.0,0
34.182563,-118.129093,1.80,2.00,0.00,2.94,1.90,1.90,1.50,3.07,12609,2022-06-08 14:31:58.152,2022-06-08 07:31:58.152,16,0,0,16.048,34.182586,-118.129110,0.00,0.00,0.00,1.10,-0.20,5.00,0,1,0,90,100,-7180,3295,16048,2991.50,1,WP,1,0,0,0,0,0,0,1654698718151,4040,4032,4040,4037,0,0,27,,,,,,,0,0,0,-11.00,-2.00,50.00,0.00,0.00,-95.00,14,18.00,0.00,29.40,0.00,0.00,0.00,0,,,100,100,0,2,0,0,0,1,0,,,,,0.0,0.0,0.0,0.0,0.0,0.0,0
34.182563,-118.129093,1.80,1.90,0.00,2.94,1.90,1.90,1.50,3.07,12661,2022-06-08 14:31:58.203,2022-06-08 07:31:58.203,16,0,0,16.048,34.182586,-118.129110,0.00,0.00,0.00,1.20,-0.20,5.00,0,1,0,90,100,-7180,3295,16048,2991.50,1,WP,1,0,0,0,0,0,0,1654698718203,4040,4032,4040,4037,0,0,27,,,,,,,0,0,0,-12.00,-2.00,50.00,0.00,0.00,-95.00,14,18.00,0.00,29.42,0.00,0.00,0.00,0,,,100,100,0,2,0,0,0,1,0,,,,,0.0,0.0,0.0,0.0,0.0,0.0,0
34.182563,-118.129093,1.80,1.90,0.00,2.94,1.90,1.90,1.50,3.07,12758,2022-06-08 14:31:58.301,2022-06-08 07:31:58.301,16,0,0,16.048,34.182586,-118.129110,0.00,0.00,0.00,1.30,-0.30,5.00,0,1,0,90,100,-7180,3295,16048,2991.50,1,WP,1,0,0,0,0,0,0,1654698718300,4040,4032,4040,4037,0,0,27,,,,,,,0,0,0,-13.00,-3.00,50.00,0.00,0.00,-95.00,14,18.00,0.00,29.41,0.00,0.00,0.00,0,,,100,100,0,2,0,0,0,1,0,,,,,0.0,0.0,0.0,0.0,0.0,0.0,0
34.182563,-118.129093,1.80,1.90,0.00,2.94,1.90,1.90,1.50,3.07,12909,2022-06-08 14:31:58.451,2022-06-08 07:31:58.451,16,0,0,16.048,34.182586,-118.129110,0.00,0.00,0.00,1.30,-0.30,4.90,0,1,0,90,100,-7180,3295,16048,2991.50,1,WP,1,0,0,0,0,0,0,1654698718451,4040,4032,4040,4037,0,0,27,,,,,,,0,0,0,-13.00,-3.00,49.00,0.00,0.00,-95.00,14,18.00,0.00,29.37,0.00,0.00,0.00,0,,,100,100,0,2,0,0,0,1,0,,,,,0.0,0.0,0.0,0.0,0.0,0.0,0
34.182563,-118.129093,1.80,1.90,0.00,2.94,1.90,1.90,1.50,3.07,12959,2022-06-08 14:31:58.501,2022-06-08 07:31:58.502,16,0,0,16.048,34.182586,-118.129110,0.00,0.00,0.00,1.30,-0.30,4.90,0,1,0,90,100,-7180,3295,16048,2991.50,1,WP,1,0,0,0,0,0,0,1654698718501,4040,4032,4040,4037,0,0,27,,,,,,,0,0,0,-13.00,-3.00,49.00,0.00,0.00,-95.00,14,18.00,0.00,29.37,0.00,0.00,0.00,0,,,100,100,0,2,0,0,0,1,0,,,,,0.0,0.0,0.0,0.0,0.0,0.0,0
34.182563,-118.129093,1.80,1.90,0.00,2.94,1.90,1.90,1.50,3.07,13109,2022-06-08 14:31:58.651,2022-06-08 07:31:58.651,16,0,0,16.048,34.182586,-118.129110,0.00,0.00,0.00,1.30,-0.20,4.90,0,1,0,90,100,-7180,3295,16048,2991.50,1,WP,1,0,0,0,0,0,0,1654698718651,4017,4006,4014,4011,0,0,27,,,,,,,0,0,0,-13.00,-2.00,49.00,0.00,0.00,-95.00,14,18.00,0.00,29.39,0.00,0.00,0.00,0,,,100,100,0,2,0,0,0,1,0,,,,,0.0,0.0,0.0,0.0,0.0,0.0,0
34.182563,-118.129093,1.80,1.90,0.00,2.94,1.90,1.90,1.50,3.07,13160,2022-06-08 14:31:58.703,2022-06-08 07:31:58.703,16,0,0,16.048,34.182586,-118.129110,0.00,0.00,0.00,1.30,-0.20,4.90,0,1,0,90,100,-7180,3295,16048,2991.50,1,WP,1,0,0,0,0,0,0,1654698718702,4017,4006,4014,4011,0,0,27,,,,,,,0,0,0,-13.00,-2.00,49.00,0.00,0.00,-95.00,14,18.00,0.00,29.40,0.00,0.00,0.00,0,,,100,100,0,2,0,0,0,1,0,,,,,0.0,0.0,0.0,0.0,0.0,0.0,0
34.182563,-118.129093,1.80,2.00,0.00,2.92,1.90,1.90,1.50,3.07,13261,2022-06-08 14:31:58.804,2022-06-08 07:31:58.804,16,0,0,16.048,34.182586,-118.129110,0.00,0.00,0.00,1.40,-0.30,4.90,0,1,0,90,100,-7180,3295,16048,2991.50,1,WP,1,0,0,0,0,0,0,1654698718803,4017,4006,4014,4011,0,0,27,,,,,,,0,0,0,-14.00,-3.00,49.00,0.00,0.00,-95.00,14,18.00,0.00,29.21,0.00,0.00,0.00,0,,,100,100,0,2,0,0,0,1,0,,,,,0.0,0.0,0.0,0.0,0.0,0.0,0
34.182563,-118.129093,1.80,2.00,0.00,2.92,1.90,1.90,1.50,3.07,13359,2022-06-08 14:31:58.902,2022-06-08 07:31:58.902,16,0,0,16.048,34.182586,-118.129110,0.00,0.00,0.00,1.40,-0.30,4.90,0,1,0,90,100,-7180,3295,16048,2991.50,1,WP,1,0,0,0,0,0,0,1654698718901,4017,4006,4014,4011,0,0,27,,,,,,,0,0,0,-14.00,-3.00,49.00,0.00,0.00,-95.00,14,18.00,0.00,29.21,0.00,0.00,0.00,0,,,100,100,0,2,0,0,0,1,0,,,,,0.0,0.0,0.0,0.0,0.0,0.0,0
34.182563,-118.129093,1.80,1.90,0.00,2.92,1.90,1.90,1.50,3.07,13509,2022-06-08 14:31:59.052,2022-06-08 07:31:59.052,16,0,0,16.048,34.182586,-118.129110,0.00,0.00,0.00,1.50,-0.30,4.90,0,1,0,90,100,-7180,3295,16048,2991.50,1,WP,1,0,0,0,0,0,0,1654698719051,4017,4006,4014,4011,0,0,27,,,,,,,0,0,0,-15.00,-3.00,49.00,0.00,0.00,-95.00,14,18.00,0.00,29.24,0.00,0.00,0.00,0,,,100,100,0,2,0,0,0,1,0,,,,,0.0,0.0,0.0,0.0,0.0,0.0,0
34.182563,-118.129093,1.80,1.90,0.00,2.93,1.90,1.90,1.50,3.07,13559,2022-06-08 14:31:59.102,2022-06-08 07:31:59.102,16,0,0,16.048,34.182586,-118.129110,0.00,0.00,0.00,1.50,-0.30,4.90,0,1,0,90,100,-7180,3295,16048,2991.50,1,WP,1,0,0,0,0,0,0,1654698719101,4017,4006,4014,4011,0,0,27,,,,,,,0,0,0,-15.00,-3.00,49.00,0.00,0.00,-95.00,14,18.00,0.00,29.25,0.00,0.00,0.00,0,,,100,100,0,2,0,0,0,1,0,,,,,0.0,0.0,0.0,0.0,0.0,0.0,0
34.182563,-118.129093,1.80,2.00,0.00,2.93,1.90,1.90,1.50,3.07,13660,2022-06-08 14:31:59.202,2022-06-08 07:31:59.202,16,0,0,16.048,34.182586,-118.129110,0.00,0.00,0.00,1.50,-0.40,4.90,0,1,0,90,100,-7180,3295,16048,2991.50,1,WP,1,0,0,0,0,0,0,1654698719202,4017,4006,4014,4011,0,0,27,,,,,,,0,0,0,-15.00,-4.00,49.00,0.00,0.00,-95.00,14,18.00,0.00,29.27,0.00,0.00,0.00,0,,,100,100,0,2,0,0,0,1,0,,,,,0.0,0.0,0.0,0.0,0.0,0.0,0
