latitude,longitude,altitude(m),ultrasonicHeight(m),speed(mps),distance(m),max_altitude(m),max_ascent(m),max_speed(mps),max_distance(m),time(millisecond),datetime(utc),datetime(local),satellites,pressure(Pa),temperature(F),voltage(v),home_latitude,home_longitude,velocityX(mps),velocityY(mps),velocityZ(mps),pitch(deg),roll(deg),yaw(deg),powerlevel,isflying,istakingphoto,remainPowerPercent,remainLifePercent,currentCurrent,currentElectricity,currentVoltage,batteryTemperature,dischargeCount,flightmode,isMotorsOn,isTakingVideo,Rc_elevator,Rc_aileron,Rc_throttle,Rc_rudder,Rc_gyro,timestamp,Battery_Cell1,Battery_Cell2,Battery_Cell3,Battery_Cell4,Battery_Cell5,Battery_Cell6,Dronetype,AppVersion,Planename,FlyControllerSerialNumber,RemoteSerialNumber,BatterySerialNumber,CENTER_BATTERY.productDate,CENTER_BATTERY.serialNo,CENTER_BATTERY.fullCapacity,CENTER_BATTERY.productDateRaw,pitchRaw,rollRaw,yawRaw,gimbalPitchRaw,gimbalRollRaw,gimbalYawRaw,flyState,altitudeRaw,speedRaw,distanceRaw,velocityXRaw,velocityYRaw,velocityZRaw,data_reuse,App_Tip,App_Warning,downlinkSignalQuality,uplinkSignalQuality,transmissionChannel,rcModeSwitch,rcHome,rcPause,rcTransform,rcJoystickMode,appMode,FlyControllerSerialNumber_legacy,RemoteSerialNumber_legacy,BatterySerialNumber_legacy,Battery2SerialNumber,frontAvoidDist,backAvoidDist,rightAvoidDist,leftAvoidDist,upAvoidDist,downAvoidDist,isBrakingToAvoid
33.737629,-118.104810,0.40,0.70,0.57,0.30,0.40,0.40,0.57,0.30,1,2022-06-09 00:57:57.308,2022-06-08 17:57:57.308,17,0,0,16.918,33.737627,-118.104812,0.20,0.20,-0.50,-6.60,-0.10,-122.70,0,1,0,99,100,-5051,3557,16918,3011.50,2,TakeOff,1,0,0,0,0,0,0,1654736277308,4255,4238,4237,4231,0,0,27,Litchi_iOS_2.14.0,Brian-MAVIC 2,163DFCK001S13F,1DUCFB800104PR,0P2AG1J53400UY,,0,3601,0,66.00,-1.00,-1227.00,-892.00,0.00,-1235.00,11,4.00,5.74,2.95,2.00,2.00,-5.00,0,,,100,100,0,2,0,0,0,1,0,(null),(null),,,0.0,0.0,0.0,0.0,0.0,0.0,0
33.737629,-118.104809,0.40,0.80,0.57,0.33,0.40,0.40,0.57,0.33,101,2022-06-09 00:57:57.409,2022-06-08 17:57:57.409,17,0,0,16.918,33.737627,-118.104812,0.20,0.20,-0.50,-6.80,-0.40,-122.60,0,1,0,99,100,-5051,3557,16918,3011.50,2,TakeOff,1,0,0,0,0,0,0,1654736277408,4255,4238,4237,4231,0,0,27,,,,,,,0,0,0,68.00,-4.00,-1226.00,-895.00,0.00,-1235.00,11,4.00,5.74,3.26,2.00,2.00,-5.00,0,,,100,100,0,2,0,0,0,1,0,,,,,0.0,0.0,0.0,0.0,0.0,0.0,0
33.737629,-118.104809,0.50,0.90,0.57,0.36,0.50,0.50,0.57,0.36,202,2022-06-09 00:57:57.509,2022-06-08 17:57:57.509,17,0,0,16.918,33.737627,-118.104812,0.20,0.20,-0.50,-6.50,-0.50,-122.70,0,1,0,99,100,-5051,3557,16918,3011.50,2,TakeOff,1,0,0,0,0,0,0,1654736277509,4255,4238,4237,4231,0,0,27,,,,,,,0,0,0,65.00,-5.00,-1227.00,-893.00,0.00,-1235.00,11,5.00,5.74,3.58,2.00,2.00,-5.00,0,,,100,100,0,2,0,0,0,1,0,,,,,0.0,0.0,0.0,0.0,0.0,0.0,0
33.737630,-118.104809,0.60,0.90,0.57,0.40,0.60,0.60,0.57,0.40,300,2022-06-09 00:57:57.607,2022-06-08 17:57:57.607,17,0,0,16.918,33.737627,-118.104812,0.20,0.20,-0.50,-6.30,-0.70,-122.80,0,1,0,99,100,-5051,3557,16918,3011.50,2,TakeOff,1,0,0,0,0,0,0,1654736277607,4255,4238,4237,4231,0,0,27,,,,,,,0,0,0,63.00,-7.00,-1228.00,-890.00,0.00,-1235.00,11,6.00,5.74,4.00,2.00,2.00,-5.00,0,,,100,100,0,2,0,0,0,1,0,,,,,0.0,0.0,0.0,0.0,0.0,0.0,0
33.737630,-118.104809,0.60,0.90,0.55,0.43,0.60,0.60,0.57,0.43,400,2022-06-09 00:57:57.708,2022-06-08 17:57:57.708,17,0,0,16.918,33.737627,-118.104812,0.10,0.20,-0.50,-6.40,-0.40,-122.90,0,1,0,99,100,-5051,3557,16918,3011.50,2,TakeOff,1,0,0,0,0,0,0,1654736277707,4255,4238,4237,4231,0,0,27,,,,,,,0,0,0,64.00,-4.00,-1229.00,-891.00,0.00,-1234.00,11,6.00,5.48,4.31,1.00,2.00,-5.00,0,,,100,100,0,2,0,0,0,1,0,,,,,0.0,0.0,0.0,0.0,0.0,0.0,0
33.737630,-118.104808,0.70,1.00,0.46,0.48,0.70,0.70,0.57,0.48,500,2022-06-09 00:57:57.807,2022-06-08 17:57:57.807,17,0,0,16.918,33.737627,-118.104812,0.10,0.20,-0.40,-6.60,-0.40,-122.90,0,1,0,99,100,-5051,3557,16918,3011.50,2,TakeOff,1,0,0,0,0,0,0,1654736277807,4255,4238,4237,4231,0,0,27,,,,,,,0,0,0,66.00,-4.00,-1229.00,-893.00,0.00,-1234.00,11,7.00,4.58,4.78,1.00,2.00,-4.00,0,,,100,100,0,2,0,0,0,1,0,,,,,0.0,0.0,0.0,0.0,0.0,0.0,0
33.737630,-118.104808,0.70,1.00,0.55,0.51,0.70,0.70,0.57,0.51,600,2022-06-09 00:57:57.908,2022-06-08 17:57:57.908,17,0,0,16.918,33.737627,-118.104812,0.10,0.20,-0.50,-6.50,-0.30,-122.90,0,1,0,99,100,-5051,3557,16918,3011.50,2,TakeOff,1,0,0,0,0,0,0,1654736277907,4255,4238,4237,4231,0,0,27,,,,,,,0,0,0,65.00,-3.00,-1229.00,-892.00,0.00,-1234.00,11,7.00,5.48,5.08,1.00,2.00,-5.00,0,,,100,100,0,2,0,0,0,1,0,,,,,0.0,0.0,0.0,0.0,0.0,0.0,0
33.737630,-118.104808,0.80,1.10,0.55,0.53,0.80,0.80,0.57,0.53,702,2022-06-09 00:57:58.009,2022-06-08 17:57:58.009,17,0,0,16.918,33.737627,-118.104812,0.10,0.20,-0.50,-6.40,-0.30,-122.90,0,1,0,99,100,-5051,3557,16918,3011.50,2,GPS,1,0,0,0,0,0,0,1654736278009,4255,4238,4237,4231,0,0,27,,,,,,,0,0,0,64.00,-3.00,-1229.00,-889.00,0.00,-1234.00,6,8.00,5.48,5.34,1.00,2.00,-5.00,0,,,100,100,0,2,0,0,0,1,0,,,,,0.0,0.0,0.0,0.0,0.0,0.0,0
33.737630,-118.104807,0.80,1.10,0.42,0.56,0.80,0.80,0.57,0.56,800,2022-06-09 00:57:58.108,2022-06-08 17:57:58.108,17,0,0,16.918,33.737627,-118.104812,0.10,0.10,-0.40,-6.40,-0.50,-123.00,0,1,0,99,100,-5051,3557,16918,3011.50,2,WP,1,0,0,0,0,0,0,1654736278107,4255,4238,4237,4231,0,0,27,,,,,,,0,0,0,64.00,-5.00,-1230.00,-891.00,0.00,-1234.00,14,8.00,4.24,5.62,1.00,1.00,-4.00,0,,,100,100,0,2,0,0,0,1,0,,,,,0.0,0.0,0.0,0.0,0.0,0.0,0
33.737631,-118.104807,0.90,1.20,0.42,0.57,0.90,0.90,0.57,0.57,900,2022-06-09 00:57:58.208,2022-06-08 17:57:58.208,17,0,0,16.918,33.737627,-118.104812,0.10,0.10,-0.40,-6.30,-0.40,-123.10,0,1,0,99,100,-5051,3557,16918,3011.50,2,WP,1,0,0,0,0,0,0,1654736278207,4255,4238,4237,4231,0,0,27,,,,,,,0,0,0,63.00,-4.00,-1231.00,-890.00,0.00,-1234.00,14,9.00,4.24,5.74,1.00,1.00,-4.00,0,,,100,100,0,2,0,0,0,1,0,,,,,0.0,0.0,0.0,0.0,0.0,0.0,0
33.737631,-118.104807,0.90,1.20,0.42,0.60,0.90,0.90,0.57,0.60,1002,2022-06-09 00:57:58.309,2022-06-08 17:57:58.309,17,0,0,16.918,33.737627,-118.104812,0.10,0.10,-0.40,-6.10,-0.70,-123.10,0,1,0,99,100,-5051,3557,16918,3011.50,2,WP,1,0,0,0,0,0,0,1654736278309,4255,4238,4237,4231,0,0,27,,,,,,,0,0,0,61.00,-7.00,-1231.00,-888.00,0.00,-1234.00,14,9.00,4.24,5.99,1.00,1.00,-4.00,0,,,100,100,0,2,0,0,0,1,0,,,,,0.0,0.0,0.0,0.0,0.0,0.0,0
33.737631,-118.104807,1.00,1.30,0.42,0.62,1.00,1.00,0.57,0.62,1100,2022-06-09 00:57:58.408,2022-06-08 17:57:58.408,17,0,0,16.918,33.737627,-118.104812,0.10,0.10,-0.40,-7.60,-1.20,-123.20,0,1,0,99,100,-5051,3557,16918,3011.50,2,WP,1,0,0,0,0,0,0,1654736278407,4255,4238,4237,4231,0,0,27,,,,,,,0,0,0,76.00,-12.00,-1232.00,-902.00,0.00,-1234.00,14,10.00,4.24,6.17,1.00,1.00,-4.00,0,,,100,100,0,2,0,0,0,1,0,,,,,0.0,0.0,0.0,0.0,0.0,0.0,0
33.737631,-118.104807,1.00,1.30,0.42,0.64,1.00,1.00,0.57,0.64,1191,2022-06-09 00:57:58.498,2022-06-08 17:57:58.498,17,0,0,16.706,33.737627,-118.104812,0.10,0.10,-0.40,-7.70,-1.40,-123.20,0,1,0,99,100,-6933,3552,16706,3011.50,2,WP,1,0,0,0,0,0,0,1654736278498,4255,4238,4237,4231,0,0,27,,,,,,,0,0,0,77.00,-14.00,-1232.00,-904.00,0.00,-1234.00,14,10.00,4.24,6.38,1.00,1.00,-4.00,0,,,100,100,0,2,0,0,0,1,0,,,,,0.0,0.0,0.0,0.0,0.0,0.0,0
33.737631,-118.104807,1.00,1.40,0.42,0.67,1.00,1.00,0.57,0.67,1301,2022-06-09 00:57:58.609,2022-06-08 17:57:58.609,17,0,0,16.706,33.737627,-118.104812,0.10,0.10,-0.40,-7.80,-1.30,-123.20,0,1,0,99,100,-6933,3552,16706,3011.50,2,WP,1,0,0,0,0,0,0,1654736278608,4255,4238,4237,4231,0,0,27,,,,,,,0,0,0,78.00,-13.00,-1232.00,-905.00,0.00,-1234.00,14,10.00,4.24,6.67,1.00,1.00,-4.00,0,,,100,100,0,2,0,0,0,1,0,,,,,0.0,0.0,0.0,0.0,0.0,0.0,0
33.737631,-118.104807,1.10,1.40,0.41,0.68,1.10,1.10,0.57,0.68,1401,2022-06-09 00:57:58.708,2022-06-08 17:57:58.708,17,0,0,16.706,33.737627,-118.104812,0.10,0.00,-0.40,-7.90,-1.40,-123.20,0,1,0,99,100,-6933,3552,16706,3011.50,2,WP,1,0,0,0,0,0,0,1654736278708,4255,4238,4237,4231,0,0,27,,,,,,,0,0,0,79.00,-14.00,-1232.00,-906.00,0.00,-1235.00,14,11.00,4.12,6.85,1.00,0.00,-4.00,0,,,100,100,0,2,0,0,0,1,0,,,,,0.0,0.0,0.0,0.0,0.0,0.0,0
33.737631,-118.104807,1.10,1.50,0.40,0.69,1.10,1.10,0.57,0.69,1502,2022-06-09 00:57:58.809,2022-06-08 17:57:58.809,17,0,0,16.706,33.737627,-118.104812,0.00,0.00,-0.40,-7.80,-1.40,-123.10,0,1,0,99,100,-6933,3552,16706,3011.50,2,WP,1,0,0,0,0,0,0,1654736278809,4255,4238,4237,4231,0,0,27,,,,,,,0,0,0,78.00,-14.00,-1231.00,-905.00,0.00,-1235.00,14,11.00,4.00,6.93,0.00,0.00,-4.00,0,,,100,100,0,2,0,0,0,1,0,,,,,0.0,0.0,0.0,0.0,0.0,0.0,0
33.737632,-118.104806,1.20,1.50,0.50,0.70,1.20,1.20,0.57,0.70,1601,2022-06-09 00:57:58.909,2022-06-08 17:57:58.909,17,0,0,16.706,33.737627,-118.104812,0.00,0.00,-0.50,-7.40,-1.50,-123.20,0,1,0,99,100,-6933,3552,16706,3011.50,2,WP,1,0,0,0,0,0,0,1654736278908,4255,4238,4237,4231,0,0,27,,,,,,,0,0,0,74.00,-15.00,-1232.00,-902.00,0.00,-1235.00,14,12.00,5.00,7.03,0.00,0.00,-5.00,0,,,100,100,0,2,0,0,0,1,0,,,,,0.0,0.0,0.0,0.0,0.0,0.0,0
33.737632,-118.104806,1.20,1.60,0.50,0.71,1.20,1.20,0.57,0.71,1702,2022-06-09 00:57:59.009,2022-06-08 17:57:59.009,17,0,0,16.706,33.737627,-118.104812,0.00,0.00,-0.50,-7.20,-1.70,-123.20,0,1,0,99,100,-6933,3552,16706,3011.50,2,WP,1,0,0,0,0,0,0,1654736279009,4255,4238,4237,4231,0,0,27,,,,,,,0,0,0,72.00,-17.00,-1232.00,-898.00,0.00,-1235.00,14,12.00,5.00,7.10,0.00,0.00,-5.00,0,,,100,100,0,2,0,0,0,1,0,,,,,0.0,0.0,0.0,0.0,0.0,0.0,0
33.737632,-118.104806,1.30,1.60,0.40,0.71,1.30,1.30,0.57,0.71,1803,2022-06-09 00:57:59.110,2022-06-08 17:57:59.110,17,0,0,16.706,33.737627,-118.104812,0.00,0.00,-0.40,-6.90,-1.90,-123.20,0,1,0,99,100,-6933,3552,16706,3011.50,2,WP,1,0,0,0,0,0,0,1654736279110,4255,4238,4237,4231,0,0,27,,,,,,,0,0,0,69.00,-19.00,-1232.00,-895.00,0.00,-1235.00,14,13.00,4.00,7.15,0.00,0.00,-4.00,0,,,100,100,0,2,0,0,0,1,0,,,,,0.0,0.0,0.0,0.0,0.0,0.0,0
33.737632,-118.104807,1.30,1.70,0.40,0.70,1.30,1.30,0.57,0.71,1901,2022-06-09 00:57:59.209,2022-06-08 17:57:59.209,17,0,0,16.706,33.737627,-118.104812,0.00,0.00,-0.40,-6.50,-1.70,-123.20,0,1,0,99,100,-6933,3552,16706,3011.50,2,WP,1,0,0,0,0,0,0,1654736279208,4255,4238,4237,4231,0,0,27,,,,,,,0,0,0,65.00,-17.00,-1232.00,-891.00,0.00,-1235.00,14,13.00,4.00,7.04,0.00,0.00,-4.00,0,,,100,100,0,2,0,0,0,1,0,,,,,0.0,0.0,0.0,0.0,0.0,0.0,0
33.737632,-118.104807,1.40,1.70,0.50,0.70,1.40,1.40,0.57,0.71,2002,2022-06-09 00:57:59.309,2022-06-08 17:57:59.309,17,0,0,16.706,33.737627,-118.104812,0.00,0.00,-0.50,-6.00,-1.60,-123.30,0,1,0,99,100,-6933,3552,16706,3011.50,2,WP,1,0,0,0,0,0,0,1654736279309,4255,4238,4237,4231,0,0,27,,,,,,,0,0,0,60.00,-16.00,-1233.00,-886.00,0.00,-1235.00,14,14.00,5.00,7.04,0.00,0.00,-5.00,0,,,100,100,0,2,0,0,0,1,0,,,,,0.0,0.0,0.0,0.0,0.0,0.0,0
33.737632,-118.104807,1.50,1.80,0.50,0.70,1.50,1.50,0.57,0.71,2102,2022-06-09 00:57:59.410,2022-06-08 17:57:59.410,17,0,0,16.706,33.737627,-118.104812,0.00,0.00,-0.50,-6.00,-1.50,-123.20,0,1,0,99,100,-6933,3552,16706,3011.50,2,WP,1,0,0,0,0,0,0,1654736279409,4255,4238,4237,4231,0,0,27,,,,,,,0,0,0,60.00,-15.00,-1232.00,-885.00,0.00,-1235.00,14,15.00,5.00,7.00,0.00,0.00,-5.00,0,,,100,100,0,2,0,0,0,1,0,,,,,0.0,0.0,0.0,0.0,0.0,0.0,0
33.737632,-118.104807,1.50,1.90,0.60,0.70,1.50,1.50,0.60,0.71,2201,2022-06-09 00:57:59.509,2022-06-08 17:57:59.509,17,0,0,16.706,33.737627,-118.104812,0.00,0.00,-0.60,-5.80,-1.80,-123.30,0,1,0,99,100,-6933,3552,16706,3011.50,2,WP,1,0,0,0,0,0,0,1654736279508,4255,4238,4237,4231,0,0,27,,,,,,,0,0,0,58.00,-18.00,-1233.00,-884.00,0.00,-1235.00,14,15.00,6.00,6.99,0.00,0.00,-6.00,0,,,100,100,0,2,0,0,0,1,0,,,,,0.0,0.0,0.0,0.0,0.0,0.0,0
33.737632,-118.104807,1.60,1.90,0.60,0.69,1.60,1.60,0.60,0.71,2303,2022-06-09 00:57:59.611,2022-06-08 17:57:59.611,17,0,0,16.706,33.737627,-118.104812,0.00,0.00,-0.60,-5.80,-1.60,-123.20,0,1,0,99,100,-6933,3552,16706,3011.50,2,WP,1,0,0,0,0,0,0,1654736279610,4255,4238,4237,4231,0,0,27,,,,,,,0,0,0,58.00,-16.00,-1232.00,-883.00,0.00,-1235.00,14,16.00,6.00,6.85,0.00,0.00,-6.00,0,,,100,100,0,2,0,0,0,1,0,,,,,0.0,0.0,0.0,0.0,0.0,0.0,0
33.737631,-118.104807,1.70,2.00,0.60,0.68,1.70,1.70,0.60,0.71,2404,2022-06-09 00:57:59.711,2022-06-08 17:57:59.711,17,0,0,16.706,33.737627,-118.104812,0.00,0.00,-0.60,-5.90,-0.90,-123.20,0,1,0,99,100,-6933,3552,16706,3011.50,2,WP,1,0,0,0,0,0,0,1654736279711,4255,4238,4237,4231,0,0,27,,,,,,,0,0,0,59.00,-9.00,-1232.00,-883.00,0.00,-1235.00,14,17.00,6.00,6.82,0.00,0.00,-6.00,0,,,100,100,0,2,0,0,0,1,0,,,,,0.0,0.0,0.0,0.0,0.0,0.0,0
33.737632,-118.104807,1.70,2.10,0.50,0.69,1.70,1.70,0.60,0.71,2504,2022-06-09 00:57:59.811,2022-06-08 17:57:59.811,17,0,0,16.706,33.737627,-118.104812,0.00,0.00,-0.50,-5.80,-0.80,-123.20,0,1,0,99,100,-6933,3552,16706,3011.50,2,WP,1,0,0,0,0,0,0,1654736279811,4255,4238,4237,4231,0,0,27,,,,,,,0,0,0,58.00,-8.00,-1232.00,-883.00,0.00,-1235.00,14,17.00,5.00,6.85,0.00,0.00,-5.00,0,,,100,100,0,2,0,0,0,1,0,,,,,0.0,0.0,0.0,0.0,0.0,0.0,0
33.737632,-118.104807,1.80,2.10,0.40,0.68,1.80,1.80,0.60,0.71,2605,2022-06-09 00:57:59.912,2022-06-08 17:57:59.912,17,0,0,16.706,33.737627,-118.104812,0.00,0.00,-0.40,-5.70,-1.10,-123.20,0,1,0,99,100,-6933,3552,16706,3011.50,2,WP,1,0,0,0,0,0,0,1654736279912,4255,4238,4237,4231,0,0,27,,,,,,,0,0,0,57.00,-11.00,-1232.00,-882.00,0.00,-1235.00,14,18.00,4.00,6.82,0.00,0.00,-4.00,0,,,100,100,0,2,0,0,0,1,0,,,,,0.0,0.0,0.0,0.0,0.0,0.0,0
33.737631,-118.104807,1.80,2.20,0.30,0.66,1.80,1.80,0.60,0.71,2708,2022-06-09 00:58:00.015,2022-06-08 17:58:00.015,17,0,0,16.706,33.737627,-118.104812,0.00,0.00,-0.30,-5.50,-0.90,-123.20,0,1,0,99,100,-6933,3552,16706,3011.50,2,WP,1,0,0,0,0,0,0,1654736280015,4255,4238,4237,4231,0,0,27,,,,,,,0,0,0,55.00,-9.00,-1232.00,-880.00,0.00,-1235.00,14,18.00,3.00,6.65,0.00,0.00,-3.00,0,,,100,100,0,2,0,0,0,1,0,,,,,0.0,0.0,0.0,0.0,0.0,0.0,0
33.737631,-118.104807,1.80,2.20,0.30,0.66,1.80,1.80,0.60,0.71,2811,2022-06-09 00:58:00.118,2022-06-08 17:58:00.118,17,0,0,16.706,33.737627,-118.104812,0.00,0.00,-0.30,-5.40,-0.20,-123.20,0,1,0,99,100,-6933,3552,16706,3011.50,2,WP,1,0,0,0,0,0,0,1654736280118,4255,4238,4237,4231,0,0,27,,,,,,,0,0,0,54.00,-2.00,-1232.00,-878.00,0.00,-1235.00,14,18.00,3.00,6.61,0.00,0.00,-3.00,0,,,100,100,0,2,0,0,0,1,0,,,,,0.0,0.0,0.0,0.0,0.0,0.0,0
33.737631,-118.104807,1.90,2.20,0.20,0.65,1.90,1.90,0.60,0.71,2904,2022-06-09 00:58:00.211,2022-06-08 17:58:00.211,17,0,0,16.706,33.737627,-118.104812,0.00,0.00,-0.20,-3.00,1.00,-123.00,0,1,0,99,100,-6933,3552,16706,3011.50,2,WP,1,0,0,0,0,0,0,1654736280211,4255,4238,4237,4231,0,0,27,,,,,,,0,0,0,30.00,10.00,-1230.00,-859.00,0.00,-1235.00,14,19.00,2.00,6.53,0.00,0.00,-2.00,0,,,100,100,0,2,0,0,0,1,0,,,,,0.0,0.0,0.0,0.0,0.0,0.0,0
33.737631,-118.104807,1.90,2.20,0.00,0.66,1.90,1.90,0.60,0.71,3003,2022-06-09 00:58:00.311,2022-06-08 17:58:00.311,17,0,0,16.706,33.737627,-118.104812,0.00,0.00,0.00,-3.40,0.60,-122.30,0,1,0,99,100,-6933,3552,16706,3011.50,2,WP,1,0,0,0,0,0,0,1654736280310,4255,4238,4237,4231,0,0,27,,,,,,,0,0,0,34.00,6.00,-1223.00,-859.00,0.00,-1235.00,14,19.00,0.00,6.55,0.00,0.00,0.00,0,,,100,100,0,2,0,0,0,1,0,,,,,0.0,0.0,0.0,0.0,0.0,0.0,0
33.737631,-118.104807,1.90,2.20,0.00,0.67,1.90,1.90,0.60,0.71,3102,2022-06-09 00:58:00.410,2022-06-08 17:58:00.410,17,0,0,16.742,33.737627,-118.104812,0.00,0.00,0.00,-4.10,0.00,-121.10,0,1,0,99,100,-6448,3548,16742,3011.50,2,WP,1,0,0,0,0,0,0,1654736280409,4255,4238,4237,4231,0,0,27,,,,,,,0,0,0,41.00,0.00,-1211.00,-865.00,0.00,-1235.00,14,19.00,0.00,6.74,0.00,0.00,0.00,0,,,100,100,0,2,0,0,0,1,0,,,,,0.0,0.0,0.0,0.0,0.0,0.0,0
33.737632,-118.104807,1.90,2.20,0.00,0.69,1.90,1.90,0.60,0.71,3205,2022-06-09 00:58:00.512,2022-06-08 17:58:00.512,17,0,0,16.742,33.737627,-118.104812,0.00,0.00,0.00,-4.80,-0.60,-119.30,0,1,0,99,100,-6448,3548,16742,3011.50,2,WP,1,0,0,0,0,0,0,1654736280512,4255,4238,4237,4231,0,0,27,,,,,,,0,0,0,48.00,-6.00,-1193.00,-873.00,0.00,-1233.00,14,19.00,0.00,6.86,0.00,0.00,0.00,0,,,100,100,0,2,0,0,0,1,0,,,,,0.0,0.0,0.0,0.0,0.0,0.0,0
33.737632,-118.104807,1.90,2.20,0.10,0.70,1.90,1.90,0.60,0.71,3303,2022-06-09 00:58:00.610,2022-06-08 17:58:00.611,17,0,0,16.742,33.737627,-118.104812,0.10,0.00,0.00,-5.40,-1.20,-117.00,0,1,0,99,100,-6448,3548,16742,3011.50,2,WP,1,0,0,0,0,0,0,1654736280610,4255,4238,4237,4231,0,0,27,,,,,,,0,0,0,54.00,-12.00,-1170.00,-879.00,0.00,-1225.00,14,19.00,1.00,6.97,1.00,0.00,0.00,0,,,100,100,0,2,0,0,0,1,0,,,,,0.0,0.0,0.0,0.0,0.0,0.0,0
33.737632,-118.104807,1.90,2.20,0.10,0.71,1.90,1.90,0.60,0.71,3403,2022-06-09 00:58:00.711,2022-06-08 17:58:00.711,17,0,0,16.742,33.737627,-118.104812,0.10,0.00,0.00,-5.70,-1.60,-114.00,0,1,0,99,100,-6448,3548,16742,3011.50,2,WP,1,0,0,0,0,0,0,1654736280710,4255,4238,4237,4231,0,0,27,,,,,,,0,0,0,57.00,-16.00,-1140.00,-882.00,0.00,-1208.00,14,19.00,1.00,7.12,1.00,0.00,0.00,0,,,100,100,0,2,0,0,0,1,0,,,,,0.0,0.0,0.0,0.0,0.0,0.0,0
33.737632,-118.104806,1.90,2.20,0.10,0.73,1.90,1.90,0.60,0.73,3503,2022-06-09 00:58:00.811,2022-06-08 17:58:00.811,17,0,0,16.742,33.737627,-118.104812,0.10,0.00,0.00,-5.80,-2.40,-110.40,0,1,0,99,100,-6448,3548,16742,3011.50,2,WP,1,0,0,0,0,0,0,1654736280810,4255,4238,4237,4231,0,0,27,,,,,,,0,0,0,58.00,-24.00,-1104.00,-884.00,0.00,-1180.00,14,19.00,1.00,7.30,1.00,0.00,0.00,0,,,100,100,0,2,0,0,0,1,0,,,,,0.0,0.0,0.0,0.0,0.0,0.0,0
33.737632,-118.104806,1.90,2.20,0.10,0.75,1.90,1.90,0.60,0.75,3604,2022-06-09 00:58:00.912,2022-06-08 17:58:00.912,17,0,0,16.742,33.737627,-118.104812,0.10,0.00,0.00,-5.70,-3.10,-106.40,0,1,0,99,100,-6448,3548,16742,3011.50,2,WP,1,0,0,0,0,0,0,1654736280911,4255,4238,4237,4231,0,0,27,,,,,,,0,0,0,57.00,-31.00,-1064.00,-885.00,0.00,-1144.00,14,19.00,1.00,7.47,1.00,0.00,0.00,0,,,100,100,0,2,0,0,0,1,0,,,,,0.0,0.0,0.0,0.0,0.0,0.0,0
33.737632,-118.104806,1.90,2.20,0.10,0.77,1.90,1.90,0.60,0.77,3705,2022-06-09 00:58:01.012,2022-06-08 17:58:01.012,17,0,0,16.742,33.737627,-118.104812,0.10,0.00,0.00,-5.60,-3.80,-101.70,0,1,0,99,100,-6448,3548,16742,3011.50,2,WP,1,0,0,0,0,0,0,1654736281012,4255,4238,4237,4231,0,0,27,,,,,,,0,0,0,56.00,-38.00,-1017.00,-885.00,0.00,-1102.00,14,19.00,1.00,7.71,1.00,0.00,0.00,0,,,100,100,0,2,0,0,0,1,0,,,,,0.0,0.0,0.0,0.0,0.0,0.0,0
33.737632,-118.104806,1.90,2.30,0.10,0.79,1.90,1.90,0.60,0.79,3809,2022-06-09 00:58:01.116,2022-06-08 17:58:01.116,17,0,0,16.742,33.737627,-118.104812,0.10,0.00,0.00,-5.30,-4.30,-96.50,0,1,0,99,100,-6448,3548,16742,3011.50,2,WP,1,0,0,0,0,0,0,1654736281116,4255,4238,4237,4231,0,0,27,,,,,,,0,0,0,53.00,-43.00,-965.00,-883.00,0.00,-1053.00,14,19.00,1.00,7.88,1.00,0.00,0.00,0,,,100,100,0,2,0,0,0,1,0,,,,,0.0,0.0,0.0,0.0,0.0,0.0,0
33.737633,-118.104806,1.90,2.30,0.10,0.81,1.90,1.90,0.60,0.81,3903,2022-06-09 00:58:01.211,2022-06-08 17:58:01.211,17,0,0,16.742,33.737627,-118.104812,0.10,0.00,0.00,-4.90,-5.00,-90.80,0,1,0,99,100,-6448,3548,16742,3011.50,2,WP,1,0,0,0,0,0,0,1654736281210,4255,4238,4237,4231,0,0,27,,,,,,,0,0,0,49.00,-50.00,-908.00,-880.00,0.00,-999.00,14,19.00,1.00,8.06,1.00,0.00,0.00,0,,,100,100,0,2,0,0,0,1,0,,,,,0.0,0.0,0.0,0.0,0.0,0.0,0
33.737633,-118.104806,1.90,2.30,0.10,0.82,1.90,1.90,0.60,0.82,4003,2022-06-09 00:58:01.311,2022-06-08 17:58:01.311,17,0,0,16.742,33.737627,-118.104812,0.10,0.00,0.00,-4.40,-5.10,-84.40,0,1,0,99,100,-6448,3548,16742,3011.50,2,WP,1,0,0,0,0,0,0,1654736281310,4255,4238,4237,4231,0,0,27,,,,,,,0,0,0,44.00,-51.00,-844.00,-875.00,0.00,-939.00,14,19.00,1.00,8.20,1.00,0.00,0.00,0,,,100,100,0,2,0,0,0,1,0,,,,,0.0,0.0,0.0,0.0,0.0,0.0,0
33.737633,-118.104806,1.90,2.30,0.00,0.82,1.90,1.90,0.60,0.82,4104,2022-06-09 00:58:01.412,2022-06-08 17:58:01.412,17,0,0,16.742,33.737627,-118.104812,0.00,0.00,0.00,-3.60,-5.30,-77.40,0,1,0,99,100,-6448,3548,16742,3011.50,2,WP,1,0,0,0,0,0,0,1654736281411,4255,4238,4237,4231,0,0,27,,,,,,,0,0,0,36.00,-53.00,-774.00,-869.00,0.00,-873.00,14,19.00,0.00,8.21,0.00,0.00,0.00,0,,,100,100,0,2,0,0,0,1,0,,,,,0.0,0.0,0.0,0.0,0.0,0.0,0
33.737633,-118.104806,1.90,2.30,0.00,0.83,1.90,1.90,0.60,0.83,4204,2022-06-09 00:58:01.511,2022-06-08 17:58:01.511,17,0,0,16.742,33.737627,-118.104812,0.00,0.00,0.00,-2.80,-5.50,-69.90,0,1,0,99,100,-6448,3548,16742,3011.50,2,WP,1,0,0,0,0,0,0,1654736281511,4255,4238,4237,4231,0,0,27,,,,,,,0,0,0,28.00,-55.00,-699.00,-861.00,0.00,-800.00,14,19.00,0.00,8.30,0.00,0.00,0.00,0,,,100,100,0,2,0,0,0,1,0,,,,,0.0,0.0,0.0,0.0,0.0,0.0,0
33.737633,-118.104806,1.90,2.30,0.00,0.85,1.90,1.90,0.60,0.85,4303,2022-06-09 00:58:01.610,2022-06-08 17:58:01.610,17,0,0,16.742,33.737627,-118.104812,0.00,0.00,0.00,-2.20,-5.40,-62.40,0,1,0,99,100,-6448,3548,16742,3011.50,2,WP,1,0,0,0,0,0,0,1654736281610,4255,4238,4237,4231,0,0,27,,,,,,,0,0,0,22.00,-54.00,-624.00,-855.00,0.00,-723.00,14,19.00,0.00,8.47,0.00,0.00,0.00,0,,,100,100,0,2,0,0,0,1,0,,,,,0.0,0.0,0.0,0.0,0.0,0.0,0
33.737633,-118.104806,1.90,2.30,0.00,0.86,1.90,1.90,0.60,0.86,4403,2022-06-09 00:58:01.710,2022-06-08 17:58:01.710,17,0,0,16.742,33.737627,-118.104812,0.00,0.00,0.00,-1.50,-5.40,-54.90,0,1,0,99,100,-6448,3548,16742,3011.50,2,WP,1,0,0,0,0,0,0,1654736281710,4255,4238,4237,4231,0,0,27,,,,,,,0,0,0,15.00,-54.00,-549.00,-847.00,0.00,-646.00,14,19.00,0.00,8.57,0.00,0.00,0.00,0,,,100,100,0,2,0,0,0,1,0,,,,,0.0,0.0,0.0,0.0,0.0,0.0,0
33.737633,-118.104806,1.90,2.30,0.10,0.88,1.90,1.90,0.60,0.88,4503,2022-06-09 00:58:01.811,2022-06-08 17:58:01.811,17,0,0,16.742,33.737627,-118.104812,0.10,0.00,0.00,-0.90,-5.90,-47.50,0,1,0,99,100,-6448,3548,16742,3011.50,2,WP,1,0,0,0,0,0,0,1654736281810,4255,4238,4237,4231,0,0,27,,,,,,,0,0,0,9.00,-59.00,-475.00,-842.00,0.00,-569.00,14,19.00,1.00,8.82,1.00,0.00,0.00,0,,,100,100,0,2,0,0,0,1,0,,,,,0.0,0.0,0.0,0.0,0.0,0.0,0
33.737634,-118.104806,1.90,2.30,0.10,0.90,1.90,1.90,0.60,0.90,4603,2022-06-09 00:58:01.910,2022-06-08 17:58:01.910,17,0,0,16.742,33.737627,-118.104812,0.10,0.00,0.00,-0.60,-6.40,-40.00,0,1,0,99,100,-6448,3548,16742,3011.50,2,WP,1,0,0,0,0,0,0,1654736281910,4255,4238,4237,4231,0,0,27,,,,,,,0,0,0,6.00,-64.00,-400.00,-839.00,0.00,-493.00,14,19.00,1.00,8.98,1.00,0.00,0.00,0,,,100,100,0,2,0,0,0,1,0,,,,,0.0,0.0,0.0,0.0,0.0,0.0,0
33.737634,-118.104806,1.90,2.30,0.10,0.91,1.90,1.90,0.60,0.91,4704,2022-06-09 00:58:02.011,2022-06-08 17:58:02.011,17,0,0,16.742,33.737627,-118.104812,0.10,0.00,0.00,-0.20,-6.80,-33.70,0,1,0,99,100,-6448,3548,16742,3011.50,2,WP,1,0,0,0,0,0,0,1654736282011,4255,4238,4237,4231,0,0,27,,,,,,,0,0,0,2.00,-68.00,-337.00,-836.00,0.00,-419.00,14,19.00,1.00,9.14,1.00,0.00,0.00,0,,,100,100,0,2,0,0,0,1,0,,,,,0.0,0.0,0.0,0.0,0.0,0.0,0
33.737634,-118.104806,1.90,2.30,0.10,0.93,1.90,1.90,0.60,0.93,4809,2022-06-09 00:58:02.117,2022-06-08 17:58:02.117,17,0,0,16.742,33.737627,-118.104812,0.10,0.00,0.00,0.80,-7.00,-29.50,0,1,0,99,100,-6448,3548,16742,3011.50,2,WP,1,0,0,0,0,0,0,1654736282116,4255,4238,4237,4231,0,0,27,,,,,,,0,0,0,-8.00,-70.00,-295.00,-825.00,0.00,-357.00,14,19.00,1.00,9.32,1.00,0.00,0.00,0,,,100,100,0,2,0,0,0,1,0,,,,,0.0,0.0,0.0,0.0,0.0,0.0,0
33.737634,-118.104806,1.90,2.30,0.10,0.96,1.90,1.90,0.60,0.96,4904,2022-06-09 00:58:02.211,2022-06-08 17:58:02.211,17,0,0,16.742,33.737627,-118.104812,0.10,0.00,0.00,2.00,-7.00,-26.90,0,1,0,99,100,-6448,3548,16742,3011.50,2,WP,1,0,0,0,0,0,0,1654736282211,4255,4238,4237,4231,0,0,27,,,,,,,0,0,0,-20.00,-70.00,-269.00,-811.00,0.00,-313.00,14,19.00,1.00,9.60,1.00,0.00,0.00,0,,,100,100,0,2,0,0,0,1,0,,,,,0.0,0.0,0.0,0.0,0.0,0.0,0
33.737634,-118.104806,1.90,2.30,0.10,0.98,1.90,1.90,0.60,0.98,5004,2022-06-09 00:58:02.311,2022-06-08 17:58:02.311,17,0,0,16.742,33.737627,-118.104812,0.10,0.00,0.00,3.60,-7.50,-25.60,0,1,0,99,100,-6448,3548,16742,3011.50,2,WP,1,0,0,0,0,0,0,1654736282311,4255,4238,4237,4231,0,0,27,,,,,,,0,0,0,-36.00,-75.00,-256.00,-794.00,0.00,-285.00,14,19.00,1.00,9.79,1.00,0.00,0.00,0,,,100,100,0,2,0,0,0,1,0,,,,,0.0,0.0,0.0,0.0,0.0,0.0,0
33.737634,-118.104805,1.90,2.30,0.10,1.00,1.90,1.90,0.60,1.00,5103,2022-06-09 00:58:02.411,2022-06-08 17:58:02.411,17,0,0,16.674,33.737627,-118.104812,0.10,0.00,0.00,4.50,-7.30,-24.80,0,1,0,99,100,-6604,3545,16674,3011.50,2,WP,1,0,0,0,0,0,0,1654736282410,4255,4238,4237,4231,0,0,27,,,,,,,0,0,0,-45.00,-73.00,-248.00,-783.00,0.00,-269.00,14,19.00,1.00,10.05,1.00,0.00,0.00,0,,,100,100,0,2,0,0,0,1,0,,,,,0.0,0.0,0.0,0.0,0.0,0.0,0
33.737635,-118.104805,1.90,2.20,0.00,1.02,1.90,1.90,0.60,1.02,5204,2022-06-09 00:58:02.511,2022-06-08 17:58:02.511,17,0,0,16.674,33.737627,-118.104812,0.00,0.00,0.00,4.30,-7.10,-24.70,0,1,0,99,100,-6604,3545,16674,3011.50,2,WP,1,0,0,0,0,0,0,1654736282511,4255,4238,4237,4231,0,0,27,,,,,,,0,0,0,-43.00,-71.00,-247.00,-783.00,0.00,-259.00,14,19.00,0.00,10.19,0.00,0.00,0.00,0,,,100,100,0,2,0,0,0,1,0,,,,,0.0,0.0,0.0,0.0,0.0,0.0,0
33.737634,-118.104805,1.90,2.20,0.00,1.02,1.90,1.90,0.60,1.02,5304,2022-06-09 00:58:02.611,2022-06-08 17:58:02.611,17,0,0,16.674,33.737627,-118.104812,0.00,0.00,0.00,3.90,-7.10,-25.10,0,1,0,99,100,-6604,3545,16674,3011.50,2,WP,1,0,0,0,0,0,0,1654736282611,4255,4238,4237,4231,0,0,27,,,,,,,0,0,0,-39.00,-71.00,-251.00,-786.00,0.00,-256.00,14,19.00,0.00,10.22,0.00,0.00,0.00,0,,,100,100,0,2,0,0,0,1,0,,,,,0.0,0.0,0.0,0.0,0.0,0.0,0
33.737634,-118.104805,1.90,2.20,0.00,1.03,1.90,1.90,0.60,1.03,5404,2022-06-09 00:58:02.711,2022-06-08 17:58:02.711,17,0,0,16.674,33.737627,-118.104812,0.00,0.00,0.00,3.30,-7.60,-26.00,0,1,0,99,100,-6604,3545,16674,3011.50,2,WP,1,0,0,0,0,0,0,1654736282711,4255,4238,4237,4231,0,0,27,,,,,,,0,0,0,-33.00,-76.00,-260.00,-789.00,0.00,-255.00,14,19.00,0.00,10.30,0.00,0.00,0.00,0,,,100,100,0,2,0,0,0,1,0,,,,,0.0,0.0,0.0,0.0,0.0,0.0,0
33.737635,-118.104805,1.90,2.20,0.00,1.05,1.90,1.90,0.60,1.05,5504,2022-06-09 00:58:02.812,2022-06-08 17:58:02.812,17,0,0,16.674,33.737627,-118.104812,0.00,0.00,0.00,1.90,-6.80,-26.60,0,1,0,99,100,-6604,3545,16674,3011.50,2,WP,1,0,0,0,0,0,0,1654736282811,4255,4238,4237,4231,0,0,27,,,,,,,0,0,0,-19.00,-68.00,-266.00,-796.00,0.00,-256.00,14,19.00,0.00,10.48,0.00,0.00,0.00,0,,,100,100,0,2,0,0,0,1,0,,,,,0.0,0.0,0.0,0.0,0.0,0.0,0
33.737635,-118.104805,1.90,2.20,0.10,1.05,1.90,1.90,0.60,1.05,5605,2022-06-09 00:58:02.912,2022-06-08 17:58:02.912,17,0,0,16.674,33.737627,-118.104812,0.00,0.10,0.00,-5.20,-5.10,-26.10,0,1,0,99,100,-6604,3545,16674,3011.50,2,WP,1,0,0,0,0,0,0,1654736282912,4255,4238,4237,4231,0,0,27,,,,,,,0,0,0,52.00,-51.00,-261.00,-868.00,0.00,-260.00,14,19.00,1.00,10.54,0.00,1.00,0.00,0,,,100,100,0,2,0,0,0,1,0,,,,,0.0,0.0,0.0,0.0,0.0,0.0,0
33.737635,-118.104805,1.90,2.20,0.10,1.05,1.90,1.90,0.60,1.05,5705,2022-06-09 00:58:03.013,2022-06-08 17:58:03.013,17,0,0,16.674,33.737627,-118.104812,0.10,0.00,0.00,-10.10,-6.20,-25.60,0,1,0,99,100,-6604,3545,16674,3011.50,2,WP,1,0,0,0,0,0,0,1654736283012,4255,4238,4237,4231,0,0,27,,,,,,,0,0,0,101.00,-62.00,-256.00,-919.00,0.00,-262.00,14,19.00,1.00,10.53,1.00,0.00,0.00,0,,,100,100,0,2,0,0,0,1,0,,,,,0.0,0.0,0.0,0.0,0.0,0.0,0
33.737635,-118.104805,1.90,2.20,0.20,1.07,1.90,1.90,0.60,1.07,5809,2022-06-09 00:58:03.116,2022-06-08 17:58:03.116,17,0,0,16.674,33.737627,-118.104812,0.20,0.00,0.00,-13.20,-6.90,-25.40,0,1,0,99,100,-6604,3545,16674,3011.50,2,WP,1,0,0,0,0,0,0,1654736283116,4255,4238,4237,4231,0,0,27,,,,,,,0,0,0,132.00,-69.00,-254.00,-953.00,0.00,-264.00,14,19.00,2.00,10.73,2.00,0.00,0.00,0,,,100,100,0,2,0,0,0,1,0,,,,,0.0,0.0,0.0,0.0,0.0,0.0,0
33.737635,-118.104805,1.90,2.20,0.51,1.10,1.90,1.90,0.60,1.10,5905,2022-06-09 00:58:03.212,2022-06-08 17:58:03.212,17,0,0,16.674,33.737627,-118.104812,0.50,-0.10,0.00,-14.70,-7.40,-25.40,0,1,0,99,100,-6604,3545,16674,3011.50,2,WP,1,0,0,0,0,0,0,1654736283212,4255,4238,4237,4231,0,0,27,,,,,,,0,0,0,147.00,-74.00,-254.00,-971.00,0.00,-264.00,14,19.00,5.10,11.03,5.00,-1.00,0.00,0,,,100,100,0,2,0,0,0,1,0,,,,,0.0,0.0,0.0,0.0,0.0,0.0,0
33.737636,-118.104805,1.90,2.20,0.73,1.15,1.90,1.90,0.73,1.15,6003,2022-06-09 00:58:03.311,2022-06-08 17:58:03.311,17,0,0,16.674,33.737627,-118.104812,0.70,-0.20,0.00,-15.00,-7.90,-25.30,0,1,0,99,100,-6604,3545,16674,3011.50,2,WP,1,0,0,0,0,0,0,1654736283310,4255,4238,4237,4231,0,0,27,,,,,,,0,0,0,150.00,-79.00,-253.00,-977.00,0.00,-265.00,14,19.00,7.28,11.46,7.00,-2.00,0.00,0,,,100,100,0,2,0,0,0,1,0,,,,,0.0,0.0,0.0,0.0,0.0,0.0,0
33.737636,-118.104805,1.90,2.20,0.95,1.19,1.90,1.90,0.95,1.19,6104,2022-06-09 00:58:03.412,2022-06-08 17:58:03.412,17,0,0,16.674,33.737627,-118.104812,0.90,-0.30,0.00,-15.40,-8.40,-25.30,0,1,0,99,100,-6604,3545,16674,3011.50,2,WP,1,0,0,0,0,0,0,1654736283411,4255,4238,4237,4231,0,0,27,,,,,,,0,0,0,154.00,-84.00,-253.00,-983.00,0.00,-265.00,14,19.00,9.49,11.87,9.00,-3.00,0.00,0,,,100,100,0,2,0,0,0,1,0,,,,,0.0,0.0,0.0,0.0,0.0,0.0,0
33.737637,-118.104806,1.90,2.20,1.17,1.26,1.90,1.90,1.17,1.26,6226,2022-06-09 00:58:03.533,2022-06-08 17:58:03.533,17,0,0,16.674,33.737627,-118.104812,1.10,-0.40,0.00,-16.00,-8.50,-24.50,0,1,0,99,100,-6604,3545,16674,3011.50,2,WP,1,0,0,0,0,0,0,1654736283533,4255,4238,4237,4231,0,0,27,,,,,,,0,0,0,160.00,-85.00,-245.00,-989.00,0.00,-265.00,14,19.00,11.70,12.64,11.00,-4.00,0.00,0,,,100,100,0,2,0,0,0,1,0,,,,,0.0,4.2,0.0,0.0,0.0,0.0,0
33.737639,-118.104806,1.90,2.20,1.49,1.37,1.90,1.90,1.49,1.37,6303,2022-06-09 00:58:03.611,2022-06-08 17:58:03.611,17,0,0,16.674,33.737627,-118.104812,1.40,-0.50,0.00,-16.20,-8.90,-24.30,0,1,0,99,100,-6604,3545,16674,3011.50,2,WP,1,0,0,0,0,0,0,1654736283610,4255,4238,4237,4231,0,0,27,,,,,,,0,0,0,162.00,-89.00,-243.00,-993.00,0.00,-266.00,14,19.00,14.87,13.68,14.00,-5.00,0.00,0,,,100,100,0,2,0,0,0,1,0,,,,,0.0,4.2,0.0,0.0,0.0,0.0,0
33.737640,-118.104807,1.90,2.20,1.75,1.49,1.90,1.90,1.75,1.49,6405,2022-06-09 00:58:03.712,2022-06-08 17:58:03.712,17,0,0,16.674,33.737627,-118.104812,1.60,-0.70,0.00,-14.80,-9.70,-24.50,0,1,0,99,100,-6604,3545,16674,3011.50,2,WP,1,0,0,0,0,0,0,1654736283712,4255,4238,4237,4231,0,0,27,,,,,,,0,0,0,148.00,-97.00,-245.00,-981.00,0.00,-268.00,14,19.00,17.46,14.92,16.00,-7.00,0.00,0,,,100,100,0,2,0,0,0,1,0,,,,,0.0,4.4,0.0,0.0,0.0,0.0,0
33.737642,-118.104807,1.90,2.20,1.97,1.64,1.90,1.90,1.97,1.64,6505,2022-06-09 00:58:03.812,2022-06-08 17:58:03.812,17,0,0,16.674,33.737627,-118.104812,1.80,-0.80,0.00,-12.30,-9.50,-25.00,0,1,0,99,100,-6604,3545,16674,3011.50,2,WP,1,0,0,0,0,0,0,1654736283812,4255,4238,4237,4231,0,0,27,,,,,,,0,0,0,123.00,-95.00,-250.00,-956.00,0.00,-270.00,14,19.00,19.70,16.38,18.00,-8.00,0.00,0,,,100,100,0,2,0,0,0,1,0,,,,,0.0,4.4,0.0,0.0,0.0,0.0,0
33.737643,-118.104808,1.90,2.30,2.19,1.81,1.90,1.90,2.19,1.81,6606,2022-06-09 00:58:03.914,2022-06-08 17:58:03.914,17,0,0,16.674,33.737627,-118.104812,2.00,-0.90,0.00,-8.50,-9.50,-25.20,0,1,0,99,100,-6604,3545,16674,3011.50,2,WP,1,0,0,0,0,0,0,1654736283913,4255,4238,4237,4231,0,0,27,,,,,,,0,0,0,85.00,-95.00,-252.00,-922.00,0.00,-271.00,14,19.00,21.93,18.08,20.00,-9.00,0.00,0,,,100,100,0,2,0,0,0,1,0,,,,,0.0,4.4,0.0,0.0,0.0,0.0,0
33.737645,-118.104809,1.90,2.30,2.33,2.02,1.90,1.90,2.33,2.02,6706,2022-06-09 00:58:04.013,2022-06-08 17:58:04.013,17,0,0,16.674,33.737627,-118.104812,2.10,-1.00,0.00,-3.70,-9.40,-25.80,0,1,0,99,100,-6604,3545,16674,3011.50,2,WP,1,0,0,0,0,0,0,1654736284013,4255,4238,4237,4231,0,0,27,,,,,,,0,0,0,37.00,-94.00,-258.00,-872.00,0.00,-274.00,14,19.00,23.26,20.16,21.00,-10.00,0.00,0,,,100,100,0,2,0,0,0,1,0,,,,,0.0,4.4,0.0,0.0,0.0,0.0,0
33.737647,-118.104810,1.90,2.30,2.33,2.21,1.90,1.90,2.33,2.21,6807,2022-06-09 00:58:04.115,2022-06-08 17:58:04.115,17,0,0,16.674,33.737627,-118.104812,2.10,-1.00,0.00,-0.30,-9.80,-26.00,0,1,0,99,100,-6604,3545,16674,3011.50,2,WP,1,0,0,0,0,0,0,1654736284114,4255,4238,4237,4231,0,0,27,,,,,,,0,0,0,3.00,-98.00,-260.00,-834.00,0.00,-276.00,14,19.00,23.26,22.15,21.00,-10.00,0.00,0,,,100,100,0,2,0,0,0,1,0,,,,,0.0,4.6,0.0,0.0,0.0,0.0,0
33.737649,-118.104811,1.90,2.30,2.24,2.42,1.90,1.90,2.33,2.42,6905,2022-06-09 00:58:04.212,2022-06-08 17:58:04.212,17,0,0,16.674,33.737627,-118.104812,2.00,-1.00,0.00,1.80,-9.90,-26.20,0,1,0,99,100,-6604,3545,16674,3011.50,2,WP,1,0,0,0,0,0,0,1654736284212,4255,4238,4237,4231,0,0,27,,,,,,,0,0,0,-18.00,-99.00,-262.00,-809.00,0.00,-279.00,14,19.00,22.36,24.22,20.00,-10.00,0.00,0,,,100,100,0,2,0,0,0,1,0,,,,,0.0,4.6,0.0,0.0,0.0,0.0,0
33.737651,-118.104812,1.90,2.30,2.24,2.62,1.90,1.90,2.33,2.62,7004,2022-06-09 00:58:04.312,2022-06-08 17:58:04.312,17,0,0,16.674,33.737627,-118.104812,2.00,-1.00,0.00,2.90,-9.80,-26.50,0,1,0,99,100,-6604,3545,16674,3011.50,2,WP,1,0,0,0,0,0,0,1654736284311,4255,4238,4237,4231,0,0,27,,,,,,,0,0,0,-29.00,-98.00,-265.00,-795.00,0.00,-282.00,14,19.00,22.36,26.22,20.00,-10.00,0.00,0,,,100,100,0,2,0,0,0,1,0,,,,,0.0,5.2,0.0,0.0,0.0,0.0,0
33.737653,-118.104813,1.90,2.30,2.15,2.81,1.90,1.90,2.33,2.81,7105,2022-06-09 00:58:04.412,2022-06-08 17:58:04.412,17,0,0,16.605,33.737627,-118.104812,1.90,-1.00,0.00,3.50,-9.20,-26.70,0,1,0,99,100,-7257,3541,16605,3011.50,2,WP,1,0,0,0,0,0,0,1654736284412,4255,4238,4237,4231,0,0,27,,,,,,,0,0,0,-35.00,-92.00,-267.00,-787.00,0.00,-285.00,14,19.00,21.47,28.07,19.00,-10.00,0.00,0,,,100,100,0,2,0,0,0,1,0,,,,,0.0,5.2,0.0,0.0,0.0,0.0,0
33.737654,-118.104814,1.90,2.30,2.06,2.99,1.90,1.90,2.33,2.99,7195,2022-06-09 00:58:04.502,2022-06-08 17:58:04.502,17,0,0,16.605,33.737627,-118.104812,1.80,-1.00,0.00,3.50,-9.40,-26.70,0,1,0,99,100,-7257,3541,16605,3011.50,2,WP,1,0,0,0,0,0,0,1654736284502,4255,4238,4237,4231,0,0,27,,,,,,,0,0,0,-35.00,-94.00,-267.00,-786.00,0.00,-287.00,14,19.00,20.59,29.92,18.00,-10.00,0.00,0,,,100,100,0,2,0,0,0,1,0,,,,,0.0,0.0,0.0,0.0,0.0,0.0,0
33.737656,-118.104815,1.90,2.40,1.97,3.22,1.90,1.90,2.33,3.22,7304,2022-06-09 00:58:04.612,2022-06-08 17:58:04.612,17,0,0,16.605,33.737627,-118.104812,1.70,-1.00,0.00,3.30,-9.10,-26.80,0,1,0,99,100,-7257,3541,16605,3011.50,2,WP,1,0,0,0,0,0,0,1654736284611,4255,4238,4237,4231,0,0,27,,,,,,,0,0,0,-33.00,-91.00,-268.00,-787.00,0.00,-289.00,14,19.00,19.72,32.21,17.00,-10.00,0.00,0,,,100,100,0,2,0,0,0,1,0,,,,,0.0,0.0,0.0,0.0,0.0,0.0,0
33.737658,-118.104816,1.90,2.40,1.89,3.39,1.90,1.90,2.33,3.39,7416,2022-06-09 00:58:04.724,2022-06-08 17:58:04.724,17,0,0,16.605,33.737627,-118.104812,1.60,-1.00,0.00,3.80,-9.10,-26.70,0,1,0,99,100,-7257,3541,16605,3011.50,2,WP,1,0,0,0,0,0,0,1654736284723,4255,4238,4237,4231,0,0,27,,,,,,,0,0,0,-38.00,-91.00,-267.00,-782.00,0.00,-290.00,14,19.00,18.87,33.94,16.00,-10.00,0.00,0,,,100,100,0,2,0,0,0,1,0,,,,,0.0,0.0,0.0,0.0,0.0,0.0,0
33.737659,-118.104817,1.90,2.40,1.75,3.57,1.90,1.90,2.33,3.57,7516,2022-06-09 00:58:04.823,2022-06-08 17:58:04.823,17,0,0,16.605,33.737627,-118.104812,1.50,-0.90,0.00,4.40,-9.00,-26.80,0,1,0,99,100,-7257,3541,16605,3011.50,2,WP,1,0,0,0,0,0,0,1654736284823,4255,4238,4237,4231,0,0,27,,,,,,,0,0,0,-44.00,-90.00,-268.00,-777.00,0.00,-291.00,14,19.00,17.49,35.69,15.00,-9.00,0.00,0,,,100,100,0,2,0,0,0,1,0,,,,,0.0,0.0,0.0,0.0,0.0,0.0,0
33.737660,-118.104818,1.90,2.40,1.58,3.73,1.90,1.90,2.33,3.73,7604,2022-06-09 00:58:04.912,2022-06-08 17:58:04.912,17,0,0,16.605,33.737627,-118.104812,1.30,-0.90,0.00,5.20,-8.90,-26.90,0,1,0,99,100,-7257,3541,16605,3011.50,2,WP,1,0,0,0,0,0,0,1654736284911,4255,4238,4237,4231,0,0,27,,,,,,,0,0,0,-52.00,-89.00,-269.00,-769.00,0.00,-292.00,14,19.00,15.81,37.26,13.00,-9.00,0.00,0,,,100,100,0,2,0,0,0,1,0,,,,,0.0,0.0,0.0,0.0,0.0,0.0,0
33.737662,-118.104819,1.90,2.40,1.44,3.88,1.90,1.90,2.33,3.88,7704,2022-06-09 00:58:05.012,2022-06-08 17:58:05.012,17,0,0,16.605,33.737627,-118.104812,1.20,-0.80,0.00,5.50,-8.70,-27.00,0,1,0,99,100,-7257,3541,16605,3011.50,2,WP,1,0,0,0,0,0,0,1654736285011,4160,4147,4151,4147,0,0,27,,,,,,,0,0,0,-55.00,-87.00,-270.00,-766.00,0.00,-293.00,14,19.00,14.42,38.75,12.00,-8.00,0.00,0,,,100,100,0,2,0,0,0,1,0,,,,,0.0,0.0,0.0,0.0,0.0,0.0,0
33.737663,-118.104820,1.90,2.40,1.36,4.01,1.90,1.90,2.33,4.01,7810,2022-06-09 00:58:05.117,2022-06-08 17:58:05.117,17,0,0,16.605,33.737627,-118.104812,1.10,-0.80,0.00,5.30,-8.20,-26.90,0,1,0,99,100,-7257,3541,16605,3011.50,2,WP,1,0,0,0,0,0,0,1654736285117,4160,4147,4151,4147,0,0,27,,,,,,,0,0,0,-53.00,-82.00,-269.00,-767.00,0.00,-294.00,14,19.00,13.60,40.11,11.00,-8.00,0.00,0,,,100,100,0,2,0,0,0,1,0,,,,,0.0,0.0,0.0,0.0,0.0,0.0,0
33.737664,-118.104821,1.90,2.40,1.22,4.12,1.90,1.90,2.33,4.12,7904,2022-06-09 00:58:05.212,2022-06-08 17:58:05.212,17,0,0,16.605,33.737627,-118.104812,1.00,-0.70,0.00,4.70,-7.90,-26.80,0,1,0,99,100,-7257,3541,16605,3011.50,2,WP,1,0,0,0,0,0,0,1654736285211,4160,4147,4151,4147,0,0,27,,,,,,,0,0,0,-47.00,-79.00,-268.00,-773.00,0.00,-295.00,14,19.00,12.21,41.20,10.00,-7.00,0.00,0,,,100,100,0,2,0,0,0,1,0,,,,,0.0,0.0,0.0,0.0,0.0,0.0,0
33.737665,-118.104821,1.90,2.40,1.14,4.23,1.90,1.90,2.33,4.23,8005,2022-06-09 00:58:05.312,2022-06-08 17:58:05.313,17,0,0,16.605,33.737627,-118.104812,0.90,-0.70,0.00,3.60,-7.40,-26.60,0,1,0,99,100,-7257,3541,16605,3011.50,2,WP,1,0,0,0,0,0,0,1654736285312,4160,4147,4151,4147,0,0,27,,,,,,,0,0,0,-36.00,-74.00,-266.00,-783.00,0.00,-295.00,14,19.00,11.40,42.34,9.00,-7.00,0.00,0,,,100,100,0,2,0,0,0,1,0,,,,,0.0,0.0,0.0,0.0,0.0,0.0,0
33.737665,-118.104822,1.90,2.40,1.06,4.34,1.90,1.90,2.33,4.34,8105,2022-06-09 00:58:05.412,2022-06-08 17:58:05.412,17,0,0,16.605,33.737627,-118.104812,0.80,-0.70,0.00,2.90,-7.40,-26.60,0,1,0,99,100,-7257,3541,16605,3011.50,2,WP,1,0,0,0,0,0,0,1654736285412,4160,4147,4151,4147,0,0,27,,,,,,,0,0,0,-29.00,-74.00,-266.00,-792.00,0.00,-296.00,14,19.00,10.63,43.41,8.00,-7.00,0.00,0,,,100,100,0,2,0,0,0,1,0,,,,,0.0,0.0,0.0,0.0,0.0,0.0,0
33.737666,-118.104823,1.90,2.40,1.00,4.44,1.90,1.90,2.33,4.44,8205,2022-06-09 00:58:05.513,2022-06-08 17:58:05.513,17,0,0,16.605,33.737627,-118.104812,0.80,-0.60,0.00,3.70,-7.00,-26.70,0,1,0,99,100,-7257,3541,16605,3011.50,2,WP,1,0,0,0,0,0,0,1654736285512,4160,4147,4151,4147,0,0,27,,,,,,,0,0,0,-37.00,-70.00,-267.00,-785.00,0.00,-296.00,14,19.00,10.00,44.44,8.00,-6.00,0.00,0,,,100,100,0,2,0,0,0,1,0,,,,,0.0,0.0,0.0,0.0,0.0,0.0,0
33.737667,-118.104824,1.90,2.50,0.92,4.53,1.90,1.90,2.33,4.53,8306,2022-06-09 00:58:05.613,2022-06-08 17:58:05.613,17,0,0,16.605,33.737627,-118.104812,0.70,-0.60,0.00,3.90,-7.10,-26.60,0,1,0,99,100,-7257,3541,16605,3011.50,2,WP,1,0,0,0,0,0,0,1654736285613,4160,4147,4151,4147,0,0,27,,,,,,,0,0,0,-39.00,-71.00,-266.00,-783.00,0.00,-296.00,14,19.00,9.22,45.33,7.00,-6.00,0.00,0,,,100,100,0,2,0,0,0,1,0,,,,,0.0,0.0,0.0,0.0,0.0,0.0,0
33.737668,-118.104824,2.00,2.50,0.92,4.62,2.00,2.00,2.33,4.62,8434,2022-06-09 00:58:05.741,2022-06-08 17:58:05.741,17,0,0,16.605,33.737627,-118.104812,0.70,-0.60,0.00,3.80,-6.20,-26.60,0,1,0,99,100,-7257,3541,16605,3011.50,2,WP,1,0,0,0,0,0,0,1654736285741,4160,4147,4151,4147,0,0,27,,,,,,,0,0,0,-38.00,-62.00,-266.00,-785.00,0.00,-297.00,14,20.00,9.22,46.23,7.00,-6.00,0.00,0,,,100,100,0,2,0,0,0,1,0,,,,,0.0,0.0,0.0,0.0,0.0,0.0,0
33.737668,-118.104825,2.00,2.50,0.78,4.70,2.00,2.00,2.33,4.70,8505,2022-06-09 00:58:05.812,2022-06-08 17:58:05.812,17,0,0,16.605,33.737627,-118.104812,0.60,-0.50,0.00,3.70,-6.00,-26.60,0,1,0,99,100,-7257,3541,16605,3011.50,2,WP,1,0,0,0,0,0,0,1654736285812,4160,4147,4151,4147,0,0,27,,,,,,,0,0,0,-37.00,-60.00,-266.00,-785.00,0.00,-297.00,14,20.00,7.81,47.03,6.00,-5.00,0.00,0,,,100,100,0,2,0,0,0,1,0,,,,,0.0,0.0,0.0,0.0,0.0,0.0,0
33.737669,-118.104826,2.00,2.50,0.78,4.78,2.00,2.00,2.33,4.78,8605,2022-06-09 00:58:05.912,2022-06-08 17:58:05.912,17,0,0,16.605,33.737627,-118.104812,0.60,-0.50,0.00,3.70,-5.40,-26.60,0,1,0,99,100,-7257,3541,16605,3011.50,2,WP,1,0,0,0,0,0,0,1654736285912,4160,4147,4151,4147,0,0,27,,,,,,,0,0,0,-37.00,-54.00,-266.00,-786.00,0.00,-297.00,14,20.00,7.81,47.81,6.00,-5.00,0.00,0,,,100,100,0,2,0,0,0,1,0,,,,,0.0,0.0,0.0,0.0,0.0,0.0,0
33.737669,-118.104826,2.00,2.50,0.64,4.84,2.00,2.00,2.33,4.84,8705,2022-06-09 00:58:06.013,2022-06-08 17:58:06.013,17,0,0,16.605,33.737627,-118.104812,0.50,-0.40,0.00,3.60,-5.40,-26.50,0,1,0,99,100,-7257,3541,16605,3011.50,2,WP,1,0,0,0,0,0,0,1654736286012,4160,4147,4151,4147,0,0,27,,,,,,,0,0,0,-36.00,-54.00,-265.00,-786.00,0.00,-297.00,14,20.00,6.40,48.43,5.00,-4.00,0.00,0,,,100,100,0,2,0,0,0,1,0,,,,,0.0,0.0,0.0,0.0,0.0,0.0,0
33.737670,-118.104827,2.00,2.50,0.64,4.91,2.00,2.00,2.33,4.91,8810,2022-06-09 00:58:06.117,2022-06-08 17:58:06.117,17,0,0,16.605,33.737627,-118.104812,0.50,-0.40,0.00,2.90,-5.00,-26.50,0,1,0,99,100,-7257,3541,16605,3011.50,2,WP,1,0,0,0,0,0,0,1654736286117,4160,4147,4151,4147,0,0,27,,,,,,,0,0,0,-29.00,-50.00,-265.00,-794.00,0.00,-298.00,14,20.00,6.40,49.10,5.00,-4.00,0.00,0,,,100,100,0,2,0,0,0,1,0,,,,,0.0,0.0,0.0,0.0,0.0,0.0,0
33.737670,-118.104827,2.00,2.50,0.57,4.96,2.00,2.00,2.33,4.96,8900,2022-06-09 00:58:06.207,2022-06-08 17:58:06.207,17,0,0,16.605,33.737627,-118.104812,0.40,-0.40,0.00,3.50,-5.30,-26.50,0,1,0,99,100,-7257,3541,16605,3011.50,2,WP,1,0,0,0,0,0,0,1654736286207,4160,4147,4151,4147,0,0,27,,,,,,,0,0,0,-35.00,-53.00,-265.00,-789.00,0.00,-298.00,14,20.00,5.66,49.58,4.00,-4.00,0.00,0,,,100,100,0,2,0,0,0,1,0,,,,,0.0,0.0,0.0,0.0,0.0,0.0,0
33.737671,-118.104828,2.00,2.50,0.50,5.02,2.00,2.00,2.33,5.02,9006,2022-06-09 00:58:06.314,2022-06-08 17:58:06.314,17,0,0,16.605,33.737627,-118.104812,0.40,-0.30,0.00,4.50,-5.00,-26.70,0,1,0,99,100,-7257,3541,16605,3011.50,2,WP,1,0,0,0,0,0,0,1654736286313,4160,4147,4151,4147,0,0,27,,,,,,,0,0,0,-45.00,-50.00,-267.00,-779.00,0.00,-298.00,14,20.00,5.00,50.16,4.00,-3.00,0.00,0,,,100,100,0,2,0,0,0,1,0,,,,,0.0,0.0,0.0,0.0,0.0,0.0,0
33.737671,-118.104828,2.00,2.50,0.36,5.05,2.00,2.00,2.33,5.05,9105,2022-06-09 00:58:06.413,2022-06-08 17:58:06.413,17,0,0,16.605,33.737627,-118.104812,0.30,-0.20,0.00,4.70,-5.20,-26.70,0,1,0,99,100,-7257,3541,16605,3011.50,2,WP,1,0,0,0,0,0,0,1654736286412,4160,4147,4151,4147,0,0,27,,,,,,,0,0,0,-47.00,-52.00,-267.00,-775.00,0.00,-298.00,14,20.00,3.61,50.46,3.00,-2.00,0.00,0,,,100,100,0,2,0,0,0,1,0,,,,,0.0,0.0,0.0,0.0,0.0,0.0,0
33.737671,-118.104828,2.00,2.50,0.36,5.09,2.00,2.00,2.33,5.09,9205,2022-06-09 00:58:06.513,2022-06-08 17:58:06.513,17,0,0,16.618,33.737627,-118.104812,0.30,-0.20,0.00,4.00,-5.50,-26.60,0,1,0,99,100,-6868,3537,16618,3011.50,2,WP,1,0,0,0,0,0,0,1654736286512,4160,4147,4151,4147,0,0,27,,,,,,,0,0,0,-40.00,-55.00,-266.00,-782.00,0.00,-298.00,14,20.00,3.61,50.88,3.00,-2.00,0.00,0,,,100,100,0,2,0,0,0,1,0,,,,,0.0,0.0,0.0,0.0,0.0,0.0,0
33.737671,-118.104828,2.00,2.50,0.22,5.13,2.00,2.00,2.33,5.13,9305,2022-06-09 00:58:06.613,2022-06-08 17:58:06.613,17,0,0,16.618,33.737627,-118.104812,0.20,-0.10,0.00,4.40,-5.70,-26.70,0,1,0,99,100,-6868,3537,16618,3011.50,2,WP,1,0,0,0,0,0,0,1654736286612,4160,4147,4151,4147,0,0,27,,,,,,,0,0,0,-44.00,-57.00,-267.00,-788.00,0.00,-299.00,14,20.00,2.24,51.25,2.00,-1.00,0.00,0,,,100,100,0,2,0,0,0,1,0,,,,,0.0,0.0,0.0,0.0,0.0,0.0,0
33.737672,-118.104829,2.00,2.50,0.22,5.16,2.00,2.00,2.33,5.16,9406,2022-06-09 00:58:06.713,2022-06-08 17:58:06.713,17,0,0,16.618,33.737627,-118.104812,0.20,-0.10,0.00,6.60,-4.70,-27.20,0,1,0,99,100,-6868,3537,16618,3011.50,2,WP,1,0,0,0,0,0,0,1654736286713,4160,4147,4151,4147,0,0,27,,,,,,,0,0,0,-66.00,-47.00,-272.00,-755.00,0.00,-299.00,14,20.00,2.24,51.56,2.00,-1.00,0.00,0,,,100,100,0,2,0,0,0,1,0,,,,,0.0,0.0,0.0,0.0,0.0,0.0,0
33.737672,-118.104829,2.00,2.50,0.10,5.16,2.00,2.00,2.33,5.16,9506,2022-06-09 00:58:06.813,2022-06-08 17:58:06.813,17,0,0,16.618,33.737627,-118.104812,0.10,0.00,0.00,5.30,-5.80,-27.40,0,1,0,99,100,-6868,3537,16618,3011.50,2,WP,1,0,0,0,0,0,0,1654736286813,4160,4147,4151,4147,0,0,27,,,,,,,0,0,0,-53.00,-58.00,-274.00,-767.00,0.00,-299.00,14,20.00,1.00,51.59,1.00,0.00,0.00,0,,,100,100,0,2,0,0,0,1,0,,,,,0.0,0.0,0.0,0.0,0.0,0.0,0
33.737672,-118.104829,2.00,2.50,0.00,5.17,2.00,2.00,2.33,5.17,9607,2022-06-09 00:58:06.915,2022-06-08 17:58:06.915,17,0,0,16.618,33.737627,-118.104812,0.00,0.00,0.00,3.80,-6.30,-27.00,0,1,0,99,100,-6868,3537,16618,3011.50,2,WP,1,0,0,0,0,0,0,1654736286914,4160,4147,4151,4147,0,0,27,,,,,,,0,0,0,-38.00,-63.00,-270.00,-782.00,0.00,-300.00,14,20.00,0.00,51.71,0.00,0.00,0.00,0,,,100,100,0,2,0,0,0,1,0,,,,,0.0,0.0,0.0,0.0,0.0,0.0,0
33.737672,-118.104829,2.00,2.60,0.00,5.16,2.00,2.00,2.33,5.17,9706,2022-06-09 00:58:07.014,2022-06-08 17:58:07.014,17,0,0,16.618,33.737627,-118.104812,0.00,0.00,0.00,3.20,-6.40,-22.20,0,1,0,99,100,-6868,3537,16618,3011.50,2,WP,1,0,0,0,0,0,0,1654736287013,4160,4147,4151,4147,0,0,27,,,,,,,0,0,0,-32.00,-64.00,-222.00,-792.00,0.00,-300.00,14,20.00,0.00,51.60,0.00,0.00,0.00,0,,,100,100,0,2,0,0,0,1,0,,,,,0.0,0.0,0.0,0.0,0.0,0.0,0
33.737672,-118.104829,2.00,2.60,0.00,5.16,2.00,2.00,2.33,5.17,9808,2022-06-09 00:58:07.116,2022-06-08 17:58:07.116,17,0,0,16.618,33.737627,-118.104812,0.00,0.00,0.00,2.10,-6.20,-17.70,0,1,0,99,100,-6868,3537,16618,3011.50,2,WP,1,0,0,0,0,0,0,1654736287115,4160,4147,4151,4147,0,0,27,,,,,,,0,0,0,-21.00,-62.00,-177.00,-807.00,0.00,-292.00,14,20.00,0.00,51.60,0.00,0.00,0.00,0,,,100,100,0,2,0,0,0,1,0,,,,,0.0,0.0,0.0,0.0,0.0,0.0,0
33.737672,-118.104829,2.00,2.60,0.00,5.15,2.00,2.00,2.33,5.17,9907,2022-06-09 00:58:07.215,2022-06-08 17:58:07.215,17,0,0,16.618,33.737627,-118.104812,0.00,0.00,0.00,1.80,-5.90,-14.20,0,1,0,99,100,-6868,3537,16618,3011.50,2,WP,1,0,0,0,0,0,0,1654736287214,4160,4147,4151,4147,0,0,27,,,,,,,0,0,0,-18.00,-59.00,-142.00,-812.00,0.00,-257.00,14,20.00,0.00,51.55,0.00,0.00,0.00,0,,,100,100,0,2,0,0,0,1,0,,,,,0.0,0.0,0.0,0.0,0.0,0.0,0
33.737672,-118.104829,2.00,2.60,0.00,5.15,2.00,2.00,2.33,5.17,10006,2022-06-09 00:58:07.314,2022-06-08 17:58:07.314,17,0,0,16.618,33.737627,-118.104812,0.00,0.00,0.00,2.40,-6.00,-11.40,0,1,0,99,100,-6868,3537,16618,3011.50,2,WP,1,0,0,0,0,0,0,1654736287313,4160,4147,4151,4147,0,0,27,,,,,,,0,0,0,-24.00,-60.00,-114.00,-807.00,0.00,-216.00,14,20.00,0.00,51.54,0.00,0.00,0.00,0,,,100,100,0,2,0,0,0,1,0,,,,,0.0,0.0,0.0,0.0,0.0,0.0,0
33.737672,-118.104828,2.00,2.60,0.00,5.14,2.00,2.00,2.33,5.17,10107,2022-06-09 00:58:07.415,2022-06-08 17:58:07.415,17,0,0,16.618,33.737627,-118.104812,0.00,0.00,0.00,2.60,-6.50,-9.10,0,1,0,99,100,-6868,3537,16618,3011.50,2,WP,1,0,0,0,0,0,0,1654736287414,4160,4147,4151,4147,0,0,27,,,,,,,0,0,0,-26.00,-65.00,-91.00,-804.00,0.00,-183.00,14,20.00,0.00,51.36,0.00,0.00,0.00,0,,,100,100,0,2,0,0,0,1,0,,,,,0.0,0.0,0.0,0.0,0.0,0.0,0
33.737671,-118.104828,2.00,2.60,0.00,5.13,2.00,2.00,2.33,5.17,10206,2022-06-09 00:58:07.514,2022-06-08 17:58:07.514,17,0,0,16.618,33.737627,-118.104812,0.00,0.00,0.00,2.60,-7.00,-7.20,0,1,0,99,100,-6868,3537,16618,3011.50,2,WP,1,0,0,0,0,0,0,1654736287513,4160,4147,4151,4147,0,0,27,,,,,,,0,0,0,-26.00,-70.00,-72.00,-805.00,0.00,-157.00,14,20.00,0.00,51.33,0.00,0.00,0.00,0,,,100,100,0,2,0,0,0,1,0,,,,,0.0,0.0,0.0,0.0,0.0,0.0,0
33.737671,-118.104828,2.10,2.60,0.00,5.13,2.10,2.10,2.33,5.17,10316,2022-06-09 00:58:07.624,2022-06-08 17:58:07.624,17,0,0,16.618,33.737627,-118.104812,0.00,0.00,0.00,3.10,-6.30,-5.80,0,1,0,99,100,-6868,3537,16618,3011.50,2,WP,1,0,0,0,0,0,0,1654736287623,4160,4147,4151,4147,0,0,27,,,,,,,0,0,0,-31.00,-63.00,-58.00,-799.00,0.00,-137.00,14,21.00,0.00,51.25,0.00,0.00,0.00,0,,,100,100,0,2,0,0,0,1,0,,,,,0.0,0.0,0.0,0.0,0.0,0.0,0
33.737671,-118.104828,2.10,2.60,0.00,5.12,2.10,2.10,2.33,5.17,10416,2022-06-09 00:58:07.724,2022-06-08 17:58:07.724,17,0,0,16.618,33.737627,-118.104812,0.00,0.00,0.00,3.10,-5.80,-4.80,0,1,0,99,100,-6868,3537,16618,3011.50,2,WP,1,0,0,0,0,0,0,1654736287723,4160,4147,4151,4147,0,0,27,,,,,,,0,0,0,-31.00,-58.00,-48.00,-797.00,0.00,-122.00,14,21.00,0.00,51.23,0.00,0.00,0.00,0,,,100,100,0,2,0,0,0,1,0,,,,,0.0,0.0,0.0,0.0,0.0,0.0,0
33.737671,-118.104828,2.10,2.60,0.00,5.12,2.10,2.10,2.33,5.17,10508,2022-06-09 00:58:07.815,2022-06-08 17:58:07.815,17,0,0,16.618,33.737627,-118.104812,0.00,0.00,0.00,3.60,-5.30,-2.50,0,1,0,99,100,-6868,3537,16618,3011.50,2,WP,1,0,0,0,0,0,0,1654736287815,4160,4147,4151,4147,0,0,27,,,,,,,0,0,0,-36.00,-53.00,-25.00,-794.00,0.00,-109.00,14,21.00,0.00,51.24,0.00,0.00,0.00,0,,,100,100,0,2,0,0,0,1,0,,,,,0.0,0.0,0.0,0.0,0.0,0.0,0
33.737671,-118.104828,2.10,2.60,0.00,5.12,2.10,2.10,2.33,5.17,10606,2022-06-09 00:58:07.914,2022-06-08 17:58:07.914,17,0,0,16.618,33.737627,-118.104812,0.00,0.00,0.00,3.90,-4.80,-0.30,0,1,0,99,100,-6868,3537,16618,3011.50,2,WP,1,0,0,0,0,0,0,1654736287913,4160,4147,4151,4147,0,0,27,,,,,,,0,0,0,-39.00,-48.00,-3.00,-790.00,0.00,-93.00,14,21.00,0.00,51.22,0.00,0.00,0.00,0,,,100,100,0,2,0,0,0,1,0,,,,,0.0,0.0,0.0,0.0,0.0,0.0,0
33.737671,-118.104828,2.10,2.60,0.00,5.10,2.10,2.10,2.33,5.17,10707,2022-06-09 00:58:08.014,2022-06-08 17:58:08.014,17,0,0,16.618,33.737627,-118.104812,0.00,0.00,0.00,4.00,-4.90,1.10,0,1,0,99,100,-6868,3537,16618,3011.50,2,WP,1,0,0,0,0,0,0,1654736288014,4160,4147,4151,4147,0,0,27,,,,,,,0,0,0,-40.00,-49.00,11.00,-789.00,0.00,-72.00,14,21.00,0.00,51.00,0.00,0.00,0.00,0,,,100,100,0,2,0,0,0,1,0,,,,,0.0,0.0,0.0,0.0,0.0,0.0,0
33.737671,-118.104828,2.10,2.60,0.00,5.09,2.10,2.10,2.33,5.17,10813,2022-06-09 00:58:08.120,2022-06-08 17:58:08.120,17,0,0,16.618,33.737627,-118.104812,0.00,0.00,0.00,4.00,-5.20,2.30,0,1,0,99,100,-6868,3537,16618,3011.50,2,WP,1,0,0,0,0,0,0,1654736288120,4160,4147,4151,4147,0,0,27,,,,,,,0,0,0,-40.00,-52.00,23.00,-789.00,0.00,-53.00,14,21.00,0.00,50.95,0.00,0.00,0.00,0,,,100,100,0,2,0,0,0,1,0,,,,,0.0,0.0,0.0,0.0,0.0,0.0,0
33.737671,-118.104827,2.10,2.60,0.00,5.09,2.10,2.10,2.33,5.17,10907,2022-06-09 00:58:08.214,2022-06-08 17:58:08.214,17,0,0,16.618,33.737627,-118.104812,0.00,0.00,0.00,4.20,-5.30,3.20,0,1,0,99,100,-6868,3537,16618,3011.50,2,WP,1,0,0,0,0,0,0,1654736288214,4160,4147,4151,4147,0,0,27,,,,,,,0,0,0,-42.00,-53.00,32.00,-787.00,0.00,-40.00,14,21.00,0.00,50.92,0.00,0.00,0.00,0,,,100,100,0,2,0,0,0,1,0,,,,,0.0,0.0,0.0,0.0,0.0,0.0,0
33.737671,-118.104827,2.10,2.60,0.00,5.09,2.10,2.10,2.33,5.17,11007,2022-06-09 00:58:08.314,2022-06-08 17:58:08.314,17,0,0,16.618,33.737627,-118.104812,0.00,0.00,0.00,4.20,-5.60,3.70,0,1,0,99,100,-6868,3537,16618,3011.50,2,WP,1,0,0,0,0,0,0,1654736288314,4160,4147,4151,4147,0,0,27,,,,,,,0,0,0,-42.00,-56.00,37.00,-787.00,0.00,-31.00,14,21.00,0.00,50.86,0.00,0.00,0.00,0,,,100,100,0,2,0,0,0,1,0,,,,,0.0,0.0,0.0,0.0,0.0,0.0,0
33.737671,-118.104827,2.10,2.70,0.00,5.08,2.10,2.10,2.33,5.17,11107,2022-06-09 00:58:08.415,2022-06-08 17:58:08.415,17,0,0,16.618,33.737627,-118.104812,0.00,0.00,0.00,4.10,-5.90,4.00,0,1,0,99,100,-6723,3533,16618,3011.50,2,WP,1,0,0,0,0,0,0,1654736288414,4160,4147,4151,4147,0,0,27,,,,,,,0,0,0,-41.00,-59.00,40.00,-881.00,0.00,-24.00,14,21.00,0.00,50.84,0.00,0.00,0.00,0,,,100,100,0,2,0,0,0,1,0,,,,,0.0,0.0,0.0,0.0,0.0,0.0,0
33.737671,-118.104827,2.10,2.70,0.00,5.08,2.10,2.10,2.33,5.17,11207,2022-06-09 00:58:08.514,2022-06-08 17:58:08.514,17,0,0,16.618,33.737627,-118.104812,0.00,0.00,0.00,4.20,-5.90,4.20,0,1,0,99,100,-6723,3533,16618,3011.50,2,WP,1,0,0,0,0,0,0,1654736288514,4160,4147,4151,4147,0,0,27,,,,,,,0,0,0,-42.00,-59.00,42.00,-881.00,0.00,-24.00,14,21.00,0.00,50.78,0.00,0.00,0.00,0,,,100,100,0,2,0,0,0,1,0,,,,,0.0,0.0,0.0,0.0,0.0,0.0,0
33.737671,-118.104827,2.10,2.70,0.00,5.08,2.10,2.10,2.33,5.17,11307,2022-06-09 00:58:08.615,2022-06-08 17:58:08.615,17,0,0,16.618,33.737627,-118.104812,0.00,0.00,0.00,4.30,-5.80,4.50,0,1,0,99,100,-6723,3533,16618,3011.50,2,WP,1,0,0,0,0,0,0,1654736288614,4160,4147,4151,4147,0,0,27,,,,,,,0,0,0,-43.00,-58.00,45.00,-883.00,0.00,-15.00,14,21.00,0.00,50.76,0.00,0.00,0.00,0,,,100,100,0,2,0,0,0,1,0,,,,,0.0,0.0,0.0,0.0,0.0,0.0,0
33.737671,-118.104827,2.10,2.70,0.00,5.07,2.10,2.10,2.33,5.17,11407,2022-06-09 00:58:08.715,2022-06-08 17:58:08.715,17,0,0,16.618,33.737627,-118.104812,0.00,0.00,0.00,4.20,-5.80,4.60,0,1,0,99,100,-6723,3533,16618,3011.50,2,WP,1,0,0,0,0,0,0,1654736288714,4160,4147,4151,4147,0,0,27,,,,,,,0,0,0,-42.00,-58.00,46.00,-883.00,0.00,-12.00,14,21.00,0.00,50.70,0.00,0.00,0.00,0,,,100,100,0,2,0,0,0,1,0,,,,,0.0,0.0,0.0,0.0,0.0,0.0,0
33.737671,-118.104827,2.10,2.70,0.00,5.06,2.10,2.10,2.33,5.17,11508,2022-06-09 00:58:08.815,2022-06-08 17:58:08.815,17,0,0,16.618,33.737627,-118.104812,0.00,0.00,0.00,4.10,-5.90,4.70,0,1,0,99,100,-6723,3533,16618,3011.50,2,WP,1,0,0,0,0,0,0,1654736288815,4160,4147,4151,4147,0,0,27,,,,,,,0,0,0,-41.00,-59.00,47.00,-883.00,0.00,-9.00,14,21.00,0.00,50.57,0.00,0.00,0.00,0,,,100,100,0,2,0,0,0,1,0,,,,,0.0,0.0,0.0,0.0,0.0,0.0,0
33.737671,-118.104827,2.10,2.70,0.00,5.05,2.10,2.10,2.33,5.17,11608,2022-06-09 00:58:08.915,2022-06-08 17:58:08.915,17,0,0,16.618,33.737627,-118.104812,0.00,0.00,0.00,3.90,-6.00,4.80,0,1,0,99,100,-6723,3533,16618,3011.50,2,WP,1,0,0,0,0,0,0,1654736288915,4160,4147,4151,4147,0,0,27,,,,,,,0,0,0,-39.00,-60.00,48.00,-883.00,0.00,-7.00,14,21.00,0.00,50.49,0.00,0.00,0.00,0,,,100,100,0,2,0,0,0,1,0,,,,,0.0,0.0,0.0,0.0,0.0,0.0,0
33.737671,-118.104827,2.10,2.70,0.00,5.04,2.10,2.10,2.33,5.17,11708,2022-06-09 00:58:09.016,2022-06-08 17:58:09.016,17,0,0,16.618,33.737627,-118.104812,0.00,0.00,0.00,3.80,-6.20,4.90,0,1,0,99,100,-6723,3533,16618,3011.50,2,WP,1,0,0,0,0,0,0,1654736289015,4160,4147,4151,4147,0,0,27,,,,,,,0,0,0,-38.00,-62.00,49.00,-883.00,0.00,-4.00,14,21.00,0.00,50.39,0.00,0.00,0.00,0,,,100,100,0,2,0,0,0,1,0,,,,,0.0,0.0,0.0,0.0,0.0,0.0,0
33.737671,-118.104827,2.10,2.70,0.00,5.03,2.10,2.10,2.33,5.17,11814,2022-06-09 00:58:09.122,2022-06-08 17:58:09.122,17,0,0,16.618,33.737627,-118.104812,0.00,0.00,0.00,3.70,-6.30,4.90,0,1,0,99,100,-6723,3533,16618,3011.50,2,WP,1,0,0,0,0,0,0,1654736289121,4160,4147,4151,4147,0,0,27,,,,,,,0,0,0,-37.00,-63.00,49.00,-883.00,0.00,-3.00,14,21.00,0.00,50.31,0.00,0.00,0.00,0,,,100,100,0,2,0,0,0,1,0,,,,,0.0,0.0,0.0,0.0,0.0,0.0,0
33.737671,-118.104826,2.10,2.70,0.00,5.01,2.10,2.10,2.33,5.17,11907,2022-06-09 00:58:09.214,2022-06-08 17:58:09.214,17,0,0,16.618,33.737627,-118.104812,0.00,0.00,0.00,3.70,-6.30,4.80,0,1,0,99,100,-6723,3533,16618,3011.50,2,WP,1,0,0,0,0,0,0,1654736289214,4160,4147,4151,4147,0,0,27,,,,,,,0,0,0,-37.00,-63.00,48.00,-883.00,0.00,-1.00,14,21.00,0.00,50.05,0.00,0.00,0.00,0,,,100,100,0,2,0,0,0,1,0,,,,,0.0,0.0,0.0,0.0,0.0,0.0,0
33.737671,-118.104826,2.10,2.70,0.00,5.00,2.10,2.10,2.33,5.17,12008,2022-06-09 00:58:09.315,2022-06-08 17:58:09.315,17,0,0,16.618,33.737627,-118.104812,0.00,0.00,0.00,3.60,-6.30,4.90,0,1,0,99,100,-6723,3533,16618,3011.50,2,WP,1,0,0,0,0,0,0,1654736289315,4160,4147,4151,4147,0,0,27,,,,,,,0,0,0,-36.00,-63.00,49.00,-883.00,0.00,0.00,14,21.00,0.00,49.97,0.00,0.00,0.00,0,,,100,100,0,2,0,0,0,1,0,,,,,0.0,0.0,0.0,0.0,0.0,0.0,0
33.737671,-118.104826,2.10,2.70,0.00,4.99,2.10,2.10,2.33,5.17,12109,2022-06-09 00:58:09.416,2022-06-08 17:58:09.416,17,0,0,16.618,33.737627,-118.104812,0.00,0.00,0.00,3.60,-6.40,4.80,0,1,0,99,100,-6723,3533,16618,3011.50,2,WP,1,0,0,0,0,0,0,1654736289416,4160,4147,4151,4147,0,0,27,,,,,,,0,0,0,-36.00,-64.00,48.00,-883.00,0.00,0.00,14,21.00,0.00,49.94,0.00,0.00,0.00,0,,,100,100,0,2,0,0,0,1,0,,,,,0.0,0.0,0.0,0.0,0.0,0.0,0
33.737671,-118.104826,2.10,2.70,0.00,4.99,2.10,2.10,2.33,5.17,12208,2022-06-09 00:58:09.516,2022-06-08 17:58:09.516,17,0,0,16.618,33.737627,-118.104812,0.00,0.00,0.00,3.50,-6.30,5.00,0,1,0,99,100,-6723,3533,16618,3011.50,2,WP,1,0,0,0,0,0,0,1654736289515,4160,4147,4151,4147,0,0,27,,,,,,,0,0,0,-35.00,-63.00,50.00,-883.00,0.00,1.00,14,21.00,0.00,49.88,0.00,0.00,0.00,0,,,100,100,0,2,0,0,0,1,0,,,,,0.0,0.0,0.0,0.0,0.0,0.0,0
33.737671,-118.104826,2.10,2.70,0.00,4.99,2.10,2.10,2.33,5.17,12319,2022-06-09 00:58:09.627,2022-06-08 17:58:09.627,17,0,0,16.618,33.737627,-118.104812,0.00,0.00,0.00,3.60,-6.30,5.00,0,1,0,99,100,-6723,3533,16618,3011.50,2,WP,1,0,0,0,0,0,0,1654736289626,4160,4147,4151,4147,0,0,27,,,,,,,0,0,0,-36.00,-63.00,50.00,-883.00,0.00,2.00,14,21.00,0.00,49.87,0.00,0.00,0.00,0,,,100,100,0,2,0,0,0,1,0,,,,,0.0,0.0,0.0,0.0,0.0,0.0,0
33.737671,-118.104826,2.10,2.70,0.00,4.98,2.10,2.10,2.33,5.17,12407,2022-06-09 00:58:09.715,2022-06-08 17:58:09.715,17,0,0,16.618,33.737627,-118.104812,0.00,0.00,0.00,3.50,-6.40,5.00,0,1,0,99,100,-6723,3533,16618,3011.50,2,WP,1,0,0,0,0,0,0,1654736289714,4160,4147,4151,4147,0,0,27,,,,,,,0,0,0,-35.00,-64.00,50.00,-883.00,0.00,3.00,14,21.00,0.00,49.83,0.00,0.00,0.00,0,,,100,100,0,2,0,0,0,1,0,,,,,0.0,0.0,0.0,0.0,0.0,0.0,0
33.737671,-118.104826,2.10,2.70,0.00,4.98,2.10,2.10,2.33,5.17,12509,2022-06-09 00:58:09.817,2022-06-08 17:58:09.817,17,0,0,16.618,33.737627,-118.104812,0.00,0.00,0.00,3.50,-6.40,4.90,0,1,0,99,100,-6723,3533,16618,3011.50,2,WP,1,0,0,0,0,0,0,1654736289816,4160,4147,4151,4147,0,0,27,,,,,,,0,0,0,-35.00,-64.00,49.00,-883.00,0.00,3.00,14,21.00,0.00,49.76,0.00,0.00,0.00,0,,,100,100,0,2,0,0,0,1,0,,,,,0.0,0.0,0.0,0.0,0.0,0.0,0
33.737671,-118.104826,2.10,2.70,0.00,4.97,2.10,2.10,2.33,5.17,12608,2022-06-09 00:58:09.916,2022-06-08 17:58:09.916,17,0,0,16.618,33.737627,-118.104812,0.00,0.00,0.00,3.60,-6.30,5.00,0,1,0,99,100,-6723,3533,16618,3011.50,2,WP,1,0,0,0,0,0,0,1654736289915,4160,4147,4151,4147,0,0,27,,,,,,,0,0,0,-36.00,-63.00,50.00,-883.00,0.00,4.00,14,21.00,0.00,49.74,0.00,0.00,0.00,0,,,100,100,0,2,0,0,0,1,0,,,,,0.0,0.0,0.0,0.0,0.0,0.0,0
33.737671,-118.104826,2.10,2.70,0.00,4.97,2.10,2.10,2.33,5.17,12708,2022-06-09 00:58:10.015,2022-06-08 17:58:10.015,17,0,0,16.618,33.737627,-118.104812,0.00,0.00,0.00,4.00,-6.00,4.90,0,1,0,99,100,-6723,3533,16618,3011.50,2,WP,1,0,0,0,0,0,0,1654736290015,4160,4147,4151,4147,0,0,27,,,,,,,0,0,0,-40.00,-60.00,49.00,-883.00,0.00,5.00,14,21.00,0.00,49.69,0.00,0.00,0.00,0,,,100,100,0,2,0,0,0,1,0,,,,,0.0,0.0,0.0,0.0,0.0,0.0,0
33.737671,-118.104826,2.10,2.70,0.00,4.97,2.10,2.10,2.33,5.17,12815,2022-06-09 00:58:10.122,2022-06-08 17:58:10.122,17,0,0,16.618,33.737627,-118.104812,0.00,0.00,0.00,4.10,-6.00,4.80,0,1,0,99,100,-6723,3533,16618,3011.50,2,WP,1,0,0,0,0,0,0,1654736290122,4160,4147,4151,4147,0,0,27,,,,,,,0,0,0,-41.00,-60.00,48.00,-883.00,0.00,5.00,14,21.00,0.00,49.69,0.00,0.00,0.00,0,,,100,100,0,2,0,0,0,1,0,,,,,0.0,0.0,0.0,0.0,0.0,0.0,0
33.737671,-118.104826,2.10,2.70,0.00,4.98,2.10,2.10,2.33,5.17,12907,2022-06-09 00:58:10.215,2022-06-08 17:58:10.215,17,0,0,16.618,33.737627,-118.104812,0.00,0.00,0.00,4.20,-5.90,4.80,0,1,0,99,100,-6723,3533,16618,3011.50,2,WP,1,0,0,0,0,0,0,1654736290214,4160,4147,4151,4147,0,0,27,,,,,,,0,0,0,-42.00,-59.00,48.00,-883.00,0.00,5.00,14,21.00,0.00,49.76,0.00,0.00,0.00,0,,,100,100,0,2,0,0,0,1,0,,,,,0.0,0.0,0.0,0.0,0.0,0.0,0
33.737671,-118.104826,2.10,2.70,0.00,4.98,2.10,2.10,2.33,5.17,13009,2022-06-09 00:58:10.316,2022-06-08 17:58:10.316,17,0,0,16.618,33.737627,-118.104812,0.00,0.00,0.00,4.30,-5.70,4.80,0,1,0,99,100,-6723,3533,16618,3011.50,2,WP,1,0,0,0,0,0,0,1654736290316,4160,4147,4151,4147,0,0,27,,,,,,,0,0,0,-43.00,-57.00,48.00,-883.00,0.00,6.00,14,21.00,0.00,49.77,0.00,0.00,0.00,0,,,100,100,0,2,0,0,0,1,0,,,,,0.0,0.0,0.0,0.0,0.0,0.0,0
33.737671,-118.104826,2.10,2.70,0.00,4.98,2.10,2.10,2.33,5.17,13109,2022-06-09 00:58:10.417,2022-06-08 17:58:10.417,17,0,0,16.601,33.737627,-118.104812,0.00,0.00,0.00,4.20,-5.80,4.80,0,1,0,99,100,-6783,3531,16601,3011.50,2,WP,1,0,0,0,0,0,0,1654736290416,4160,4147,4151,4147,0,0,27,,,,,,,0,0,0,-42.00,-58.00,48.00,-883.00,0.00,6.00,14,21.00,0.00,49.78,0.00,0.00,0.00,0,,,100,100,0,2,0,0,0,1,0,,,,,0.0,0.0,0.0,0.0,0.0,0.0,0
33.737671,-118.104826,2.20,2.70,0.00,4.98,2.20,2.20,2.33,5.17,13208,2022-06-09 00:58:10.515,2022-06-08 17:58:10.515,17,0,0,16.601,33.737627,-118.104812,0.00,0.00,0.00,4.00,-5.80,4.80,0,1,0,99,100,-6783,3531,16601,3011.50,2,WP,1,0,0,0,0,0,0,1654736290515,4160,4147,4151,4147,0,0,27,,,,,,,0,0,0,-40.00,-58.00,48.00,-883.00,0.00,6.00,14,22.00,0.00,49.78,0.00,0.00,0.00,0,,,100,100,0,2,0,0,0,1,0,,,,,0.0,0.0,0.0,0.0,0.0,0.0,0
33.737671,-118.104826,2.20,2.80,0.00,4.99,2.20,2.20,2.33,5.17,13334,2022-06-09 00:58:10.641,2022-06-08 17:58:10.641,17,0,0,16.601,33.737627,-118.104812,0.00,0.00,0.00,3.90,-5.80,4.90,0,1,0,99,100,-6783,3531,16601,3011.50,2,WP,1,0,0,0,0,0,0,1654736290641,4160,4147,4151,4147,0,0,27,,,,,,,0,0,0,-39.00,-58.00,49.00,-883.00,0.00,6.00,14,22.00,0.00,49.95,0.00,0.00,0.00,0,,,100,100,0,2,0,0,0,1,0,,,,,0.0,0.0,0.0,0.0,0.0,0.0,0
33.737671,-118.104826,2.20,2.80,0.00,5.00,2.20,2.20,2.33,5.17,13410,2022-06-09 00:58:10.717,2022-06-08 17:58:10.717,17,0,0,16.601,33.737627,-118.104812,0.00,0.00,0.00,4.00,-5.60,4.80,0,1,0,99,100,-6783,3531,16601,3011.50,2,WP,1,0,0,0,0,0,0,1654736290717,4160,4147,4151,4147,0,0,27,,,,,,,0,0,0,-40.00,-56.00,48.00,-883.00,0.00,6.00,14,22.00,0.00,49.97,0.00,0.00,0.00,0,,,100,100,0,2,0,0,0,1,0,,,,,0.0,0.0,0.0,0.0,0.0,0.0,0
33.737671,-118.104826,2.20,2.80,0.00,4.99,2.20,2.20,2.33,5.17,13509,2022-06-09 00:58:10.817,2022-06-08 17:58:10.817,17,0,0,16.601,33.737627,-118.104812,0.00,0.00,0.00,3.90,-5.60,4.90,0,1,0,99,100,-6783,3531,16601,3011.50,2,WP,1,0,0,0,0,0,0,1654736290816,4160,4147,4151,4147,0,0,27,,,,,,,0,0,0,-39.00,-56.00,49.00,-883.00,0.00,7.00,14,22.00,0.00,49.93,0.00,0.00,0.00,0,,,100,100,0,2,0,0,0,1,0,,,,,0.0,0.0,0.0,0.0,0.0,0.0,0
