latitude,longitude,altitude(m),ultrasonicHeight(m),speed(mps),distance(m),max_altitude(m),max_ascent(m),max_speed(mps),max_distance(m),time(millisecond),datetime(utc),datetime(local),satellites,pressure(Pa),temperature(F),voltage(v),home_latitude,home_longitude,velocityX(mps),velocityY(mps),velocityZ(mps),pitch(deg),roll(deg),yaw(deg),powerlevel,isflying,istakingphoto,remainPowerPercent,remainLifePercent,currentCurrent,currentElectricity,currentVoltage,batteryTemperature,dischargeCount,flightmode,isMotorsOn,isTakingVideo,Rc_elevator,Rc_aileron,Rc_throttle,Rc_rudder,Rc_gyro,timestamp,Battery_Cell1,Battery_Cell2,Battery_Cell3,Battery_Cell4,Battery_Cell5,Battery_Cell6,Dronetype,AppVersion,Planename,FlyControllerSerialNumber,RemoteSerialNumber,BatterySerialNumber,CENTER_BATTERY.productDate,CENTER_BATTERY.serialNo,CENTER_BATTERY.fullCapacity,CENTER_BATTERY.productDateRaw,pitchRaw,rollRaw,yawRaw,gimbalPitchRaw,gimbalRollRaw,gimbalYawRaw,flyState,altitudeRaw,speedRaw,distanceRaw,velocityXRaw,velocityYRaw,velocityZRaw,data_reuse,App_Tip,App_Warning,downlinkSignalQuality,uplinkSignalQuality,transmissionChannel,rcModeSwitch,rcHome,rcPause,rcTransform,rcJoystickMode,appMode,FlyControllerSerialNumber_legacy,RemoteSerialNumber_legacy,BatterySerialNumber_legacy,Battery2SerialNumber,frontAvoidDist,backAvoidDist,rightAvoidDist,leftAvoidDist,upAvoidDist,downAvoidDist,isBrakingToAvoid
34.181600,-118.130723,0.30,0.40,0.40,5.53,0.30,0.30,0.40,5.53,3,2022-06-08 12:50:31.721,2022-06-08 05:50:31.721,15,0,0,16.860,34.181562,-118.130762,0.00,0.00,-0.40,1.20,-0.60,16.10,0,1,0,98,100,-5195,3452,16860,2971.50,11,TakeOff,1,0,0,0,0,0,0,1654692631721,4320,4323,4321,4310,0,0,27,Litchi_iOS_2.14.0,Brian-MAVIC 2,163DFCK001S13F,1DUCFB800104PR,0P2AFBV5340045,,0,3525,0,-12.00,-6.00,161.00,0.00,0.00,31.00,11,3.00,4.00,55.34,0.00,0.00,-4.00,0,,,100,100,0,1,0,0,0,0,6,(null),(null),(null),(null),2.3,5.3,0.0,0.0,0.0,0.0,0
34.181600,-118.130723,0.40,0.40,0.40,0.19,0.40,0.40,0.40,5.53,100,2022-06-08 12:50:31.819,2022-06-08 05:50:31.819,15,0,0,16.860,34.181601,-118.130723,0.00,0.00,-0.40,1.00,-0.60,16.10,0,1,0,98,100,-5195,3452,16860,2971.50,11,TakeOff,1,0,0,0,0,0,0,1654692631818,4320,4323,4321,4310,0,0,27,,,,,,,0,0,0,-10.00,-6.00,161.00,0.00,0.00,31.00,11,4.00,4.00,1.93,0.00,0.00,-4.00,0,,,100,100,0,1,0,0,0,0,6,,,,,2.3,5.3,0.0,0.0,0.0,0.0,0
34.181599,-118.130723,0.40,0.50,0.40,0.22,0.40,0.40,0.40,5.53,200,2022-06-08 12:50:31.919,2022-06-08 05:50:31.919,15,0,0,16.860,34.181601,-118.130723,0.00,0.00,-0.40,0.70,-0.50,16.20,0,1,0,98,100,-5195,3452,16860,2971.50,11,TakeOff,1,0,0,0,0,0,0,1654692631918,4320,4323,4321,4310,0,0,27,,,,,,,0,0,0,-7.00,-5.00,162.00,0.00,0.00,31.00,11,4.00,4.00,2.17,0.00,0.00,-4.00,0,,,100,100,0,1,0,0,0,0,6,,,,,2.3,5.3,0.0,0.0,0.0,0.0,0
34.181599,-118.130724,0.50,0.50,0.40,0.30,0.50,0.50,0.40,5.53,301,2022-06-08 12:50:32.020,2022-06-08 05:50:32.020,15,0,0,16.860,34.181601,-118.130723,0.00,0.00,-0.40,0.50,-0.50,16.20,0,1,0,98,100,-5195,3452,16860,2971.50,11,TakeOff,1,0,0,0,0,0,0,1654692632019,4320,4323,4321,4310,0,0,27,,,,,,,0,0,0,-5.00,-5.00,162.00,0.00,0.00,31.00,11,5.00,4.00,3.03,0.00,0.00,-4.00,0,,,100,100,0,1,0,0,0,0,6,,,,,2.3,5.3,0.0,0.0,0.0,0.0,0
34.181598,-118.130724,0.50,0.60,0.50,0.34,0.50,0.50,0.50,5.53,400,2022-06-08 12:50:32.119,2022-06-08 05:50:32.119,15,0,0,16.610,34.181601,-118.130723,0.00,0.00,-0.50,0.20,-0.40,16.20,0,1,0,98,100,-7339,3449,16610,2971.50,11,TakeOff,1,0,0,0,0,0,0,1654692632118,4320,4323,4321,4310,0,0,27,,,,,,,0,0,0,-2.00,-4.00,162.00,0.00,0.00,31.00,11,5.00,5.00,3.40,0.00,0.00,-5.00,0,,,100,100,0,1,0,0,0,0,6,,,,,2.3,5.3,0.0,0.0,0.0,0.0,0
34.181598,-118.130724,0.60,0.60,0.50,0.38,0.60,0.60,0.50,5.53,501,2022-06-08 12:50:32.219,2022-06-08 05:50:32.219,15,0,0,16.610,34.181601,-118.130723,0.00,0.00,-0.50,0.00,-0.90,16.20,0,1,0,98,100,-7339,3449,16610,2971.50,11,TakeOff,1,0,0,0,0,0,0,1654692632219,4320,4323,4321,4310,0,0,27,,,,,,,0,0,0,-0.00,-9.00,162.00,0.00,0.00,31.00,11,6.00,5.00,3.82,0.00,0.00,-5.00,0,,,100,100,0,1,0,0,0,0,6,,,,,2.3,5.4,0.0,0.0,0.0,0.0,0
34.181598,-118.130724,0.60,0.70,0.50,0.42,0.60,0.60,0.50,5.53,601,2022-06-08 12:50:32.320,2022-06-08 05:50:32.320,15,0,0,16.610,34.181601,-118.130723,0.00,0.00,-0.50,0.00,-1.00,16.20,0,1,0,98,100,-7339,3449,16610,2971.50,11,TakeOff,1,0,0,0,0,0,0,1654692632319,4320,4323,4321,4310,0,0,27,,,,,,,0,0,0,-0.00,-10.00,162.00,0.00,0.00,31.00,11,6.00,5.00,4.20,0.00,0.00,-5.00,0,,,100,100,0,1,0,0,0,0,6,,,,,2.3,5.4,0.0,0.0,0.0,0.0,0
34.181597,-118.130724,0.70,0.70,0.50,0.44,0.70,0.70,0.50,5.53,700,2022-06-08 12:50:32.419,2022-06-08 05:50:32.419,15,0,0,16.610,34.181601,-118.130723,0.00,0.00,-0.50,0.00,-1.00,16.20,0,1,0,98,100,-7339,3449,16610,2971.50,11,TakeOff,1,0,0,0,0,0,0,1654692632418,4159,4158,4153,4140,0,0,27,,,,,,,0,0,0,-0.00,-10.00,162.00,0.00,0.00,31.00,11,7.00,5.00,4.45,0.00,0.00,-5.00,0,,,100,100,0,1,0,0,0,0,6,,,,,2.3,5.4,0.0,0.0,0.0,0.0,0
34.181597,-118.130724,0.70,0.80,0.50,0.48,0.70,0.70,0.50,5.53,801,2022-06-08 12:50:32.519,2022-06-08 05:50:32.519,15,0,0,16.610,34.181601,-118.130723,0.00,0.00,-0.50,0.00,-0.80,16.20,0,1,0,98,100,-7339,3449,16610,2971.50,11,TakeOff,1,0,0,0,0,0,0,1654692632519,4159,4158,4153,4140,0,0,27,,,,,,,0,0,0,-0.00,-8.00,162.00,0.00,0.00,31.00,11,7.00,5.00,4.81,0.00,0.00,-5.00,0,,,100,100,0,1,0,0,0,0,6,,,,,2.3,5.4,0.0,0.0,0.0,0.0,0
34.181597,-118.130725,0.80,0.80,0.50,0.51,0.80,0.80,0.50,5.53,900,2022-06-08 12:50:32.619,2022-06-08 05:50:32.619,14,0,0,16.610,34.181601,-118.130723,0.00,0.00,-0.50,0.00,-0.80,16.20,0,1,0,98,100,-7339,3449,16610,2971.50,11,TakeOff,1,0,0,0,0,0,0,1654692632618,4159,4158,4153,4140,0,0,27,,,,,,,0,0,0,-0.00,-8.00,162.00,0.00,0.00,31.00,11,8.00,5.00,5.12,0.00,0.00,-5.00,0,,,100,100,0,1,0,0,0,0,6,,,,,2.3,5.2,0.0,0.0,0.0,0.0,0
34.181597,-118.130725,0.80,0.90,0.50,0.55,0.80,0.80,0.50,5.53,1001,2022-06-08 12:50:32.719,2022-06-08 05:50:32.719,14,0,0,16.610,34.181601,-118.130723,0.00,0.00,-0.50,0.10,-0.60,16.20,0,1,0,98,100,-7339,3449,16610,2971.50,11,TakeOff,1,0,0,0,0,0,0,1654692632719,4159,4158,4153,4140,0,0,27,,,,,,,0,0,0,-1.00,-6.00,162.00,0.00,0.00,31.00,11,8.00,5.00,5.51,0.00,0.00,-5.00,0,,,100,100,0,1,0,0,0,0,6,,,,,2.3,5.2,0.0,0.0,0.0,0.0,0
34.181596,-118.130725,0.90,0.90,0.40,0.61,0.90,0.90,0.50,5.53,1101,2022-06-08 12:50:32.820,2022-06-08 05:50:32.820,15,0,0,16.610,34.181601,-118.130723,0.00,0.00,-0.40,0.10,-0.60,16.20,0,1,0,98,100,-7339,3449,16610,2971.50,11,TakeOff,1,0,0,0,0,0,0,1654692632819,4159,4158,4153,4140,0,0,27,,,,,,,0,0,0,-1.00,-6.00,162.00,0.00,0.00,31.00,11,9.00,4.00,6.06,0.00,0.00,-4.00,0,,,100,100,0,1,0,0,0,0,6,,,,,2.3,5.1,0.0,0.0,0.0,0.0,0
34.181596,-118.130725,0.90,1.00,0.40,0.65,0.90,0.90,0.50,5.53,1201,2022-06-08 12:50:32.919,2022-06-08 05:50:32.919,15,0,0,16.610,34.181601,-118.130723,0.00,0.00,-0.40,0.00,-0.50,16.20,0,1,0,98,100,-7339,3449,16610,2971.50,11,TakeOff,1,0,0,0,0,0,0,1654692632919,4159,4158,4153,4140,0,0,27,,,,,,,0,0,0,-0.00,-5.00,162.00,0.00,0.00,31.00,11,9.00,4.00,6.49,0.00,0.00,-4.00,0,,,100,100,0,1,0,0,0,0,6,,,,,2.3,5.1,0.0,0.0,0.0,0.0,0
34.181596,-118.130725,1.00,1.00,0.40,0.62,1.00,1.00,0.50,5.53,1301,2022-06-08 12:50:33.019,2022-06-08 05:50:33.019,15,0,0,16.610,34.181601,-118.130723,0.00,0.00,-0.40,0.00,-0.60,16.10,0,1,0,98,100,-7339,3449,16610,2971.50,11,TakeOff,1,0,0,0,0,0,0,1654692633019,4159,4158,4153,4140,0,0,27,,,,,,,0,0,0,-0.00,-6.00,161.00,0.00,0.00,31.00,11,10.00,4.00,6.20,0.00,0.00,-4.00,0,,,100,100,0,1,0,0,0,0,6,,,,,2.3,5.1,0.0,0.0,0.0,0.0,0
34.181596,-118.130725,1.00,1.10,0.40,0.66,1.00,1.00,0.50,5.53,1401,2022-06-08 12:50:33.119,2022-06-08 05:50:33.119,15,0,0,16.610,34.181601,-118.130723,0.00,0.00,-0.40,0.10,-0.60,16.20,0,1,0,98,100,-7339,3449,16610,2971.50,11,Sport,1,0,0,0,0,0,0,1654692633119,4159,4158,4153,4140,0,0,27,,,,,,,0,0,0,-1.00,-6.00,162.00,0.00,0.00,31.00,31,10.00,4.00,6.59,0.00,0.00,-4.00,0,,,100,100,0,1,0,0,0,0,6,,,,,2.3,5.1,0.0,0.0,0.0,0.0,0
34.181596,-118.130725,1.00,1.10,0.40,0.67,1.00,1.00,0.50,5.53,1501,2022-06-08 12:50:33.219,2022-06-08 05:50:33.219,15,0,0,16.610,34.181601,-118.130723,0.00,0.00,-0.40,0.20,-0.60,16.20,0,1,0,98,100,-7339,3449,16610,2971.50,11,Sport,1,0,0,0,0,0,0,1654692633219,4159,4158,4153,4140,0,0,27,,,,,,,0,0,0,-2.00,-6.00,162.00,0.00,0.00,31.00,31,10.00,4.00,6.66,0.00,0.00,-4.00,0,,,100,100,0,1,0,0,0,0,6,,,,,2.3,5.1,0.0,0.0,0.0,0.0,0
34.181595,-118.130726,1.10,1.10,0.20,0.70,1.10,1.10,0.50,5.53,1602,2022-06-08 12:50:33.321,2022-06-08 05:50:33.321,15,0,0,16.610,34.181601,-118.130723,0.00,0.00,-0.20,0.20,-0.60,16.20,0,1,0,98,100,-7339,3449,16610,2971.50,11,Sport,1,0,0,0,0,0,0,1654692633320,4159,4158,4153,4140,0,0,27,,,,,,,0,0,0,-2.00,-6.00,162.00,0.00,0.00,31.00,31,11.00,2.00,7.04,0.00,0.00,-2.00,0,,,100,100,0,1,0,0,0,0,6,,,,,2.3,5.1,0.0,0.0,0.0,0.0,0
34.181595,-118.130726,1.10,1.20,0.10,0.71,1.10,1.10,0.50,5.53,1702,2022-06-08 12:50:33.420,2022-06-08 05:50:33.420,14,0,0,16.610,34.181601,-118.130723,0.00,0.00,-0.10,0.20,-0.60,16.20,0,1,0,98,100,-7339,3449,16610,2971.50,11,Sport,1,0,0,0,0,0,0,1654692633420,4159,4158,4153,4140,0,0,27,,,,,,,0,0,0,-2.00,-6.00,162.00,0.00,0.00,31.00,31,11.00,1.00,7.08,0.00,0.00,-1.00,0,,,100,100,0,1,0,0,0,0,6,,,,,2.3,5.1,0.0,0.0,0.0,0.0,0
34.181595,-118.130726,1.10,1.20,0.00,0.74,1.10,1.10,0.50,5.53,1801,2022-06-08 12:50:33.520,2022-06-08 05:50:33.520,14,0,0,16.610,34.181601,-118.130723,0.00,0.00,0.00,0.10,-0.60,16.20,0,1,0,98,100,-7339,3449,16610,2971.50,11,Sport,1,0,0,0,0,0,0,1654692633519,4159,4158,4153,4140,0,0,27,,,,,,,0,0,0,-1.00,-6.00,162.00,0.00,0.00,31.00,31,11.00,0.00,7.42,0.00,0.00,0.00,0,,,100,100,0,1,0,0,0,0,6,,,,,2.3,5.1,0.0,0.0,0.0,0.0,0
34.181595,-118.130726,1.10,1.20,0.00,0.77,1.10,1.10,0.50,5.53,1902,2022-06-08 12:50:33.620,2022-06-08 05:50:33.620,14,0,0,16.610,34.181601,-118.130723,0.00,0.00,0.00,0.10,-0.60,16.20,0,1,0,98,100,-7339,3449,16610,2971.50,11,Sport,1,0,0,0,0,0,0,1654692633620,4159,4158,4153,4140,0,0,27,,,,,,,0,0,0,-1.00,-6.00,162.00,0.00,0.00,31.00,31,11.00,0.00,7.67,0.00,0.00,0.00,0,,,100,100,0,1,0,0,0,0,6,,,,,2.3,5.1,0.0,0.0,0.0,0.0,0
34.181595,-118.130726,1.10,1.20,0.00,0.80,1.10,1.10,0.50,5.53,2002,2022-06-08 12:50:33.721,2022-06-08 05:50:33.721,14,0,0,16.610,34.181601,-118.130723,0.00,0.00,0.00,0.20,-0.60,16.10,0,1,0,98,100,-7339,3449,16610,2971.50,11,Sport,1,0,0,0,0,0,0,1654692633720,4159,4158,4153,4140,0,0,27,,,,,,,0,0,0,-2.00,-6.00,161.00,0.00,0.00,31.00,31,11.00,0.00,8.01,0.00,0.00,0.00,0,,,100,100,0,1,0,0,0,0,6,,,,,2.3,5.1,0.0,0.0,0.0,0.0,0
34.181594,-118.130726,1.10,1.10,0.00,0.86,1.10,1.10,0.50,5.53,2101,2022-06-08 12:50:33.820,2022-06-08 05:50:33.820,14,0,0,16.610,34.181601,-118.130723,0.00,0.00,0.00,0.20,-0.60,16.20,0,1,0,98,100,-7339,3449,16610,2971.50,11,Sport,1,0,0,0,0,0,0,1654692633819,4159,4158,4153,4140,0,0,27,,,,,,,0,0,0,-2.00,-6.00,162.00,0.00,0.00,31.00,31,11.00,0.00,8.59,0.00,0.00,0.00,0,,,100,100,0,1,0,0,0,0,6,,,,,2.3,5.1,0.0,0.0,0.0,0.0,0
34.181594,-118.130726,1.10,1.10,0.00,0.90,1.10,1.10,0.50,5.53,2202,2022-06-08 12:50:33.921,2022-06-08 05:50:33.921,14,0,0,16.610,34.181601,-118.130723,0.00,0.00,0.00,0.20,-0.70,16.20,0,1,0,98,100,-7339,3449,16610,2971.50,11,Sport,1,0,0,0,0,0,0,1654692633920,4159,4158,4153,4140,0,0,27,,,,,,,0,0,0,-2.00,-7.00,162.00,0.00,0.00,31.00,31,11.00,0.00,8.95,0.00,0.00,0.00,0,,,100,100,0,1,0,0,0,0,6,,,,,2.3,5.1,0.0,0.0,0.0,0.0,0
34.181593,-118.130726,1.00,1.10,0.00,0.93,1.10,1.10,0.50,5.53,2302,2022-06-08 12:50:34.021,2022-06-08 05:50:34.021,14,0,0,16.610,34.181601,-118.130723,0.00,0.00,0.00,0.30,-0.70,16.10,0,1,0,98,100,-7339,3449,16610,2971.50,11,Sport,1,0,0,0,0,0,0,1654692634020,4159,4158,4153,4140,0,0,27,,,,,,,0,0,0,-3.00,-7.00,161.00,0.00,0.00,31.00,31,10.00,0.00,9.32,0.00,0.00,0.00,0,,,100,100,0,1,0,0,0,0,6,,,,,2.3,5.1,0.0,0.0,0.0,0.0,0
34.181593,-118.130727,1.00,1.10,0.00,0.97,1.10,1.10,0.50,5.53,2404,2022-06-08 12:50:34.122,2022-06-08 05:50:34.122,14,0,0,16.608,34.181601,-118.130723,0.00,0.00,0.00,0.30,-0.60,16.20,0,1,0,98,100,-7267,3447,16608,2971.50,11,Sport,1,0,0,0,0,0,0,1654692634122,4159,4158,4153,4140,0,0,27,,,,,,,0,0,0,-3.00,-6.00,162.00,0.00,0.00,31.00,31,10.00,0.00,9.72,0.00,0.00,0.00,0,,,100,100,0,1,0,0,0,0,6,,,,,2.3,5.1,0.0,0.0,0.0,0.0,0
34.181593,-118.130727,1.00,1.10,0.00,0.97,1.10,1.10,0.50,5.53,2502,2022-06-08 12:50:34.220,2022-06-08 05:50:34.220,14,0,0,16.608,34.181601,-118.130723,0.00,0.00,0.00,0.20,-0.50,16.10,0,1,0,98,100,-7267,3447,16608,2971.50,11,Sport,1,0,0,0,0,0,0,1654692634220,4159,4158,4153,4140,0,0,27,,,,,,,0,0,0,-2.00,-5.00,161.00,0.00,0.00,31.00,31,10.00,0.00,9.74,0.00,0.00,0.00,0,,,100,100,0,1,0,0,0,0,6,,,,,2.3,5.1,0.0,0.0,0.0,0.0,0
34.181593,-118.130727,1.00,1.10,0.00,1.01,1.10,1.10,0.50,5.53,2603,2022-06-08 12:50:34.322,2022-06-08 05:50:34.322,14,0,0,16.608,34.181601,-118.130723,0.00,0.00,0.00,0.20,-0.50,16.10,0,1,0,98,100,-7267,3447,16608,2971.50,11,Sport,1,0,0,0,0,0,0,1654692634321,4159,4158,4153,4140,0,0,27,,,,,,,0,0,0,-2.00,-5.00,161.00,0.00,0.00,31.00,31,10.00,0.00,10.09,0.00,0.00,0.00,0,,,100,100,0,1,0,0,0,0,6,,,,,2.3,5.1,0.0,0.0,0.0,0.0,0
34.181593,-118.130727,1.00,1.10,0.00,1.01,1.10,1.10,0.50,5.53,2707,2022-06-08 12:50:34.426,2022-06-08 05:50:34.426,14,0,0,16.608,34.181601,-118.130723,0.00,0.00,0.00,0.20,-0.70,16.10,0,1,0,98,100,-7267,3447,16608,2971.50,11,Sport,1,0,0,0,0,0,0,1654692634425,4159,4158,4153,4140,0,0,27,,,,,,,0,0,0,-2.00,-7.00,161.00,0.00,0.00,31.00,31,10.00,0.00,10.09,0.00,0.00,0.00,0,,,100,100,0,1,0,0,0,0,6,,,,,2.3,5.1,0.0,0.0,0.0,0.0,0
34.181592,-118.130727,1.00,1.10,0.00,1.04,1.10,1.10,0.50,5.53,2803,2022-06-08 12:50:34.521,2022-06-08 05:50:34.521,14,0,0,16.608,34.181601,-118.130723,0.00,0.00,0.00,0.20,-0.80,16.10,0,1,0,98,100,-7267,3447,16608,2971.50,11,Sport,1,0,0,0,0,0,0,1654692634521,4159,4158,4153,4140,0,0,27,,,,,,,0,0,0,-2.00,-8.00,161.00,0.00,0.00,31.00,31,10.00,0.00,10.41,0.00,0.00,0.00,0,,,100,100,0,1,0,0,0,0,6,,,,,2.3,5.1,0.0,0.0,0.0,0.0,0
34.181592,-118.130727,1.00,1.10,0.00,1.06,1.10,1.10,0.50,5.53,2902,2022-06-08 12:50:34.621,2022-06-08 05:50:34.621,14,0,0,16.608,34.181601,-118.130723,0.00,0.00,0.00,0.20,-0.70,16.10,0,1,0,98,100,-7267,3447,16608,2971.50,11,Sport,1,0,0,0,0,0,0,1654692634620,4159,4158,4153,4140,0,0,27,,,,,,,0,0,0,-2.00,-7.00,161.00,0.00,0.00,31.00,31,10.00,0.00,10.64,0.00,0.00,0.00,0,,,100,100,0,1,0,0,0,0,6,,,,,2.3,5.1,0.0,0.0,0.0,0.0,0
34.181592,-118.130727,1.00,1.10,0.00,1.10,1.10,1.10,0.50,5.53,3002,2022-06-08 12:50:34.721,2022-06-08 05:50:34.721,14,0,0,16.608,34.181601,-118.130723,0.00,0.00,0.00,0.20,-0.70,16.10,0,1,0,98,100,-7267,3447,16608,2971.50,11,Sport,1,0,0,0,0,0,0,1654692634720,4159,4158,4153,4140,0,0,27,,,,,,,0,0,0,-2.00,-7.00,161.00,0.00,0.00,31.00,31,10.00,0.00,10.97,0.00,0.00,0.00,0,,,100,100,0,1,0,0,0,0,6,,,,,2.3,5.1,0.0,0.0,0.0,0.0,0
34.181592,-118.130727,1.00,1.10,0.00,1.10,1.10,1.10,0.50,5.53,3103,2022-06-08 12:50:34.821,2022-06-08 05:50:34.821,14,0,0,16.608,34.181601,-118.130723,0.00,0.00,0.00,0.30,-0.70,16.20,0,1,0,98,100,-7267,3447,16608,2971.50,11,Sport,1,0,0,0,0,0,0,1654692634821,4159,4158,4153,4140,0,0,27,,,,,,,0,0,0,-3.00,-7.00,162.00,0.00,0.00,31.00,31,10.00,0.00,11.03,0.00,0.00,0.00,0,,,100,100,0,1,0,0,0,0,6,,,,,2.3,5.1,0.0,0.0,0.0,0.0,0
34.181592,-118.130727,1.00,1.10,0.00,1.13,1.10,1.10,0.50,5.53,3203,2022-06-08 12:50:34.921,2022-06-08 05:50:34.921,14,0,0,16.608,34.181601,-118.130723,0.00,0.00,0.00,0.20,-0.60,16.20,0,1,0,98,100,-7267,3447,16608,2971.50,11,Sport,1,0,0,0,0,0,0,1654692634921,4159,4158,4153,4140,0,0,27,,,,,,,0,0,0,-2.00,-6.00,162.00,0.00,0.00,31.00,31,10.00,0.00,11.30,0.00,0.00,0.00,0,,,100,100,0,1,0,0,0,0,6,,,,,2.3,5.1,0.0,0.0,0.0,0.0,0
34.181591,-118.130727,1.00,1.10,0.00,1.16,1.10,1.10,0.50,5.53,3302,2022-06-08 12:50:35.021,2022-06-08 05:50:35.021,14,0,0,16.608,34.181601,-118.130723,0.00,0.00,0.00,0.20,-0.50,16.10,0,1,0,98,100,-7267,3447,16608,2971.50,11,Sport,1,0,0,0,0,0,0,1654692635020,4159,4158,4153,4140,0,0,27,,,,,,,0,0,0,-2.00,-5.00,161.00,0.00,0.00,31.00,31,10.00,0.00,11.59,0.00,0.00,0.00,0,,,100,100,0,1,0,0,0,0,6,,,,,2.3,5.1,0.0,0.0,0.0,0.0,0
34.181591,-118.130727,1.00,1.10,0.00,1.19,1.10,1.10,0.50,5.53,3407,2022-06-08 12:50:35.125,2022-06-08 05:50:35.125,14,0,0,16.608,34.181601,-118.130723,0.00,0.00,0.00,0.20,-0.40,16.20,0,1,0,98,100,-7267,3447,16608,2971.50,11,Sport,1,0,0,0,0,0,0,1654692635125,4159,4158,4153,4140,0,0,27,,,,,,,0,0,0,-2.00,-4.00,162.00,0.00,0.00,31.00,31,10.00,0.00,11.90,0.00,0.00,0.00,0,,,100,100,0,1,0,0,0,0,6,,,,,2.3,5.1,0.0,0.0,0.0,0.0,0
34.181591,-118.130727,1.00,1.10,0.00,1.20,1.10,1.10,0.50,5.53,3502,2022-06-08 12:50:35.220,2022-06-08 05:50:35.220,14,0,0,16.608,34.181601,-118.130723,0.00,0.00,0.00,0.20,-0.40,16.20,0,1,0,98,100,-7267,3447,16608,2971.50,11,Sport,1,0,0,0,0,0,0,1654692635220,4159,4158,4153,4140,0,0,27,,,,,,,0,0,0,-2.00,-4.00,162.00,0.00,0.00,31.00,31,10.00,0.00,12.02,0.00,0.00,0.00,0,,,100,100,0,1,0,0,0,0,6,,,,,2.3,5.1,0.0,0.0,0.0,0.0,0
34.181591,-118.130727,1.00,1.10,0.00,1.23,1.10,1.10,0.50,5.53,3603,2022-06-08 12:50:35.321,2022-06-08 05:50:35.321,14,0,0,16.608,34.181601,-118.130723,0.00,0.00,0.00,0.20,-0.40,16.20,0,1,0,98,100,-7267,3447,16608,2971.50,11,Sport,1,0,0,0,0,0,0,1654692635321,4159,4158,4153,4140,0,0,27,,,,,,,0,0,0,-2.00,-4.00,162.00,0.00,0.00,31.00,31,10.00,0.00,12.29,0.00,0.00,0.00,0,,,100,100,0,1,0,0,0,0,6,,,,,2.3,5.1,0.0,0.0,0.0,0.0,0
34.181591,-118.130727,1.00,1.10,0.00,1.25,1.10,1.10,0.50,5.53,3703,2022-06-08 12:50:35.421,2022-06-08 05:50:35.421,14,0,0,16.608,34.181601,-118.130723,0.00,0.00,0.00,0.20,-0.50,16.20,0,1,0,98,100,-7267,3447,16608,2971.50,11,Sport,1,0,0,0,0,0,0,1654692635421,4159,4158,4153,4140,0,0,27,,,,,,,0,0,0,-2.00,-5.00,162.00,0.00,0.00,31.00,31,10.00,0.00,12.47,0.00,0.00,0.00,0,,,100,100,0,1,0,0,0,0,6,,,,,2.3,5.1,0.0,0.0,0.0,0.0,0
34.181590,-118.130727,1.00,1.10,0.00,1.27,1.10,1.10,0.50,5.53,3803,2022-06-08 12:50:35.521,2022-06-08 05:50:35.521,14,0,0,16.608,34.181601,-118.130723,0.00,0.00,0.00,0.20,-0.50,16.10,0,1,0,98,100,-7267,3447,16608,2971.50,11,Sport,1,0,0,0,0,0,0,1654692635521,4159,4158,4153,4140,0,0,27,,,,,,,0,0,0,-2.00,-5.00,161.00,0.00,0.00,31.00,31,10.00,0.00,12.73,0.00,0.00,0.00,0,,,100,100,0,1,0,0,0,0,6,,,,,2.3,5.1,0.0,0.0,0.0,0.0,0
34.181590,-118.130727,1.00,1.10,0.00,1.29,1.10,1.10,0.50,5.53,3905,2022-06-08 12:50:35.623,2022-06-08 05:50:35.623,14,0,0,16.608,34.181601,-118.130723,0.00,0.00,0.00,0.20,-0.50,16.10,0,1,0,98,100,-7267,3447,16608,2971.50,11,Sport,1,0,0,0,0,0,0,1654692635623,4159,4158,4153,4140,0,0,27,,,,,,,0,0,0,-2.00,-5.00,161.00,0.00,0.00,31.00,31,10.00,0.00,12.87,0.00,0.00,0.00,0,,,100,100,0,1,0,0,0,0,6,,,,,2.3,5.1,0.0,0.0,0.0,0.0,0
34.181590,-118.130727,1.00,1.10,0.00,1.31,1.10,1.10,0.50,5.53,4004,2022-06-08 12:50:35.722,2022-06-08 05:50:35.722,14,0,0,16.608,34.181601,-118.130723,0.00,0.00,0.00,0.20,-0.50,16.10,0,1,0,98,100,-7267,3447,16608,2971.50,11,Sport,1,0,0,0,0,0,0,1654692635722,4159,4158,4153,4140,0,0,27,,,,,,,0,0,0,-2.00,-5.00,161.00,0.00,0.00,31.00,31,10.00,0.00,13.11,0.00,0.00,0.00,0,,,100,100,0,1,0,0,0,0,6,,,,,2.3,5.1,0.0,0.0,0.0,0.0,0
34.181590,-118.130728,1.00,1.10,0.00,1.33,1.10,1.10,0.50,5.53,4103,2022-06-08 12:50:35.821,2022-06-08 05:50:35.821,14,0,0,16.608,34.181601,-118.130723,0.00,0.00,0.00,0.30,-0.50,16.10,0,1,0,98,100,-7267,3447,16608,2971.50,11,Sport,1,0,0,0,0,0,0,1654692635821,4159,4158,4153,4140,0,0,27,,,,,,,0,0,0,-3.00,-5.00,161.00,0.00,0.00,31.00,31,10.00,0.00,13.33,0.00,0.00,0.00,0,,,100,100,0,1,0,0,0,0,6,,,,,2.3,5.1,0.0,0.0,0.0,0.0,0
34.181590,-118.130728,1.00,1.10,0.00,1.36,1.10,1.10,0.50,5.53,4202,2022-06-08 12:50:35.921,2022-06-08 05:50:35.921,14,0,0,16.608,34.181601,-118.130723,0.00,0.00,0.00,0.20,-0.40,16.10,0,1,0,98,100,-7267,3447,16608,2971.50,11,Sport,1,0,0,0,0,0,0,1654692635920,4159,4158,4153,4140,0,0,27,,,,,,,0,0,0,-2.00,-4.00,161.00,0.00,0.00,31.00,31,10.00,0.00,13.55,0.00,0.00,0.00,0,,,100,100,0,1,0,0,0,0,6,,,,,2.3,5.1,0.0,0.0,0.0,0.0,0
34.181590,-118.130728,1.00,1.10,0.00,1.37,1.10,1.10,0.50,5.53,4303,2022-06-08 12:50:36.021,2022-06-08 05:50:36.021,14,0,0,16.608,34.181601,-118.130723,0.00,0.00,0.00,0.20,-0.40,16.10,0,1,0,98,100,-7267,3447,16608,2971.50,11,Sport,1,0,0,0,0,0,0,1654692636021,4159,4158,4153,4140,0,0,27,,,,,,,0,0,0,-2.00,-4.00,161.00,0.00,0.00,31.00,31,10.00,0.00,13.75,0.00,0.00,0.00,0,,,100,100,0,1,0,0,0,0,6,,,,,2.3,5.1,0.0,0.0,0.0,0.0,0
34.181589,-118.130728,1.00,1.10,0.00,1.40,1.10,1.10,0.50,5.53,4406,2022-06-08 12:50:36.125,2022-06-08 05:50:36.125,14,0,0,16.588,34.181601,-118.130723,0.00,0.00,0.00,0.20,-0.40,16.10,0,1,0,98,100,-7093,3443,16588,2971.50,11,Sport,1,0,0,0,0,0,0,1654692636124,4159,4158,4153,4140,0,0,27,,,,,,,0,0,0,-2.00,-4.00,161.00,0.00,0.00,31.00,31,10.00,0.00,13.97,0.00,0.00,0.00,0,,,100,100,0,1,0,0,0,0,6,,,,,2.3,5.1,0.0,0.0,0.0,0.0,0
34.181589,-118.130728,1.00,1.10,0.00,1.39,1.10,1.10,0.50,5.53,4505,2022-06-08 12:50:36.223,2022-06-08 05:50:36.223,14,0,0,16.588,34.181601,-118.130723,0.00,0.00,0.00,0.30,-0.40,16.10,0,1,0,98,100,-7093,3443,16588,2971.50,11,Sport,1,0,0,0,0,0,0,1654692636223,4159,4158,4153,4140,0,0,27,,,,,,,0,0,0,-3.00,-4.00,161.00,0.00,0.00,31.00,31,10.00,0.00,13.87,0.00,0.00,0.00,0,,,100,100,0,1,0,0,0,0,6,,,,,2.3,5.1,0.0,0.0,0.0,0.0,0
34.181589,-118.130728,1.00,1.10,0.00,1.41,1.10,1.10,0.50,5.53,4605,2022-06-08 12:50:36.324,2022-06-08 05:50:36.324,14,0,0,16.588,34.181601,-118.130723,0.00,0.00,0.00,0.30,-0.50,16.10,0,1,0,98,100,-7093,3443,16588,2971.50,11,Sport,1,0,0,0,0,0,0,1654692636323,4159,4158,4153,4140,0,0,27,,,,,,,0,0,0,-3.00,-5.00,161.00,0.00,0.00,31.00,31,10.00,0.00,14.06,0.00,0.00,0.00,0,,,100,100,0,1,0,0,0,0,6,,,,,2.3,5.1,0.0,0.0,0.0,0.0,0
34.181589,-118.130728,1.00,1.10,0.00,1.42,1.10,1.10,0.50,5.53,4703,2022-06-08 12:50:36.422,2022-06-08 05:50:36.422,14,0,0,16.588,34.181601,-118.130723,0.00,0.00,0.00,0.30,-0.50,16.10,0,1,0,98,100,-7093,3443,16588,2971.50,11,Sport,1,0,0,0,0,0,0,1654692636421,4159,4158,4153,4140,0,0,27,,,,,,,0,0,0,-3.00,-5.00,161.00,0.00,0.00,31.00,31,10.00,0.00,14.21,0.00,0.00,0.00,0,,,100,100,0,1,0,0,0,0,6,,,,,2.3,5.1,0.0,0.0,0.0,0.0,0
34.181589,-118.130728,1.00,1.10,0.00,1.44,1.10,1.10,0.50,5.53,4805,2022-06-08 12:50:36.524,2022-06-08 05:50:36.524,14,0,0,16.588,34.181601,-118.130723,0.00,0.00,0.00,0.30,-0.40,16.10,0,1,0,98,100,-7093,3443,16588,2971.50,11,Sport,1,0,0,0,0,0,0,1654692636523,4159,4158,4153,4140,0,0,27,,,,,,,0,0,0,-3.00,-4.00,161.00,0.00,0.00,31.00,31,10.00,0.00,14.39,0.00,0.00,0.00,0,,,100,100,0,1,0,0,0,0,6,,,,,2.3,5.1,0.0,0.0,0.0,0.0,0
34.181589,-118.130728,1.00,1.10,0.00,1.45,1.10,1.10,0.50,5.53,4905,2022-06-08 12:50:36.623,2022-06-08 05:50:36.623,14,0,0,16.588,34.181601,-118.130723,0.00,0.00,0.00,0.30,-0.40,16.10,0,1,0,98,100,-7093,3443,16588,2971.50,11,Sport,1,0,0,0,0,0,0,1654692636623,4159,4158,4153,4140,0,0,27,,,,,,,0,0,0,-3.00,-4.00,161.00,0.00,0.00,31.00,31,10.00,0.00,14.53,0.00,0.00,0.00,0,,,100,100,0,1,0,0,0,0,6,,,,,2.3,5.1,0.0,0.0,0.0,0.0,0
34.181589,-118.130728,1.00,1.10,0.00,1.47,1.10,1.10,0.50,5.53,5006,2022-06-08 12:50:36.725,2022-06-08 05:50:36.725,14,0,0,16.588,34.181601,-118.130723,0.00,0.00,0.00,0.30,-0.40,16.10,0,1,0,98,100,-7093,3443,16588,2971.50,11,Sport,1,0,0,0,0,0,0,1654692636724,4159,4158,4153,4140,0,0,27,,,,,,,0,0,0,-3.00,-4.00,161.00,0.00,0.00,31.00,31,10.00,0.00,14.69,0.00,0.00,0.00,0,,,100,100,0,1,0,0,0,0,6,,,,,2.3,5.1,0.0,0.0,0.0,0.0,0
34.181589,-118.130728,1.00,1.10,0.00,1.49,1.10,1.10,0.50,5.53,5105,2022-06-08 12:50:36.824,2022-06-08 05:50:36.824,14,0,0,16.588,34.181601,-118.130723,0.00,0.00,0.00,0.20,-0.30,16.10,0,1,0,98,100,-7093,3443,16588,2971.50,11,Sport,1,0,0,0,0,0,0,1654692636823,4159,4158,4153,4140,0,0,27,,,,,,,0,0,0,-2.00,-3.00,161.00,0.00,0.00,31.00,31,10.00,0.00,14.89,0.00,0.00,0.00,0,,,100,100,0,1,0,0,0,0,6,,,,,2.3,5.1,0.0,0.0,0.0,0.0,0
34.181588,-118.130728,1.00,1.10,0.00,1.51,1.10,1.10,0.50,5.53,5206,2022-06-08 12:50:36.924,2022-06-08 05:50:36.924,14,0,0,16.588,34.181601,-118.130723,0.00,0.00,0.00,0.20,-0.30,16.10,0,1,0,98,100,-7093,3443,16588,2971.50,11,Sport,1,0,0,0,16,0,0,1654692636924,4159,4158,4153,4140,0,0,27,,,,,,,0,0,0,-2.00,-3.00,161.00,0.00,0.00,31.00,31,10.00,0.00,15.06,0.00,0.00,0.00,0,,,100,100,0,1,0,0,0,0,6,,,,,2.3,5.1,0.0,0.0,0.0,0.0,0
34.181588,-118.130729,1.00,1.10,0.00,1.51,1.10,1.10,0.50,5.53,5305,2022-06-08 12:50:37.023,2022-06-08 05:50:37.023,14,0,0,16.588,34.181601,-118.130723,0.00,0.00,0.00,0.20,-0.30,16.10,0,1,0,98,100,-7093,3443,16588,2971.50,11,Sport,1,0,0,0,30,0,0,1654692637023,4159,4158,4153,4140,0,0,27,,,,,,,0,0,0,-2.00,-3.00,161.00,0.00,0.00,31.00,31,10.00,0.00,15.11,0.00,0.00,0.00,0,,,100,100,0,1,0,0,0,0,6,,,,,2.3,5.1,0.0,0.0,0.0,0.0,0
34.181588,-118.130729,1.00,1.10,0.00,1.53,1.10,1.10,0.50,5.53,5423,2022-06-08 12:50:37.142,2022-06-08 05:50:37.142,14,0,0,16.588,34.181601,-118.130723,0.00,0.00,0.00,0.20,-0.40,16.10,0,1,0,98,100,-7093,3443,16588,2971.50,11,Sport,1,0,0,0,44,0,0,1654692637141,4159,4158,4153,4140,0,0,27,,,,,,,0,0,0,-2.00,-4.00,161.00,0.00,0.00,31.00,31,10.00,0.00,15.26,0.00,0.00,0.00,0,,,100,100,0,1,0,0,0,0,6,,,,,2.3,5.1,0.0,0.0,0.0,0.0,0
34.181588,-118.130729,1.00,1.10,0.00,1.53,1.10,1.10,0.50,5.53,5522,2022-06-08 12:50:37.240,2022-06-08 05:50:37.240,15,0,0,16.588,34.181601,-118.130723,0.00,0.00,0.00,0.20,-0.20,16.10,0,1,0,98,100,-7093,3443,16588,2971.50,11,Sport,1,0,0,0,52,0,0,1654692637240,4159,4158,4153,4140,0,0,27,,,,,,,0,0,0,-2.00,-2.00,161.00,0.00,0.00,31.00,31,10.00,0.00,15.34,0.00,0.00,0.00,0,,,100,100,0,1,0,0,0,0,6,,,,,2.3,5.1,0.0,0.0,0.0,0.0,0
34.181588,-118.130729,1.00,1.10,0.00,1.55,1.10,1.10,0.50,5.53,5622,2022-06-08 12:50:37.341,2022-06-08 05:50:37.341,15,0,0,16.588,34.181601,-118.130723,0.00,0.00,0.00,0.20,-0.20,16.10,0,1,0,98,100,-7093,3443,16588,2971.50,11,Sport,1,0,0,0,66,0,0,1654692637340,4159,4158,4153,4140,0,0,27,,,,,,,0,0,0,-2.00,-2.00,161.00,0.00,0.00,31.00,31,10.00,0.00,15.47,0.00,0.00,0.00,0,,,100,100,0,1,0,0,0,0,6,,,,,2.3,5.1,0.0,0.0,0.0,0.0,0
34.181588,-118.130729,1.00,1.10,0.00,1.56,1.10,1.10,0.50,5.53,5706,2022-06-08 12:50:37.424,2022-06-08 05:50:37.424,15,0,0,16.588,34.181601,-118.130723,0.00,0.00,0.00,0.30,-0.20,16.10,0,1,0,98,100,-7093,3443,16588,2971.50,11,Sport,1,0,0,0,81,0,0,1654692637424,4159,4158,4153,4140,0,0,27,,,,,,,0,0,0,-3.00,-2.00,161.00,0.00,0.00,31.00,31,10.00,0.00,15.58,0.00,0.00,0.00,0,,,100,100,0,1,0,0,0,0,6,,,,,2.3,5.1,0.0,0.0,0.0,0.0,0
34.181588,-118.130729,1.00,1.10,0.00,1.57,1.10,1.10,0.50,5.53,5822,2022-06-08 12:50:37.541,2022-06-08 05:50:37.541,15,0,0,16.588,34.181601,-118.130723,0.00,0.00,0.00,0.30,-0.30,16.10,0,1,0,98,100,-7093,3443,16588,2971.50,11,Sport,1,0,0,0,93,0,0,1654692637540,4159,4158,4153,4140,0,0,27,,,,,,,0,0,0,-3.00,-3.00,161.00,0.00,0.00,31.00,31,10.00,0.00,15.70,0.00,0.00,0.00,0,,,100,100,0,1,0,0,0,0,6,,,,,2.3,5.1,0.0,0.0,0.0,0.0,0
34.181588,-118.130729,1.00,1.10,0.00,1.60,1.10,1.10,0.50,5.53,5905,2022-06-08 12:50:37.623,2022-06-08 05:50:37.623,15,0,0,16.588,34.181601,-118.130723,0.00,0.00,0.00,0.20,-0.40,16.10,0,1,0,98,100,-7093,3443,16588,2971.50,11,Sport,1,0,0,0,117,0,0,1654692637623,4159,4158,4153,4140,0,0,27,,,,,,,0,0,0,-2.00,-4.00,161.00,0.00,0.00,31.00,31,10.00,0.00,15.98,0.00,0.00,0.00,0,,,100,100,0,1,0,0,0,0,6,,,,,2.3,5.1,0.0,0.0,0.0,0.0,0
34.181588,-118.130729,1.00,1.10,0.00,1.61,1.10,1.10,0.50,5.53,6023,2022-06-08 12:50:37.742,2022-06-08 05:50:37.742,15,0,0,16.588,34.181601,-118.130723,0.00,0.00,0.00,0.20,-0.50,16.10,0,1,0,98,100,-7093,3443,16588,2971.50,11,Sport,1,0,0,0,134,0,0,1654692637741,4159,4158,4153,4140,0,0,27,,,,,,,0,0,0,-2.00,-5.00,161.00,0.00,0.00,31.00,31,10.00,0.00,16.11,0.00,0.00,0.00,0,,,100,100,0,1,0,0,0,0,6,,,,,2.3,5.1,0.0,0.0,0.0,0.0,0
34.181588,-118.130729,1.00,1.10,0.00,1.64,1.10,1.10,0.50,5.53,6122,2022-06-08 12:50:37.841,2022-06-08 05:50:37.841,15,0,0,16.588,34.181601,-118.130723,0.00,0.00,0.00,0.20,-0.60,16.10,0,1,0,98,100,-7093,3443,16588,2971.50,11,Sport,1,0,0,0,146,0,0,1654692637840,4159,4158,4153,4140,0,0,27,,,,,,,0,0,0,-2.00,-6.00,161.00,0.00,0.00,31.00,31,10.00,0.00,16.38,0.00,0.00,0.00,0,,,100,100,0,1,0,0,0,0,6,,,,,2.3,5.1,0.0,0.0,0.0,0.0,0
34.181587,-118.130729,1.00,1.10,0.10,1.65,1.10,1.10,0.50,5.53,6206,2022-06-08 12:50:37.924,2022-06-08 05:50:37.924,15,0,0,16.588,34.181601,-118.130723,0.00,0.00,-0.10,0.30,-0.60,16.20,0,1,0,98,100,-7093,3443,16588,2971.50,11,Sport,1,0,0,0,156,0,0,1654692637924,4159,4158,4153,4140,0,0,27,,,,,,,0,0,0,-3.00,-6.00,162.00,0.00,0.00,31.00,31,10.00,1.00,16.52,0.00,0.00,-1.00,0,,,100,100,0,1,0,0,0,0,6,,,,,2.3,5.1,0.0,0.0,0.0,0.0,0
34.181587,-118.130730,1.00,1.10,0.10,1.68,1.10,1.10,0.50,5.53,6306,2022-06-08 12:50:38.024,2022-06-08 05:50:38.024,15,0,0,16.588,34.181601,-118.130723,0.00,0.00,-0.10,0.30,-0.50,16.20,0,1,0,98,100,-7093,3443,16588,2971.50,11,Sport,1,0,0,0,167,0,0,1654692638024,4159,4158,4153,4140,0,0,27,,,,,,,0,0,0,-3.00,-5.00,162.00,0.00,0.00,31.00,31,10.00,1.00,16.78,0.00,0.00,-1.00,0,,,100,100,0,1,0,0,0,0,6,,,,,2.3,5.1,0.0,0.0,0.0,0.0,0
34.181587,-118.130730,1.00,1.10,0.10,1.69,1.10,1.10,0.50,5.53,6423,2022-06-08 12:50:38.141,2022-06-08 05:50:38.141,15,0,0,16.546,34.181601,-118.130723,0.00,0.00,-0.10,0.30,-0.50,16.20,0,1,0,98,100,-7152,3439,16546,2971.50,11,Sport,1,0,0,0,200,0,0,1654692638141,4159,4158,4153,4140,0,0,27,,,,,,,0,0,0,-3.00,-5.00,162.00,0.00,0.00,31.00,31,10.00,1.00,16.93,0.00,0.00,-1.00,0,,,100,100,0,1,0,0,0,0,6,,,,,2.3,5.1,0.0,0.0,0.0,0.0,0
34.181587,-118.130730,1.00,1.10,0.20,1.70,1.10,1.10,0.50,5.53,6505,2022-06-08 12:50:38.224,2022-06-08 05:50:38.224,15,0,0,16.546,34.181601,-118.130723,0.00,0.00,-0.20,0.30,-0.50,16.20,0,1,0,98,100,-7152,3439,16546,2971.50,11,Sport,1,0,0,0,227,0,0,1654692638223,4159,4158,4153,4140,0,0,27,,,,,,,0,0,0,-3.00,-5.00,162.00,0.00,0.00,31.00,31,10.00,2.00,17.04,0.00,0.00,-2.00,0,,,100,100,0,1,0,0,0,0,6,,,,,2.3,5.1,0.0,0.0,0.0,0.0,0
34.181587,-118.130730,1.10,1.20,0.30,1.72,1.10,1.10,0.50,5.53,6605,2022-06-08 12:50:38.323,2022-06-08 05:50:38.324,15,0,0,16.546,34.181601,-118.130723,0.00,0.00,-0.30,0.30,-0.50,16.20,0,1,0,98,100,-7152,3439,16546,2971.50,11,Sport,1,0,0,0,239,0,0,1654692638323,4159,4158,4153,4140,0,0,27,,,,,,,0,0,0,-3.00,-5.00,162.00,0.00,0.00,31.00,31,11.00,3.00,17.18,0.00,0.00,-3.00,0,,,100,100,0,1,0,0,0,0,6,,,,,2.3,5.1,0.0,0.0,0.0,0.0,0
34.181587,-118.130730,1.10,1.20,0.40,1.73,1.10,1.10,0.50,5.53,6722,2022-06-08 12:50:38.440,2022-06-08 05:50:38.440,16,0,0,16.546,34.181601,-118.130723,0.00,0.00,-0.40,0.30,-0.40,16.20,0,1,0,98,100,-7152,3439,16546,2971.50,11,Sport,1,0,0,0,240,0,0,1654692638440,4159,4158,4153,4140,0,0,27,,,,,,,0,0,0,-3.00,-4.00,162.00,0.00,0.00,31.00,31,11.00,4.00,17.26,0.00,0.00,-4.00,0,,,100,100,0,1,0,0,0,0,6,,,,,2.3,5.1,0.0,0.0,0.0,0.0,0
34.181587,-118.130730,1.20,1.30,0.40,1.74,1.20,1.20,0.50,5.53,6822,2022-06-08 12:50:38.540,2022-06-08 05:50:38.540,16,0,0,16.546,34.181601,-118.130723,0.00,0.00,-0.40,0.30,-0.40,16.20,0,1,0,98,100,-7152,3439,16546,2971.50,11,Sport,1,0,0,0,240,0,0,1654692638540,4159,4158,4153,4140,0,0,27,,,,,,,0,0,0,-3.00,-4.00,162.00,0.00,0.00,31.00,31,12.00,4.00,17.38,0.00,0.00,-4.00,0,,,100,100,0,1,0,0,0,0,6,,,,,2.3,5.1,0.0,0.0,0.0,0.0,0
34.181587,-118.130730,1.20,1.30,0.40,1.75,1.20,1.20,0.50,5.53,6921,2022-06-08 12:50:38.640,2022-06-08 05:50:38.640,16,0,0,16.546,34.181601,-118.130723,0.00,0.00,-0.40,0.20,-0.50,16.20,0,1,0,98,100,-7152,3439,16546,2971.50,11,Sport,1,0,0,0,240,0,0,1654692638639,4159,4158,4153,4140,0,0,27,,,,,,,0,0,0,-2.00,-5.00,162.00,0.00,0.00,31.00,31,12.00,4.00,17.51,0.00,0.00,-4.00,0,,,100,100,0,1,0,0,0,0,6,,,,,2.3,5.1,0.0,0.0,0.0,0.0,0
34.181587,-118.130730,1.20,1.30,0.50,1.76,1.20,1.20,0.50,5.53,7005,2022-06-08 12:50:38.724,2022-06-08 05:50:38.724,16,0,0,16.546,34.181601,-118.130723,0.00,0.00,-0.50,0.10,-0.50,16.20,0,1,0,98,100,-7152,3439,16546,2971.50,11,Sport,1,0,0,0,240,0,0,1654692638723,4159,4158,4153,4140,0,0,27,,,,,,,0,0,0,-1.00,-5.00,162.00,0.00,0.00,31.00,31,12.00,5.00,17.63,0.00,0.00,-5.00,0,,,100,100,0,1,0,0,0,0,6,,,,,2.3,5.1,0.0,0.0,0.0,0.0,0
34.181586,-118.130730,1.30,1.40,0.50,1.78,1.30,1.30,0.50,5.53,7122,2022-06-08 12:50:38.840,2022-06-08 05:50:38.840,16,0,0,16.546,34.181601,-118.130723,0.00,0.00,-0.50,0.20,-0.40,16.20,0,1,0,98,100,-7152,3439,16546,2971.50,11,Sport,1,0,0,0,239,0,0,1654692638840,4159,4158,4153,4140,0,0,27,,,,,,,0,0,0,-2.00,-4.00,162.00,0.00,0.00,31.00,31,13.00,5.00,17.80,0.00,0.00,-5.00,0,,,100,100,0,1,0,0,0,0,6,,,,,2.3,5.1,0.0,0.0,0.0,0.0,0
34.181586,-118.130730,1.40,1.40,0.50,1.79,1.40,1.40,0.50,5.53,7222,2022-06-08 12:50:38.940,2022-06-08 05:50:38.940,16,0,0,16.546,34.181601,-118.130723,0.00,0.00,-0.50,0.20,-0.40,16.20,0,1,0,98,100,-7152,3439,16546,2971.50,11,Sport,1,0,0,0,239,0,0,1654692638940,4159,4158,4153,4140,0,0,27,,,,,,,0,0,0,-2.00,-4.00,162.00,0.00,0.00,31.00,31,14.00,5.00,17.92,0.00,0.00,-5.00,0,,,100,100,0,1,0,0,0,0,6,,,,,2.3,5.1,0.0,0.0,0.0,0.0,0
34.181586,-118.130731,1.40,1.50,0.50,1.82,1.40,1.40,0.50,5.53,7322,2022-06-08 12:50:39.041,2022-06-08 05:50:39.041,16,0,0,16.546,34.181601,-118.130723,0.00,0.00,-0.50,0.20,-0.40,16.20,0,1,0,98,100,-7152,3439,16546,2971.50,11,Sport,1,0,0,0,238,0,0,1654692639040,4159,4158,4153,4140,0,0,27,,,,,,,0,0,0,-2.00,-4.00,162.00,0.00,0.00,31.00,31,14.00,5.00,18.21,0.00,0.00,-5.00,0,,,100,100,0,1,0,0,0,0,6,,,,,2.3,5.1,0.0,0.0,0.0,0.0,0
34.181586,-118.130731,1.40,1.50,0.50,1.84,1.40,1.40,0.50,5.53,7423,2022-06-08 12:50:39.141,2022-06-08 05:50:39.141,16,0,0,16.546,34.181601,-118.130723,0.00,0.00,-0.50,0.30,-0.30,16.20,0,1,0,98,100,-7152,3439,16546,2971.50,11,Sport,1,0,0,0,237,0,0,1654692639141,4159,4158,4153,4140,0,0,27,,,,,,,0,0,0,-3.00,-3.00,162.00,0.00,0.00,31.00,31,14.00,5.00,18.35,0.00,0.00,-5.00,0,,,100,100,0,1,0,0,0,0,6,,,,,2.3,5.1,0.0,0.0,0.0,0.0,0
34.181586,-118.130731,1.50,1.60,0.50,1.85,1.50,1.50,0.50,5.53,7522,2022-06-08 12:50:39.241,2022-06-08 05:50:39.241,16,0,0,16.546,34.181601,-118.130723,0.00,0.00,-0.50,0.30,-0.30,16.20,0,1,0,98,100,-7152,3439,16546,2971.50,11,Sport,1,0,0,0,237,0,0,1654692639240,4159,4158,4153,4140,0,0,27,,,,,,,0,0,0,-3.00,-3.00,162.00,0.00,0.00,31.00,31,15.00,5.00,18.47,0.00,0.00,-5.00,0,,,100,100,0,1,0,0,0,0,6,,,,,2.3,5.1,0.0,0.0,0.0,0.0,0
34.181586,-118.130731,1.50,1.60,0.50,1.86,1.50,1.50,0.50,5.53,7622,2022-06-08 12:50:39.341,2022-06-08 05:50:39.341,16,0,0,16.546,34.181601,-118.130723,0.00,0.00,-0.50,0.40,-0.30,16.20,0,1,0,98,100,-7152,3439,16546,2971.50,11,Sport,1,0,0,0,237,0,0,1654692639340,4159,4158,4153,4140,0,0,27,,,,,,,0,0,0,-4.00,-3.00,162.00,0.00,0.00,31.00,31,15.00,5.00,18.61,0.00,0.00,-5.00,0,,,100,100,0,1,0,0,0,0,6,,,,,2.3,5.1,0.0,0.0,0.0,0.0,0
34.181586,-118.130731,1.60,1.70,0.50,1.86,1.60,1.60,0.50,5.53,7722,2022-06-08 12:50:39.440,2022-06-08 05:50:39.440,16,0,0,16.546,34.181601,-118.130723,0.00,0.00,-0.50,0.40,-0.20,16.20,0,1,0,98,100,-7152,3439,16546,2971.50,11,Sport,1,0,0,0,236,0,0,1654692639440,4159,4158,4153,4140,0,0,27,,,,,,,0,0,0,-4.00,-2.00,162.00,0.00,0.00,31.00,31,16.00,5.00,18.64,0.00,0.00,-5.00,0,,,100,100,0,1,0,0,0,0,6,,,,,2.3,5.1,0.0,0.0,0.0,0.0,0
34.181586,-118.130731,1.60,1.70,0.40,1.88,1.60,1.60,0.50,5.53,7822,2022-06-08 12:50:39.541,2022-06-08 05:50:39.541,16,0,0,16.546,34.181601,-118.130723,0.00,0.00,-0.40,0.30,-0.30,16.20,0,1,0,98,100,-7152,3439,16546,2971.50,11,Sport,1,0,0,0,233,0,0,1654692639540,4159,4158,4153,4140,0,0,27,,,,,,,0,0,0,-3.00,-3.00,162.00,0.00,0.00,31.00,31,16.00,4.00,18.76,0.00,0.00,-4.00,0,,,100,100,0,1,0,0,0,0,6,,,,,2.3,5.1,0.0,0.0,0.0,0.0,0
34.181586,-118.130731,1.70,1.80,0.40,1.86,1.70,1.70,0.50,5.53,7922,2022-06-08 12:50:39.641,2022-06-08 05:50:39.641,16,0,0,16.546,34.181601,-118.130723,0.00,0.00,-0.40,0.30,-0.40,16.20,0,1,0,98,100,-7152,3439,16546,2971.50,11,Sport,1,0,0,0,233,0,0,1654692639640,4159,4158,4153,4140,0,0,27,,,,,,,0,0,0,-3.00,-4.00,162.00,0.00,0.00,31.00,31,17.00,4.00,18.64,0.00,0.00,-4.00,0,,,100,100,0,1,0,0,0,0,6,,,,,2.3,5.1,0.0,0.0,0.0,0.0,0
34.181586,-118.130731,1.70,1.80,0.40,1.87,1.70,1.70,0.50,5.53,8022,2022-06-08 12:50:39.741,2022-06-08 05:50:39.741,16,0,0,16.546,34.181601,-118.130723,0.00,0.00,-0.40,0.40,-0.40,16.20,0,1,0,98,100,-7152,3439,16546,2971.50,11,Sport,1,0,0,0,233,0,0,1654692639740,4159,4158,4153,4140,0,0,27,,,,,,,0,0,0,-4.00,-4.00,162.00,0.00,0.00,31.00,31,17.00,4.00,18.73,0.00,0.00,-4.00,0,,,100,100,0,1,0,0,0,0,6,,,,,2.3,5.1,0.0,0.0,0.0,0.0,0
34.181586,-118.130731,1.80,1.90,0.40,1.88,1.80,1.80,0.50,5.53,8122,2022-06-08 12:50:39.841,2022-06-08 05:50:39.841,16,0,0,16.546,34.181601,-118.130723,0.00,0.00,-0.40,0.40,-0.40,16.20,0,1,0,98,100,-7152,3439,16546,2971.50,11,Sport,1,0,0,0,232,0,0,1654692639840,4159,4158,4153,4140,0,0,27,,,,,,,0,0,0,-4.00,-4.00,162.00,0.00,0.00,31.00,31,18.00,4.00,18.78,0.00,0.00,-4.00,0,,,100,100,0,1,0,0,0,0,6,,,,,2.3,5.1,0.0,0.0,0.0,0.0,0
34.181586,-118.130731,1.80,1.90,0.40,1.89,1.80,1.80,0.50,5.53,8223,2022-06-08 12:50:39.942,2022-06-08 05:50:39.942,16,0,0,16.546,34.181601,-118.130723,0.00,0.00,-0.40,0.40,-0.40,16.20,0,1,0,98,100,-7152,3439,16546,2971.50,11,Sport,1,0,0,0,232,0,0,1654692639941,4159,4158,4153,4140,0,0,27,,,,,,,0,0,0,-4.00,-4.00,162.00,0.00,0.00,31.00,31,18.00,4.00,18.88,0.00,0.00,-4.00,0,,,100,100,0,1,0,0,0,0,6,,,,,2.3,5.1,0.0,0.0,0.0,0.0,0
34.181586,-118.130731,1.90,2.00,0.40,1.90,1.90,1.90,0.50,5.53,8322,2022-06-08 12:50:40.041,2022-06-08 05:50:40.041,16,0,0,16.546,34.181601,-118.130723,0.00,0.00,-0.40,0.40,-0.40,16.20,0,1,0,98,100,-7152,3439,16546,2971.50,11,Sport,1,0,0,0,231,0,0,1654692640040,4159,4158,4153,4140,0,0,27,,,,,,,0,0,0,-4.00,-4.00,162.00,0.00,0.00,31.00,31,19.00,4.00,18.95,0.00,0.00,-4.00,0,,,100,100,0,1,0,0,0,0,6,,,,,2.3,5.1,0.0,0.0,0.0,0.0,0
34.181586,-118.130731,1.90,2.00,0.40,1.90,1.90,1.90,0.50,5.53,8423,2022-06-08 12:50:40.141,2022-06-08 05:50:40.141,16,0,0,16.509,34.181601,-118.130723,0.00,0.00,-0.40,0.30,-0.30,16.20,0,1,0,98,100,-7542,3435,16509,2971.50,11,Sport,1,0,0,0,182,0,0,1654692640141,4159,4158,4153,4140,0,0,27,,,,,,,0,0,0,-3.00,-3.00,162.00,0.00,0.00,31.00,31,19.00,4.00,19.04,0.00,0.00,-4.00,0,,,100,100,0,1,0,0,0,0,6,,,,,2.3,5.1,0.0,0.0,0.0,0.0,0
34.181585,-118.130732,1.90,2.00,0.30,1.93,1.90,1.90,0.50,5.53,8522,2022-06-08 12:50:40.241,2022-06-08 05:50:40.241,16,0,0,16.509,34.181601,-118.130723,0.00,0.00,-0.30,0.40,-0.20,16.20,0,1,0,98,100,-7542,3435,16509,2971.50,11,Sport,1,0,0,0,37,0,0,1654692640240,4159,4158,4153,4140,0,0,27,,,,,,,0,0,0,-4.00,-2.00,162.00,0.00,0.00,31.00,31,19.00,3.00,19.33,0.00,0.00,-3.00,0,,,100,100,0,1,0,0,0,0,6,,,,,2.3,5.1,0.0,0.0,0.0,0.0,0
34.181585,-118.130732,2.00,2.10,0.10,1.94,2.00,2.00,0.50,5.53,8606,2022-06-08 12:50:40.325,2022-06-08 05:50:40.325,16,0,0,16.509,34.181601,-118.130723,0.00,0.00,-0.10,0.30,-0.20,16.20,0,1,0,98,100,-7542,3435,16509,2971.50,11,Sport,1,0,0,0,0,0,0,1654692640324,4159,4158,4153,4140,0,0,27,,,,,,,0,0,0,-3.00,-2.00,162.00,0.00,0.00,31.00,31,20.00,1.00,19.44,0.00,0.00,-1.00,0,,,100,100,0,1,0,0,0,0,6,,,,,2.3,5.1,0.0,0.0,0.0,0.0,0
34.181585,-118.130732,2.00,2.10,0.00,1.95,2.00,2.00,0.50,5.53,8706,2022-06-08 12:50:40.425,2022-06-08 05:50:40.425,16,0,0,16.509,34.181601,-118.130723,0.00,0.00,0.00,0.20,-0.40,16.20,0,1,0,98,100,-7542,3435,16509,2971.50,11,Sport,1,0,0,0,0,0,0,1654692640424,4159,4158,4153,4140,0,0,27,,,,,,,0,0,0,-2.00,-4.00,162.00,0.00,0.00,31.00,31,20.00,0.00,19.50,0.00,0.00,0.00,0,,,100,100,0,1,0,0,0,0,6,,,,,2.3,5.1,0.0,0.0,0.0,0.0,0
34.181585,-118.130732,2.00,2.10,0.00,1.96,2.00,2.00,0.50,5.53,8808,2022-06-08 12:50:40.527,2022-06-08 05:50:40.527,16,0,0,16.509,34.181601,-118.130723,0.00,0.00,0.00,0.10,-0.50,16.10,0,1,0,98,100,-7542,3435,16509,2971.50,11,Sport,1,0,0,0,0,0,0,1654692640526,4159,4158,4153,4140,0,0,27,,,,,,,0,0,0,-1.00,-5.00,161.00,0.00,0.00,31.00,31,20.00,0.00,19.60,0.00,0.00,0.00,0,,,100,100,0,1,0,0,0,0,6,,,,,2.3,5.1,0.0,0.0,0.0,0.0,0
34.181585,-118.130732,2.00,2.10,0.00,1.97,2.00,2.00,0.50,5.53,8907,2022-06-08 12:50:40.625,2022-06-08 05:50:40.625,16,0,0,16.509,34.181601,-118.130723,0.00,0.00,0.00,0.10,-0.60,16.10,0,1,0,98,100,-7542,3435,16509,2971.50,11,Sport,1,0,0,0,0,0,0,1654692640625,4159,4158,4153,4140,0,0,27,,,,,,,0,0,0,-1.00,-6.00,161.00,0.00,0.00,31.00,31,20.00,0.00,19.66,0.00,0.00,0.00,0,,,100,100,0,1,0,0,0,0,6,,,,,2.3,5.1,0.0,0.0,0.0,0.0,0
34.181585,-118.130732,2.00,2.10,0.00,1.98,2.00,2.00,0.50,5.53,9007,2022-06-08 12:50:40.726,2022-06-08 05:50:40.726,16,0,0,16.509,34.181601,-118.130723,0.00,0.00,0.00,0.20,-0.70,16.10,0,1,0,98,100,-7542,3435,16509,2971.50,11,Sport,1,0,0,0,0,0,0,1654692640725,4159,4158,4153,4140,0,0,27,,,,,,,0,0,0,-2.00,-7.00,161.00,0.00,0.00,31.00,31,20.00,0.00,19.76,0.00,0.00,0.00,0,,,100,100,0,1,0,0,0,0,6,,,,,2.3,5.1,0.0,0.0,0.0,0.0,0
34.181585,-118.130732,2.00,2.10,0.00,2.00,2.00,2.00,0.50,5.53,9107,2022-06-08 12:50:40.826,2022-06-08 05:50:40.826,16,0,0,16.509,34.181601,-118.130723,0.00,0.00,0.00,0.20,-0.60,16.10,0,1,0,98,100,-7542,3435,16509,2971.50,11,Sport,1,0,0,0,0,0,0,1654692640825,4159,4158,4153,4140,0,0,27,,,,,,,0,0,0,-2.00,-6.00,161.00,0.00,0.00,31.00,31,20.00,0.00,19.97,0.00,0.00,0.00,0,,,100,100,0,1,0,0,0,0,6,,,,,2.3,5.1,0.0,0.0,0.0,0.0,0
34.181585,-118.130732,2.00,2.10,0.00,2.01,2.00,2.00,0.50,5.53,9224,2022-06-08 12:50:40.943,2022-06-08 05:50:40.943,16,0,0,16.509,34.181601,-118.130723,0.00,0.00,0.00,0.20,-0.40,16.10,0,1,0,98,100,-7542,3435,16509,2971.50,11,Sport,1,0,0,0,0,0,0,1654692640942,4159,4158,4153,4140,0,0,27,,,,,,,0,0,0,-2.00,-4.00,161.00,0.00,0.00,31.00,31,20.00,0.00,20.07,0.00,0.00,0.00,0,,,100,100,0,1,0,0,0,0,6,,,,,2.3,5.1,0.0,0.0,0.0,0.0,0
34.181585,-118.130732,2.00,2.00,0.00,2.00,2.00,2.00,0.50,5.53,9257,2022-06-08 12:50:40.976,2022-06-08 05:50:40.976,16,0,0,16.509,34.181601,-118.130723,0.00,0.00,0.00,0.20,-0.30,16.10,0,1,0,98,100,-7542,3435,16509,2971.50,11,Sport,1,0,0,0,0,0,0,1654692640975,4159,4158,4153,4140,0,0,27,,,,,,,0,0,0,-2.00,-3.00,161.00,0.00,0.00,31.00,31,20.00,0.00,19.98,0.00,0.00,0.00,0,,,100,100,0,1,0,0,0,0,6,,,,,2.3,5.1,0.0,0.0,0.0,0.0,0
34.181585,-118.130733,1.90,2.00,0.00,2.01,2.00,2.00,0.50,5.53,9413,2022-06-08 12:50:41.131,2022-06-08 05:50:41.131,16,0,0,16.509,34.181601,-118.130723,0.00,0.00,0.00,0.20,-0.20,16.10,0,1,0,98,100,-7542,3435,16509,2971.50,11,Sport,1,0,0,0,0,0,0,1654692641131,4159,4158,4153,4140,0,0,27,,,,,,,0,0,0,-2.00,-2.00,161.00,0.00,0.00,31.00,31,19.00,0.00,20.07,0.00,0.00,0.00,0,,,100,100,0,1,0,0,0,0,6,,,,,2.3,5.1,0.0,0.0,0.0,0.0,0
34.181585,-118.130733,1.90,2.00,0.00,2.00,2.00,2.00,0.50,5.53,9457,2022-06-08 12:50:41.175,2022-06-08 05:50:41.175,16,0,0,16.509,34.181601,-118.130723,0.00,0.00,0.00,0.20,-0.30,16.10,0,1,0,98,100,-7542,3435,16509,2971.50,11,Sport,1,0,0,0,0,0,0,1654692641175,4159,4158,4153,4140,0,0,27,,,,,,,0,0,0,-2.00,-3.00,161.00,0.00,0.00,31.00,31,19.00,0.00,19.96,0.00,0.00,0.00,0,,,100,100,0,1,0,0,0,0,6,,,,,2.3,5.1,0.0,0.0,0.0,0.0,0
34.181585,-118.130733,1.90,2.00,0.00,2.00,2.00,2.00,0.50,5.53,9607,2022-06-08 12:50:41.325,2022-06-08 05:50:41.325,16,0,0,16.509,34.181601,-118.130723,0.00,0.00,0.00,0.20,-0.30,16.10,0,1,0,98,100,-7542,3435,16509,2971.50,11,Sport,1,0,0,0,0,0,0,1654692641325,4159,4158,4153,4140,0,0,27,,,,,,,0,0,0,-2.00,-3.00,161.00,0.00,0.00,31.00,31,19.00,0.00,20.02,0.00,0.00,0.00,0,,,100,100,0,1,0,0,0,0,6,,,,,2.3,5.1,0.0,0.0,0.0,0.0,0
34.181585,-118.130733,1.90,2.00,0.00,1.99,2.00,2.00,0.50,5.53,9707,2022-06-08 12:50:41.425,2022-06-08 05:50:41.425,16,0,0,16.509,34.181601,-118.130723,0.00,0.00,0.00,0.20,-0.30,16.10,0,1,0,98,100,-7542,3435,16509,2971.50,11,Sport,1,0,0,0,0,0,0,1654692641425,4159,4158,4153,4140,0,0,27,,,,,,,0,0,0,-2.00,-3.00,161.00,0.00,0.00,31.00,31,19.00,0.00,19.93,0.00,0.00,0.00,0,,,100,100,0,1,0,0,0,0,6,,,,,2.3,5.1,0.0,0.0,0.0,0.0,0
34.181585,-118.130733,1.90,2.00,0.00,2.00,2.00,2.00,0.50,5.53,9807,2022-06-08 12:50:41.525,2022-06-08 05:50:41.525,16,0,0,16.509,34.181601,-118.130723,0.00,0.00,0.00,0.20,-0.30,16.10,0,1,0,98,100,-7542,3435,16509,2971.50,11,Sport,1,0,0,0,0,0,0,1654692641525,4159,4158,4153,4140,0,0,27,,,,,,,0,0,0,-2.00,-3.00,161.00,0.00,0.00,31.00,31,19.00,0.00,19.97,0.00,0.00,0.00,0,,,100,100,0,1,0,0,0,0,6,,,,,2.3,5.1,0.0,0.0,0.0,0.0,0
34.181585,-118.130733,1.90,2.00,0.00,2.00,2.00,2.00,0.50,5.53,9907,2022-06-08 12:50:41.626,2022-06-08 05:50:41.626,16,0,0,16.509,34.181601,-118.130723,0.00,0.00,0.00,0.20,-0.20,16.00,0,1,0,98,100,-7542,3435,16509,2971.50,11,Sport,1,0,0,0,0,0,0,1654692641625,4159,4158,4153,4140,0,0,27,,,,,,,0,0,0,-2.00,-2.00,160.00,0.00,0.00,31.00,31,19.00,0.00,19.99,0.00,0.00,0.00,0,,,100,100,0,1,0,0,0,0,6,,,,,2.3,5.1,0.0,0.0,0.0,0.0,0
34.181585,-118.130733,1.90,2.00,0.00,2.00,2.00,2.00,0.50,5.53,10007,2022-06-08 12:50:41.726,2022-06-08 05:50:41.726,16,0,0,16.509,34.181601,-118.130723,0.00,0.00,0.00,0.20,-0.20,16.00,0,1,0,98,100,-7542,3435,16509,2971.50,11,Sport,1,0,0,0,0,0,0,1654692641725,4159,4158,4153,4140,0,0,27,,,,,,,0,0,0,-2.00,-2.00,160.00,0.00,0.00,31.00,31,19.00,0.00,20.03,0.00,0.00,0.00,0,,,100,100,0,1,0,0,0,0,6,,,,,2.3,5.1,0.0,0.0,0.0,0.0,0
34.181585,-118.130733,1.90,2.00,0.00,2.02,2.00,2.00,0.50,5.53,10107,2022-06-08 12:50:41.826,2022-06-08 05:50:41.826,16,0,0,16.509,34.181601,-118.130723,0.00,0.00,0.00,0.20,-0.30,16.10,0,1,0,98,100,-7542,3435,16509,2971.50,11,Sport,1,0,0,0,0,0,0,1654692641825,4159,4158,4153,4140,0,0,27,,,,,,,0,0,0,-2.00,-3.00,161.00,0.00,0.00,31.00,31,19.00,0.00,20.20,0.00,0.00,0.00,0,,,100,100,0,1,0,0,0,0,6,,,,,2.3,5.1,0.0,0.0,0.0,0.0,0
34.181585,-118.130733,1.90,2.00,0.00,2.02,2.00,2.00,0.50,5.53,10157,2022-06-08 12:50:41.876,2022-06-08 05:50:41.876,16,0,0,16.509,34.181601,-118.130723,0.00,0.00,0.00,0.30,-0.40,16.10,0,1,0,98,100,-7542,3435,16509,2971.50,11,Sport,1,0,0,0,0,0,0,1654692641875,4159,4158,4153,4140,0,0,27,,,,,,,0,0,0,-3.00,-4.00,161.00,0.00,0.00,31.00,31,19.00,0.00,20.25,0.00,0.00,0.00,0,,,100,100,0,1,0,0,0,0,6,,,,,2.3,5.1,0.0,0.0,0.0,0.0,0
34.181585,-118.130733,1.90,2.00,0.00,2.03,2.00,2.00,0.50,5.53,10308,2022-06-08 12:50:42.026,2022-06-08 05:50:42.026,16,0,0,16.509,34.181601,-118.130723,0.00,0.00,0.00,0.30,-0.40,16.10,0,1,0,98,100,-7542,3435,16509,2971.50,11,Sport,1,0,0,0,0,0,0,1654692642026,4159,4158,4153,4140,0,0,27,,,,,,,0,0,0,-3.00,-4.00,161.00,0.00,0.00,31.00,31,19.00,0.00,20.27,0.00,0.00,0.00,0,,,100,100,0,1,0,0,0,0,6,,,,,2.3,5.1,0.0,0.0,0.0,0.0,0
34.181585,-118.130733,1.90,2.00,0.00,2.03,2.00,2.00,0.50,5.53,10413,2022-06-08 12:50:42.131,2022-06-08 05:50:42.131,16,0,0,16.505,34.181601,-118.130723,0.00,0.00,0.00,0.30,-0.40,16.10,0,1,0,98,100,-7177,3431,16505,2981.50,11,Sport,1,0,0,0,0,0,0,1654692642131,4159,4158,4153,4140,0,0,27,,,,,,,0,0,0,-3.00,-4.00,161.00,0.00,0.00,31.00,31,19.00,0.00,20.31,0.00,0.00,0.00,0,,,100,100,0,1,0,0,0,0,6,,,,,2.3,5.1,0.0,0.0,0.0,0.0,0
34.181585,-118.130733,1.90,2.00,0.00,2.04,2.00,2.00,0.50,5.53,10507,2022-06-08 12:50:42.225,2022-06-08 05:50:42.225,16,0,0,16.505,34.181601,-118.130723,0.00,0.00,0.00,0.30,-0.40,16.10,0,1,0,98,100,-7177,3431,16505,2981.50,11,Sport,1,0,0,61,0,0,0,1654692642225,4159,4158,4153,4140,0,0,27,,,,,,,0,0,0,-3.00,-4.00,161.00,0.00,0.00,31.00,31,19.00,0.00,20.43,0.00,0.00,0.00,0,,,100,100,0,1,0,0,0,0,6,,,,,2.3,5.1,0.0,0.0,0.0,0.0,0
34.181585,-118.130733,1.90,2.00,0.00,2.05,2.00,2.00,0.50,5.53,10607,2022-06-08 12:50:42.326,2022-06-08 05:50:42.326,16,0,0,16.505,34.181601,-118.130723,0.00,0.00,0.00,0.30,1.90,16.10,0,1,0,98,100,-7177,3431,16505,2981.50,11,Sport,1,0,0,282,0,0,0,1654692642325,4159,4158,4153,4140,0,0,27,,,,,,,0,0,0,-3.00,19.00,161.00,0.00,0.00,31.00,31,19.00,0.00,20.48,0.00,0.00,0.00,0,,,100,100,0,1,0,0,0,0,6,,,,,2.3,5.1,0.0,0.0,0.0,0.0,0
34.181585,-118.130733,1.90,2.00,0.00,2.06,2.00,2.00,0.50,5.53,10707,2022-06-08 12:50:42.426,2022-06-08 05:50:42.426,16,0,0,16.505,34.181601,-118.130723,0.00,0.00,0.00,0.30,9.00,16.10,0,1,0,98,100,-7177,3431,16505,2981.50,11,Sport,1,0,0,341,0,0,0,1654692642425,4159,4158,4153,4140,0,0,27,,,,,,,0,0,0,-3.00,90.00,161.00,0.00,0.00,31.00,31,19.00,0.00,20.65,0.00,0.00,0.00,0,,,100,100,0,1,0,0,0,0,6,,,,,2.3,5.1,0.0,0.0,0.0,0.0,0
34.181585,-118.130733,1.90,2.00,0.20,2.07,2.00,2.00,0.50,5.53,10808,2022-06-08 12:50:42.526,2022-06-08 05:50:42.526,16,0,0,16.505,34.181601,-118.130723,0.00,0.20,0.00,0.30,15.40,16.10,0,1,0,98,100,-7177,3431,16505,2981.50,11,Sport,1,0,0,341,0,0,0,1654692642526,4159,4158,4153,4140,0,0,27,,,,,,,0,0,0,-3.00,154.00,161.00,0.00,0.00,31.00,31,19.00,2.00,20.67,0.00,2.00,0.00,0,,,100,100,0,1,0,0,0,0,6,,,,,2.3,5.1,0.0,0.0,0.0,0.0,0
34.181584,-118.130733,1.90,2.00,0.51,2.09,2.00,2.00,0.51,5.53,10908,2022-06-08 12:50:42.627,2022-06-08 05:50:42.627,16,0,0,16.505,34.181601,-118.130723,-0.10,0.50,0.00,0.30,18.70,16.20,0,1,0,98,100,-7177,3431,16505,2981.50,11,Sport,1,0,0,287,0,0,0,1654692642626,4159,4158,4153,4140,0,0,27,,,,,,,0,0,0,-3.00,187.00,162.00,0.00,0.00,31.00,31,19.00,5.10,20.89,-1.00,5.00,0.00,0,,,100,100,0,1,0,0,0,0,6,,,,,2.3,5.1,0.0,0.0,0.0,0.0,0
34.181584,-118.130732,1.90,2.00,0.82,2.08,2.00,2.00,0.82,5.53,11008,2022-06-08 12:50:42.726,2022-06-08 05:50:42.726,16,0,0,16.505,34.181601,-118.130723,-0.20,0.80,0.00,0.30,15.00,16.20,0,1,0,98,100,-7177,3431,16505,2981.50,11,Sport,1,0,0,0,0,0,0,1654692642726,4159,4158,4153,4140,0,0,27,,,,,,,0,0,0,-3.00,150.00,162.00,0.00,0.00,31.00,31,19.00,8.25,20.84,-2.00,8.00,0.00,0,,,100,100,0,1,0,0,0,0,6,,,,,2.3,5.1,0.0,0.0,0.0,0.0,0
34.181584,-118.130731,1.90,2.00,1.04,2.08,2.00,2.00,1.04,5.53,11057,2022-06-08 12:50:42.775,2022-06-08 05:50:42.775,16,0,0,16.505,34.181601,-118.130723,-0.30,1.00,0.00,0.30,0.50,16.20,0,1,0,98,100,-7177,3431,16505,2981.50,11,Sport,1,0,0,0,0,0,0,1654692642775,4159,4158,4153,4140,0,0,27,,,,,,,0,0,0,-3.00,5.00,162.00,0.00,0.00,31.00,31,19.00,10.44,20.75,-3.00,10.00,0.00,0,,,100,100,0,1,0,0,0,0,6,,,,,2.3,5.1,0.0,0.0,0.0,0.0,0
34.181584,-118.130730,1.90,2.00,0.92,2.07,2.00,2.00,1.04,5.53,11157,2022-06-08 12:50:42.876,2022-06-08 05:50:42.876,16,0,0,16.505,34.181601,-118.130723,-0.20,0.90,0.00,0.30,-7.10,16.10,0,1,0,98,100,-7177,3431,16505,2981.50,11,Sport,1,0,0,0,0,32,0,1654692642875,4159,4158,4153,4140,0,0,27,,,,,,,0,0,0,-3.00,-71.00,161.00,0.00,0.00,31.00,31,19.00,9.22,20.72,-2.00,9.00,0.00,0,,,100,100,0,1,0,0,0,0,6,,,,,2.3,5.1,0.0,0.0,0.0,0.0,0
34.181584,-118.130730,1.90,2.00,0.82,2.05,2.00,2.00,1.04,5.53,11257,2022-06-08 12:50:42.975,2022-06-08 05:50:42.975,16,0,0,16.505,34.181601,-118.130723,-0.20,0.80,0.00,0.70,-10.00,19.60,0,1,0,98,100,-7177,3431,16505,2981.50,11,Sport,1,0,0,0,0,559,0,1654692642975,4159,4158,4153,4140,0,0,27,,,,,,,0,0,0,-7.00,-100.00,196.00,0.00,0.00,52.00,31,19.00,8.25,20.52,-2.00,8.00,0.00,0,,,100,100,0,1,0,0,0,0,6,,,,,2.3,5.1,0.0,0.0,0.0,0.0,0
34.181583,-118.130729,1.90,2.00,0.61,2.05,2.00,2.00,1.04,5.53,11408,2022-06-08 12:50:43.127,2022-06-08 05:50:43.127,16,0,0,16.505,34.181601,-118.130723,-0.10,0.60,0.00,2.50,-9.10,30.70,0,1,0,98,100,-7177,3431,16505,2981.50,11,Sport,1,0,0,0,0,559,0,1654692643126,4159,4158,4153,4140,0,0,27,,,,,,,0,0,0,-25.00,-91.00,307.00,0.00,0.00,165.00,31,19.00,6.08,20.54,-1.00,6.00,0.00,0,,,100,100,0,1,0,0,0,0,6,,,,,2.9,4.5,0.0,0.0,0.0,0.0,0
34.181583,-118.130728,1.90,2.00,0.51,2.07,2.00,2.00,1.04,5.53,11457,2022-06-08 12:50:43.175,2022-06-08 05:50:43.175,16,0,0,16.505,34.181601,-118.130723,-0.10,0.50,0.00,3.60,-6.70,41.70,0,1,0,98,100,-7177,3431,16505,2981.50,11,Sport,1,0,0,0,0,349,0,1654692643175,4159,4158,4153,4140,0,0,27,,,,,,,0,0,0,-36.00,-67.00,417.00,0.00,0.00,287.00,31,19.00,5.10,20.67,-1.00,5.00,0.00,0,,,100,100,0,1,0,0,0,0,6,,,,,2.9,4.5,0.0,0.0,0.0,0.0,0
34.181583,-118.130728,1.90,2.00,0.40,2.13,2.00,2.00,1.04,5.53,11608,2022-06-08 12:50:43.327,2022-06-08 05:50:43.327,16,0,0,16.505,34.181601,-118.130723,0.00,0.40,0.00,3.20,-4.60,30.10,0,1,0,98,100,-7177,3431,16505,2981.50,11,Sport,1,0,0,0,0,0,0,1654692643326,4159,4158,4153,4140,0,0,27,,,,,,,0,0,0,-32.00,-46.00,301.00,0.00,0.00,344.00,31,19.00,4.00,21.28,0.00,4.00,0.00,0,,,100,100,0,1,0,0,0,0,6,,,,,3.3,4.0,0.0,0.0,0.0,0.0,0
34.181582,-118.130727,1.90,2.00,0.32,2.15,2.00,2.00,1.04,5.53,11708,2022-06-08 12:50:43.427,2022-06-08 05:50:43.427,16,0,0,16.505,34.181601,-118.130723,0.10,0.30,0.00,2.80,-4.10,-0.70,0,1,0,98,100,-7177,3431,16505,2981.50,11,Sport,1,0,0,0,0,0,0,1654692643426,4159,4158,4153,4140,0,0,27,,,,,,,0,0,0,-28.00,-41.00,-7.00,0.00,0.00,347.00,31,19.00,3.16,21.53,1.00,3.00,0.00,0,,,100,100,0,1,0,0,0,0,6,,,,,3.3,4.0,0.0,0.0,0.0,0.0,0
34.181581,-118.130727,1.90,2.00,0.22,2.22,2.00,2.00,1.04,5.53,11808,2022-06-08 12:50:43.526,2022-06-08 05:50:43.526,16,0,0,16.505,34.181601,-118.130723,0.20,0.10,0.00,2.40,-3.80,-23.10,0,1,0,98,100,-7177,3431,16505,2981.50,11,Sport,1,0,0,0,0,0,0,1654692643526,4112,4124,4121,4106,0,0,27,,,,,,,0,0,0,-24.00,-38.00,-231.00,0.00,0.00,347.00,31,19.00,2.24,22.22,2.00,1.00,0.00,0,,,100,100,0,1,0,0,0,0,6,,,,,3.3,4.0,0.0,0.0,0.0,0.0,0
34.181582,-118.130726,1.90,2.00,0.10,2.18,2.00,2.00,1.04,5.53,11859,2022-06-08 12:50:43.577,2022-06-08 05:50:43.577,16,0,0,16.505,34.181601,-118.130723,0.10,0.00,0.00,2.00,-3.30,-36.70,0,1,0,98,100,-7177,3431,16505,2981.50,11,Sport,1,0,0,0,0,0,0,1654692643577,4112,4124,4121,4106,0,0,27,,,,,,,0,0,0,-20.00,-33.00,-367.00,0.00,0.00,347.00,31,19.00,1.00,21.76,1.00,0.00,0.00,0,,,100,100,0,1,0,0,0,0,6,,,,,3.3,4.0,0.0,0.0,0.0,0.0,0
34.181581,-118.130726,1.90,2.00,0.10,2.25,2.00,2.00,1.04,5.53,11957,2022-06-08 12:50:43.676,2022-06-08 05:50:43.676,16,0,0,16.505,34.181601,-118.130723,0.10,0.00,0.00,1.60,-2.60,-44.30,0,1,0,98,100,-7177,3431,16505,2981.50,11,Sport,1,0,0,0,0,0,0,1654692643675,4112,4124,4121,4106,0,0,27,,,,,,,0,0,0,-16.00,-26.00,-443.00,0.00,0.00,347.00,31,19.00,1.00,22.49,1.00,0.00,0.00,0,,,100,100,0,1,0,0,0,0,6,,,,,3.5,5.3,0.0,0.0,0.0,0.0,0
34.181581,-118.130726,1.90,2.00,0.00,2.21,2.00,2.00,1.04,5.53,12059,2022-06-08 12:50:43.778,2022-06-08 05:50:43.778,16,0,0,16.505,34.181601,-118.130723,0.00,0.00,0.00,1.30,-1.90,-48.00,0,1,0,98,100,-7177,3431,16505,2981.50,11,Sport,1,0,0,0,0,0,0,1654692643777,4112,4124,4121,4106,0,0,27,,,,,,,0,0,0,-13.00,-19.00,-480.00,0.00,0.00,347.00,31,19.00,0.00,22.14,0.00,0.00,0.00,0,,,100,100,0,1,0,0,0,0,6,,,,,3.5,5.3,0.0,0.0,0.0,0.0,0
34.181581,-118.130726,1.90,2.00,0.00,2.28,2.00,2.00,1.04,5.53,12158,2022-06-08 12:50:43.877,2022-06-08 05:50:43.877,16,0,0,16.505,34.181601,-118.130723,0.00,0.00,0.00,1.00,-1.30,-49.70,0,1,0,98,100,-7177,3431,16505,2981.50,11,Sport,1,0,0,0,0,0,0,1654692643876,4112,4124,4121,4106,0,0,27,,,,,,,0,0,0,-10.00,-13.00,-497.00,0.00,0.00,347.00,31,19.00,0.00,22.80,0.00,0.00,0.00,0,,,100,100,0,1,0,0,0,0,6,,,,,3.5,5.4,0.0,0.0,0.0,0.0,0
34.181582,-118.130726,1.90,2.00,0.00,2.20,2.00,2.00,1.04,5.53,12258,2022-06-08 12:50:43.977,2022-06-08 05:50:43.977,15,0,0,16.505,34.181601,-118.130723,0.00,0.00,0.00,0.80,-0.90,-50.40,0,1,0,98,100,-7177,3431,16505,2981.50,11,Sport,1,0,0,0,0,0,0,1654692643976,4112,4124,4121,4106,0,0,27,,,,,,,0,0,0,-8.00,-9.00,-504.00,0.00,0.00,347.00,31,19.00,0.00,21.99,0.00,0.00,0.00,0,,,100,100,0,1,0,0,0,0,6,,,,,3.5,5.4,0.0,0.0,0.0,0.0,0
34.181581,-118.130726,1.90,2.00,0.00,2.25,2.00,2.00,1.04,5.53,12358,2022-06-08 12:50:44.077,2022-06-08 05:50:44.077,15,0,0,16.463,34.181601,-118.130723,0.00,0.00,0.00,0.60,-0.60,-50.60,0,1,0,98,100,-7647,3425,16463,2981.50,11,Sport,1,0,0,0,0,0,0,1654692644076,4112,4124,4121,4106,0,0,27,,,,,,,0,0,0,-6.00,-6.00,-506.00,0.00,0.00,347.00,31,19.00,0.00,22.49,0.00,0.00,0.00,0,,,100,100,0,1,0,0,0,0,6,,,,,4.0,5.4,0.0,0.0,0.0,0.0,0
34.181582,-118.130727,1.90,2.00,0.00,2.17,2.00,2.00,1.04,5.53,12459,2022-06-08 12:50:44.177,2022-06-08 05:50:44.177,16,0,0,16.463,34.181601,-118.130723,0.00,0.00,0.00,0.50,-0.50,-50.70,0,1,0,98,100,-7647,3425,16463,2981.50,11,Sport,1,0,0,0,0,0,0,1654692644177,4112,4124,4121,4106,0,0,27,,,,,,,0,0,0,-5.00,-5.00,-507.00,0.00,0.00,347.00,31,19.00,0.00,21.71,0.00,0.00,0.00,0,,,100,100,0,1,0,0,0,0,6,,,,,4.0,5.4,0.0,0.0,0.0,0.0,0
34.181582,-118.130726,1.90,2.00,0.00,2.21,2.00,2.00,1.04,5.53,12608,2022-06-08 12:50:44.327,2022-06-08 05:50:44.327,16,0,0,16.463,34.181601,-118.130723,0.00,0.00,0.00,0.40,-0.40,-50.70,0,1,0,98,100,-7647,3425,16463,2981.50,11,Sport,1,0,0,0,0,0,0,1654692644326,4112,4124,4121,4106,0,0,27,,,,,,,0,0,0,-4.00,-4.00,-507.00,0.00,0.00,347.00,31,19.00,0.00,22.08,0.00,0.00,0.00,0,,,100,100,0,1,0,0,0,0,6,,,,,4.0,5.4,0.0,0.0,0.0,0.0,0
34.181582,-118.130727,1.90,2.00,0.00,2.13,2.00,2.00,1.04,5.53,12658,2022-06-08 12:50:44.377,2022-06-08 05:50:44.377,15,0,0,16.463,34.181601,-118.130723,0.00,0.00,0.00,0.30,-0.40,-50.70,0,1,0,98,100,-7647,3425,16463,2981.50,11,Sport,1,0,0,0,0,0,0,1654692644376,4112,4124,4121,4106,0,0,27,,,,,,,0,0,0,-3.00,-4.00,-507.00,0.00,0.00,347.00,31,19.00,0.00,21.32,0.00,0.00,0.00,0,,,100,100,0,1,0,0,0,0,6,,,,,4.0,5.4,0.0,0.0,0.0,0.0,0
34.181582,-118.130727,1.90,2.00,0.00,2.15,2.00,2.00,1.04,5.53,12759,2022-06-08 12:50:44.477,2022-06-08 05:50:44.477,15,0,0,16.463,34.181601,-118.130723,0.00,0.00,0.00,0.10,-0.20,-50.70,0,1,0,98,100,-7647,3425,16463,2981.50,11,Sport,1,0,0,0,0,0,0,1654692644477,4112,4124,4121,4106,0,0,27,,,,,,,0,0,0,-1.00,-2.00,-507.00,0.00,0.00,347.00,31,19.00,0.00,21.53,0.00,0.00,0.00,0,,,100,100,0,1,0,0,0,0,6,,,,,4.0,5.4,0.0,0.0,0.0,0.0,0
34.181583,-118.130728,1.90,2.00,0.00,2.10,2.00,2.00,1.04,5.53,12859,2022-06-08 12:50:44.577,2022-06-08 05:50:44.577,16,0,0,16.463,34.181601,-118.130723,0.00,0.00,0.00,0.10,-0.10,-50.70,0,1,0,98,100,-7647,3425,16463,2981.50,11,Sport,1,0,0,0,0,0,0,1654692644577,4112,4124,4121,4106,0,0,27,,,,,,,0,0,0,-1.00,-1.00,-507.00,0.00,0.00,347.00,31,19.00,0.00,21.02,0.00,0.00,0.00,0,,,100,100,0,1,0,0,0,0,6,,,,,4.0,5.2,0.0,0.0,0.0,0.0,0
34.181583,-118.130728,1.90,2.00,0.00,2.11,2.00,2.00,1.04,5.53,12959,2022-06-08 12:50:44.677,2022-06-08 05:50:44.677,16,0,0,16.463,34.181601,-118.130723,0.00,0.00,0.00,0.00,-0.20,-50.70,0,1,0,98,100,-7647,3425,16463,2981.50,11,Sport,1,0,0,0,0,0,0,1654692644677,4112,4124,4121,4106,0,0,27,,,,,,,0,0,0,-0.00,-2.00,-507.00,0.00,0.00,347.00,31,19.00,0.00,21.10,0.00,0.00,0.00,0,,,100,100,0,1,0,0,0,0,6,,,,,4.0,5.2,0.0,0.0,0.0,0.0,0
34.181583,-118.130728,1.90,2.00,0.00,2.06,2.00,2.00,1.04,5.53,13059,2022-06-08 12:50:44.778,2022-06-08 05:50:44.778,16,0,0,16.463,34.181601,-118.130723,0.00,0.00,0.00,0.00,-0.20,-50.70,0,1,0,98,100,-7647,3425,16463,2981.50,11,Sport,1,0,0,0,0,0,0,1654692644777,4112,4124,4121,4106,0,0,27,,,,,,,0,0,0,-0.00,-2.00,-507.00,0.00,0.00,347.00,31,19.00,0.00,20.63,0.00,0.00,0.00,0,,,100,100,0,1,0,0,0,0,6,,,,,4.0,5.1,0.0,0.0,0.0,0.0,0
34.181583,-118.130728,1.90,2.00,0.00,2.06,2.00,2.00,1.04,5.53,13159,2022-06-08 12:50:44.877,2022-06-08 05:50:44.877,16,0,0,16.463,34.181601,-118.130723,0.00,0.00,0.00,0.00,-0.20,-50.70,0,1,0,98,100,-7647,3425,16463,2981.50,11,Sport,1,0,0,0,0,0,0,1654692644877,4112,4124,4121,4106,0,0,27,,,,,,,0,0,0,-0.00,-2.00,-507.00,0.00,0.00,347.00,31,19.00,0.00,20.59,0.00,0.00,0.00,0,,,100,100,0,1,0,0,0,0,6,,,,,4.0,5.1,0.0,0.0,0.0,0.0,0
34.181584,-118.130729,1.90,2.00,0.00,2.03,2.00,2.00,1.04,5.53,13259,2022-06-08 12:50:44.978,2022-06-08 05:50:44.978,16,0,0,16.463,34.181601,-118.130723,0.00,0.00,0.00,0.10,-0.20,-50.70,0,1,0,98,100,-7647,3425,16463,2981.50,11,Sport,1,0,0,0,0,0,0,1654692644977,4112,4124,4121,4106,0,0,27,,,,,,,0,0,0,-1.00,-2.00,-507.00,0.00,0.00,347.00,31,19.00,0.00,20.34,0.00,0.00,0.00,0,,,100,100,0,1,0,0,0,0,6,,,,,4.0,5.1,0.0,0.0,0.0,0.0,0
34.181584,-118.130729,1.90,2.00,0.00,2.02,2.00,2.00,1.04,5.53,13412,2022-06-08 12:50:45.130,2022-06-08 05:50:45.130,16,0,0,16.463,34.181601,-118.130723,0.00,0.00,0.00,0.00,-0.10,-50.70,0,1,0,98,100,-7647,3425,16463,2981.50,11,Sport,1,0,0,0,0,0,0,1654692645130,4112,4124,4121,4106,0,0,27,,,,,,,0,0,0,-0.00,-1.00,-507.00,0.00,0.00,347.00,31,19.00,0.00,20.21,0.00,0.00,0.00,0,,,100,100,0,1,0,0,0,0,6,,,,,4.0,5.1,0.0,0.0,0.0,0.0,0
34.181584,-118.130729,1.90,2.00,0.00,2.01,2.00,2.00,1.04,5.53,13459,2022-06-08 12:50:45.177,2022-06-08 05:50:45.177,16,0,0,16.463,34.181601,-118.130723,0.00,0.00,0.00,0.10,-0.10,-50.70,0,1,0,98,100,-7647,3425,16463,2981.50,11,Sport,1,0,0,0,0,0,0,1654692645177,4112,4124,4121,4106,0,0,27,,,,,,,0,0,0,-1.00,-1.00,-507.00,0.00,0.00,347.00,31,19.00,0.00,20.12,0.00,0.00,0.00,0,,,100,100,0,1,0,0,0,0,6,,,,,4.0,5.1,0.0,0.0,0.0,0.0,0
34.181584,-118.130730,1.90,2.00,0.00,1.99,2.00,2.00,1.04,5.53,13560,2022-06-08 12:50:45.278,2022-06-08 05:50:45.278,16,0,0,16.463,34.181601,-118.130723,0.00,0.00,0.00,0.10,-0.10,-50.70,0,1,0,98,100,-7647,3425,16463,2981.50,11,Sport,1,0,0,0,0,0,0,1654692645278,4112,4124,4121,4106,0,0,27,,,,,,,0,0,0,-1.00,-1.00,-507.00,0.00,0.00,347.00,31,19.00,0.00,19.94,0.00,0.00,0.00,0,,,100,100,0,1,0,0,0,0,6,,,,,4.0,5.1,0.0,0.0,0.0,0.0,0
