latitude,longitude,altitude(m),ultrasonicHeight(m),speed(mps),distance(m),max_altitude(m),max_ascent(m),max_speed(mps),max_distance(m),time(millisecond),datetime(utc),datetime(local),satellites,pressure(Pa),temperature(F),voltage(v),home_latitude,home_longitude,velocityX(mps),velocityY(mps),velocityZ(mps),pitch(deg),roll(deg),yaw(deg),powerlevel,isflying,istakingphoto,remainPowerPercent,remainLifePercent,currentCurrent,currentElectricity,currentVoltage,batteryTemperature,dischargeCount,flightmode,isMotorsOn,isTakingVideo,Rc_elevator,Rc_aileron,Rc_throttle,Rc_rudder,Rc_gyro,timestamp,Battery_Cell1,Battery_Cell2,Battery_Cell3,Battery_Cell4,Battery_Cell5,Battery_Cell6,Dronetype,AppVersion,Planename,FlyControllerSerialNumber,RemoteSerialNumber,BatterySerialNumber,CENTER_BATTERY.productDate,CENTER_BATTERY.serialNo,CENTER_BATTERY.fullCapacity,CENTER_BATTERY.productDateRaw,pitchRaw,rollRaw,yawRaw,gimbalPitchRaw,gimbalRollRaw,gimbalYawRaw,flyState,altitudeRaw,speedRaw,distanceRaw,velocityXRaw,velocityYRaw,velocityZRaw,data_reuse,App_Tip,App_Warning,downlinkSignalQuality,uplinkSignalQuality,transmissionChannel,rcModeSwitch,rcHome,rcPause,rcTransform,rcJoystickMode,appMode,FlyControllerSerialNumber_legacy,RemoteSerialNumber_legacy,BatterySerialNumber_legacy,Battery2SerialNumber,frontAvoidDist,backAvoidDist,rightAvoidDist,leftAvoidDist,upAvoidDist,downAvoidDist,isBrakingToAvoid
33.737634,-118.104796,0.30,0.70,0.67,0.57,0.30,0.30,0.67,0.57,1,2022-06-09 00:10:11.412,2022-06-08 17:10:11.412,16,0,0,16.646,33.737631,-118.104801,0.20,0.40,-0.50,-8.80,0.00,-123.20,0,1,0,88,100,-4839,3088,16646,3051.50,11,TakeOff,1,0,0,0,0,0,0,1654733411411,4224,4226,4225,4212,0,0,27,Litchi_iOS_2.14.0,Brian-MAVIC 2,163DFCK001S13F,1DUCFB800104PR,0P2AFBV5340045,,0,3535,0,88.00,0.00,-1232.00,1.00,0.00,-1339.00,11,3.00,6.71,5.67,2.00,4.00,-5.00,0,,,100,100,0,1,0,0,0,0,6,(null),(null),(null),(null),0.0,3.0,0.0,0.0,0.0,0.0,0
33.737635,-118.104796,0.40,0.70,0.67,0.61,0.40,0.40,0.67,0.61,100,2022-06-09 00:10:11.511,2022-06-08 17:10:11.511,16,0,0,16.646,33.737631,-118.104801,0.20,0.40,-0.50,-9.00,0.10,-122.30,0,1,0,88,100,-4839,3088,16646,3051.50,11,TakeOff,1,0,0,0,0,0,0,1654733411510,4224,4226,4225,4212,0,0,27,,,,,,,0,0,0,90.00,1.00,-1223.00,1.00,0.00,-1339.00,11,4.00,6.71,6.14,2.00,4.00,-5.00,0,,,100,100,0,1,0,0,0,0,6,,,,,0.0,3.0,0.0,0.0,0.0,0.0,0
33.737635,-118.104795,0.50,0.80,0.62,0.66,0.50,0.50,0.67,0.66,200,2022-06-09 00:10:11.611,2022-06-08 17:10:11.611,16,0,0,16.646,33.737631,-118.104801,0.20,0.30,-0.50,-9.10,0.50,-121.70,0,1,0,88,100,-4839,3088,16646,3051.50,11,TakeOff,1,0,0,0,0,0,0,1654733411610,4224,4226,4225,4212,0,0,27,,,,,,,0,0,0,91.00,5.00,-1217.00,1.00,0.00,-1339.00,11,5.00,6.16,6.56,2.00,3.00,-5.00,0,,,100,100,0,1,0,0,0,0,6,,,,,0.0,3.0,0.0,0.0,0.0,0.0,0
33.737635,-118.104795,0.50,0.80,0.59,0.70,0.50,0.50,0.67,0.70,302,2022-06-09 00:10:11.712,2022-06-08 17:10:11.712,16,0,0,16.646,33.737631,-118.104801,0.10,0.30,-0.50,-8.70,0.30,-121.40,0,1,0,88,100,-4839,3088,16646,3051.50,11,TakeOff,1,0,0,0,0,0,0,1654733411712,4224,4226,4225,4212,0,0,27,,,,,,,0,0,0,87.00,3.00,-1214.00,1.00,0.00,-1339.00,11,5.00,5.92,6.97,1.00,3.00,-5.00,0,,,100,100,0,1,0,0,0,0,6,,,,,0.0,3.0,0.0,0.0,0.0,0.0,0
33.737635,-118.104794,0.60,0.80,0.59,0.75,0.60,0.60,0.67,0.75,400,2022-06-09 00:10:11.811,2022-06-08 17:10:11.811,16,0,0,16.646,33.737631,-118.104801,0.10,0.30,-0.50,-8.60,0.20,-121.20,0,1,0,88,100,-4839,3088,16646,3051.50,11,TakeOff,1,0,0,0,0,0,0,1654733411810,4224,4226,4225,4212,0,0,27,,,,,,,0,0,0,86.00,2.00,-1212.00,1.00,0.00,-1339.00,11,6.00,5.92,7.55,1.00,3.00,-5.00,0,,,100,100,0,1,0,0,0,0,6,,,,,0.0,3.0,0.0,0.0,0.0,0.0,0
33.737635,-118.104794,0.60,0.90,0.59,0.79,0.60,0.60,0.67,0.79,501,2022-06-09 00:10:11.911,2022-06-08 17:10:11.911,16,0,0,16.646,33.737631,-118.104801,0.10,0.30,-0.50,-8.10,0.10,-121.10,0,1,0,88,100,-4839,3088,16646,3051.50,11,TakeOff,1,0,0,0,0,0,0,1654733411911,4224,4226,4225,4212,0,0,27,,,,,,,0,0,0,81.00,1.00,-1211.00,1.00,0.00,-1339.00,11,6.00,5.92,7.93,1.00,3.00,-5.00,0,,,100,100,0,1,0,0,0,0,6,,,,,0.0,3.0,0.0,0.0,0.0,0.0,0
33.737636,-118.104793,0.70,0.90,0.55,0.84,0.70,0.70,0.67,0.84,600,2022-06-09 00:10:12.011,2022-06-08 17:10:12.011,16,0,0,16.646,33.737631,-118.104801,0.10,0.20,-0.50,-7.50,0.50,-121.00,0,1,0,88,100,-4839,3088,16646,3051.50,11,TakeOff,1,0,0,0,0,0,0,1654733412010,4224,4226,4225,4212,0,0,27,,,,,,,0,0,0,75.00,5.00,-1210.00,1.00,0.00,-1339.00,11,7.00,5.48,8.44,1.00,2.00,-5.00,0,,,100,100,0,1,0,0,0,0,6,,,,,0.0,3.0,0.0,0.0,0.0,0.0,0
33.737636,-118.104793,0.70,1.00,0.55,0.88,0.70,0.70,0.67,0.88,700,2022-06-09 00:10:12.111,2022-06-08 17:10:12.111,16,0,0,16.646,33.737631,-118.104801,0.10,0.20,-0.50,-7.40,0.60,-121.00,0,1,0,88,100,-4839,3088,16646,3051.50,11,TakeOff,1,0,42,0,0,0,0,1654733412110,4224,4226,4225,4212,0,0,27,,,,,,,0,0,0,74.00,6.00,-1210.00,1.00,0.00,-1339.00,11,7.00,5.48,8.80,1.00,2.00,-5.00,0,,,100,100,0,1,0,0,0,0,6,,,,,0.0,3.3,0.0,0.0,0.0,0.0,0
33.737636,-118.104793,0.70,1.00,0.55,0.88,0.70,0.70,0.67,0.88,800,2022-06-09 00:10:12.211,2022-06-08 17:10:12.211,16,0,0,16.646,33.737631,-118.104801,0.10,0.20,-0.50,-7.70,0.20,-121.10,0,1,0,88,100,-4839,3088,16646,3051.50,11,TakeOff,1,0,126,0,0,0,0,1654733412210,4224,4226,4225,4212,0,0,27,,,,,,,0,0,0,77.00,2.00,-1211.00,1.00,0.00,-1339.00,11,7.00,5.48,8.80,1.00,2.00,-5.00,0,,,100,100,0,1,0,0,0,0,6,,,,,0.0,3.3,0.0,0.0,0.0,0.0,0
33.737636,-118.104793,0.80,1.10,0.46,0.91,0.80,0.80,0.67,0.91,900,2022-06-09 00:10:12.311,2022-06-08 17:10:12.311,16,0,0,16.646,33.737631,-118.104801,0.10,0.20,-0.40,-8.40,0.30,-121.00,0,1,0,88,100,-4839,3088,16646,3051.50,11,Sport,1,0,226,0,0,0,0,1654733412310,4138,4135,4126,4113,0,0,27,,,,,,,0,0,0,84.00,3.00,-1210.00,1.00,0.00,-1339.00,31,8.00,4.58,9.13,1.00,2.00,-4.00,0,,,100,100,0,1,0,0,0,0,6,,,,,0.0,3.2,0.0,0.0,0.0,0.0,0
33.737636,-118.104792,0.80,1.10,0.37,0.94,0.80,0.80,0.67,0.94,1001,2022-06-09 00:10:12.412,2022-06-08 17:10:12.412,16,0,0,16.646,33.737631,-118.104801,0.10,0.20,-0.30,-12.70,0.30,-121.10,0,1,0,88,100,-4839,3088,16646,3051.50,11,Sport,1,0,101,0,0,0,0,1654733412411,4138,4135,4126,4113,0,0,27,,,,,,,0,0,0,127.00,3.00,-1211.00,1.00,0.00,-1339.00,31,8.00,3.74,9.45,1.00,2.00,-3.00,0,,,100,100,0,1,0,0,0,0,6,,,,,0.0,3.2,0.0,0.0,0.0,0.0,0
33.737636,-118.104792,0.80,1.10,0.14,0.97,0.80,0.80,0.67,0.97,1101,2022-06-09 00:10:12.511,2022-06-08 17:10:12.511,16,0,0,16.646,33.737631,-118.104801,0.00,0.10,-0.10,-14.00,0.10,-121.10,0,1,0,88,100,-4839,3088,16646,3051.50,11,Sport,1,0,0,0,0,0,0,1654733412511,4138,4135,4126,4113,0,0,27,,,,,,,0,0,0,140.00,1.00,-1211.00,1.00,0.00,-1339.00,31,8.00,1.41,9.73,0.00,1.00,-1.00,0,,,100,100,0,1,0,0,0,0,6,,,,,0.0,3.0,0.0,0.0,0.0,0.0,0
33.737636,-118.104792,0.90,1.20,0.10,0.98,0.90,0.90,0.67,0.98,1201,2022-06-09 00:10:12.612,2022-06-08 17:10:12.612,16,0,0,16.646,33.737631,-118.104801,0.00,0.10,0.00,-9.80,0.40,-121.10,0,1,0,88,100,-4839,3088,16646,3051.50,11,Sport,1,0,218,0,0,0,0,1654733412611,4138,4135,4126,4113,0,0,27,,,,,,,0,0,0,98.00,4.00,-1211.00,1.00,0.00,-1339.00,31,9.00,1.00,9.81,0.00,1.00,0.00,0,,,100,100,0,1,0,0,0,0,6,,,,,0.0,3.0,0.0,0.0,0.0,0.0,0
33.737636,-118.104792,0.90,1.20,0.00,1.00,0.90,0.90,0.67,1.00,1302,2022-06-09 00:10:12.712,2022-06-08 17:10:12.712,16,0,0,16.646,33.737631,-118.104801,0.00,0.00,0.00,-9.60,0.20,-121.10,0,1,0,88,100,-4839,3088,16646,3051.50,11,Sport,1,0,332,0,0,0,0,1654733412712,4138,4135,4126,4113,0,0,27,,,,,,,0,0,0,96.00,2.00,-1211.00,1.00,0.00,-1339.00,31,9.00,0.00,9.96,0.00,0.00,0.00,0,,,100,100,0,1,0,0,0,0,6,,,,,0.0,3.0,0.0,0.0,0.0,0.0,0
33.737636,-118.104792,0.90,1.20,0.00,1.00,0.90,0.90,0.67,1.00,1402,2022-06-09 00:10:12.813,2022-06-08 17:10:12.813,16,0,0,16.513,33.737631,-118.104801,0.00,0.00,0.00,-15.70,-0.10,-121.10,0,1,0,88,100,-6987,3085,16513,3051.50,11,Sport,1,0,353,0,0,0,0,1654733412812,4138,4135,4126,4113,0,0,27,,,,,,,0,0,0,157.00,-1.00,-1211.00,1.00,0.00,-1339.00,31,9.00,0.00,9.99,0.00,0.00,0.00,0,,,100,100,0,1,0,0,0,0,6,,,,,0.0,3.0,0.0,0.0,0.0,0.0,0
33.737636,-118.104792,0.90,1.20,0.00,1.00,0.90,0.90,0.67,1.00,1502,2022-06-09 00:10:12.913,2022-06-08 17:10:12.913,16,0,0,16.513,33.737631,-118.104801,0.00,0.00,0.00,-22.70,-0.20,-121.10,0,1,0,88,100,-6987,3085,16513,3051.50,11,Sport,1,0,354,0,0,0,0,1654733412912,4138,4135,4126,4113,0,0,27,,,,,,,0,0,0,227.00,-2.00,-1211.00,1.00,0.00,-1339.00,31,9.00,0.00,10.01,0.00,0.00,0.00,0,,,100,100,0,1,0,0,0,0,6,,,,,0.0,3.0,0.0,0.0,0.0,0.0,0
33.737636,-118.104792,0.80,1.20,0.33,0.96,0.90,0.90,0.67,1.00,1602,2022-06-09 00:10:13.012,2022-06-08 17:10:13.012,16,0,0,16.513,33.737631,-118.104801,-0.10,-0.30,0.10,-27.50,-0.70,-121.10,0,1,0,88,100,-6987,3085,16513,3051.50,11,Sport,1,0,112,0,0,0,0,1654733413012,4138,4135,4126,4113,0,0,27,,,,,,,0,0,0,275.00,-7.00,-1211.00,1.00,0.00,-1339.00,31,8.00,3.32,9.62,-1.00,-3.00,1.00,0,,,100,100,0,1,0,0,0,0,6,,,,,0.0,3.0,0.0,0.0,0.0,0.0,0
33.737636,-118.104793,0.80,1.10,0.68,0.91,0.90,0.90,0.68,1.00,1702,2022-06-09 00:10:13.112,2022-06-08 17:10:13.112,16,0,0,16.513,33.737631,-118.104801,-0.30,-0.60,0.10,-25.20,-0.50,-121.20,0,1,0,88,100,-6987,3085,16513,3051.50,11,Sport,1,0,0,0,0,0,0,1654733413112,4138,4135,4126,4113,0,0,27,,,,,,,0,0,0,252.00,-5.00,-1212.00,1.00,0.00,-1339.00,31,8.00,6.78,9.08,-3.00,-6.00,1.00,0,,,100,100,0,1,0,0,0,0,6,,,,,0.0,3.0,0.0,0.0,0.0,0.0,0
33.737635,-118.104793,0.80,1.10,0.94,0.82,0.90,0.90,0.94,1.00,1803,2022-06-09 00:10:13.214,2022-06-08 17:10:13.214,16,0,0,16.513,33.737631,-118.104801,-0.50,-0.80,0.00,-9.30,0.10,-121.20,0,1,0,88,100,-6987,3085,16513,3051.50,11,Sport,1,0,0,0,0,0,0,1654733413213,4138,4135,4126,4113,0,0,27,,,,,,,0,0,0,93.00,1.00,-1212.00,1.00,0.00,-1339.00,31,8.00,9.43,8.23,-5.00,-8.00,0.00,0,,,100,100,0,1,0,0,0,0,6,,,,,0.0,3.0,0.0,0.0,0.0,0.0,0
33.737635,-118.104794,0.80,1.20,0.87,0.73,0.90,0.90,0.94,1.00,1903,2022-06-09 00:10:13.313,2022-06-08 17:10:13.313,16,0,0,16.513,33.737631,-118.104801,-0.50,-0.70,-0.10,0.40,0.50,-121.10,0,1,0,88,100,-6987,3085,16513,3051.50,11,Sport,1,0,0,0,0,0,0,1654733413313,4138,4135,4126,4113,0,0,27,,,,,,,0,0,0,-4.00,5.00,-1211.00,1.00,0.00,-1339.00,31,8.00,8.66,7.32,-5.00,-7.00,-1.00,0,,,100,100,0,1,0,0,0,0,6,,,,,0.0,3.0,0.0,0.0,0.0,0.0,0
33.737634,-118.104795,0.80,1.20,0.73,0.66,0.90,0.90,0.94,1.00,2003,2022-06-09 00:10:13.414,2022-06-08 17:10:13.414,16,0,0,16.513,33.737631,-118.104801,-0.40,-0.60,-0.10,3.60,1.10,-120.90,0,1,0,88,100,-6987,3085,16513,3051.50,11,Sport,1,0,0,0,0,0,0,1654733413413,4138,4135,4126,4113,0,0,27,,,,,,,0,0,0,-36.00,11.00,-1209.00,1.00,0.00,-1339.00,31,8.00,7.28,6.63,-4.00,-6.00,-1.00,0,,,100,100,0,1,0,0,0,0,6,,,,,0.0,3.0,0.0,0.0,0.0,0.0,0
33.737634,-118.104795,0.80,1.20,0.50,0.60,0.90,0.90,0.94,1.00,2103,2022-06-09 00:10:13.514,2022-06-08 17:10:13.514,16,0,0,16.513,33.737631,-118.104801,-0.30,-0.40,0.00,3.10,0.80,-120.90,0,1,0,88,100,-6987,3085,16513,3051.50,11,Sport,1,0,0,0,0,0,0,1654733413513,4138,4135,4126,4113,0,0,27,,,,,,,0,0,0,-31.00,8.00,-1209.00,1.00,0.00,-1339.00,31,8.00,5.00,6.01,-3.00,-4.00,0.00,0,,,100,100,0,1,0,0,0,0,6,,,,,0.0,3.0,0.0,0.0,0.0,0.0,0
33.737634,-118.104796,0.80,1.20,0.36,0.53,0.90,0.90,0.94,1.00,2206,2022-06-09 00:10:13.617,2022-06-08 17:10:13.617,16,0,0,16.513,33.737631,-118.104801,-0.20,-0.30,0.00,1.90,0.40,-121.00,0,1,0,88,100,-6987,3085,16513,3051.50,11,Sport,1,0,0,0,0,0,0,1654733413616,4138,4135,4126,4113,0,0,27,,,,,,,0,0,0,-19.00,4.00,-1210.00,1.00,0.00,-1339.00,31,8.00,3.61,5.29,-2.00,-3.00,0.00,0,,,100,100,0,1,0,0,0,0,6,,,,,0.0,3.0,0.0,0.0,0.0,0.0,0
33.737634,-118.104797,0.80,1.20,0.32,0.49,0.90,0.90,0.94,1.00,2307,2022-06-09 00:10:13.717,2022-06-08 17:10:13.717,16,0,0,16.513,33.737631,-118.104801,-0.10,-0.30,0.00,1.10,-0.30,-121.10,0,1,0,88,100,-6987,3085,16513,3051.50,11,Sport,1,0,0,0,0,0,0,1654733413717,4138,4135,4126,4113,0,0,27,,,,,,,0,0,0,-11.00,-3.00,-1211.00,1.00,0.00,-1339.00,31,8.00,3.16,4.92,-1.00,-3.00,0.00,0,,,100,100,0,1,0,0,0,0,6,,,,,0.0,3.0,0.0,0.0,0.0,0.0,0
33.737634,-118.104797,0.80,1.20,0.22,0.45,0.90,0.90,0.94,1.00,2406,2022-06-09 00:10:13.817,2022-06-08 17:10:13.817,16,0,0,16.513,33.737631,-118.104801,-0.10,-0.20,0.00,-0.60,-0.30,-121.20,0,1,0,88,100,-6987,3085,16513,3051.50,11,Sport,1,0,0,0,0,0,0,1654733413816,4138,4135,4126,4113,0,0,27,,,,,,,0,0,0,6.00,-3.00,-1212.00,1.00,0.00,-1339.00,31,8.00,2.24,4.49,-1.00,-2.00,0.00,0,,,100,100,0,1,0,0,0,0,6,,,,,0.0,3.0,0.0,0.0,0.0,0.0,0
33.737633,-118.104797,0.80,1.20,0.10,0.43,0.90,0.90,0.94,1.00,2516,2022-06-09 00:10:13.927,2022-06-08 17:10:13.927,16,0,0,16.513,33.737631,-118.104801,0.00,-0.10,0.00,-1.70,-0.30,-121.10,0,1,0,88,100,-6987,3085,16513,3051.50,11,Sport,1,0,0,0,0,0,0,1654733413926,4138,4135,4126,4113,0,0,27,,,,,,,0,0,0,17.00,-3.00,-1211.00,1.00,0.00,-1339.00,31,8.00,1.00,4.35,0.00,-1.00,0.00,0,,,100,100,0,1,0,0,0,0,6,,,,,0.0,3.0,0.0,0.0,0.0,0.0,0
33.737633,-118.104797,0.80,1.20,0.00,0.41,0.90,0.90,0.94,1.00,2592,2022-06-09 00:10:14.003,2022-06-08 17:10:14.003,16,0,0,16.513,33.737631,-118.104801,0.00,0.00,0.00,-2.80,-0.20,-121.20,0,1,0,88,100,-6987,3085,16513,3051.50,11,Sport,1,0,9,0,0,0,0,1654733414002,4138,4135,4126,4113,0,0,27,,,,,,,0,0,0,28.00,-2.00,-1212.00,1.00,0.00,-1339.00,31,8.00,0.00,4.12,0.00,0.00,0.00,0,,,100,100,0,1,0,0,0,0,6,,,,,0.0,3.2,0.0,0.0,0.0,0.0,0
33.737633,-118.104797,0.80,1.20,0.00,0.41,0.90,0.90,0.94,1.00,2696,2022-06-09 00:10:14.106,2022-06-08 17:10:14.106,16,0,0,16.513,33.737631,-118.104801,0.00,0.00,0.00,-3.90,-0.20,-121.20,0,1,0,88,100,-6987,3085,16513,3051.50,11,Sport,1,0,85,0,0,0,0,1654733414106,4138,4135,4126,4113,0,0,27,,,,,,,0,0,0,39.00,-2.00,-1212.00,1.00,0.00,-1339.00,31,8.00,0.00,4.11,0.00,0.00,0.00,0,,,100,100,0,1,0,0,0,0,6,,,,,0.0,3.2,0.0,0.0,0.0,0.0,0
33.737633,-118.104798,0.80,1.20,0.00,0.38,0.90,0.90,0.94,1.00,2794,2022-06-09 00:10:14.205,2022-06-08 17:10:14.205,16,0,0,16.513,33.737631,-118.104801,0.00,0.00,0.00,-5.20,-0.30,-121.20,0,1,0,88,100,-6987,3085,16513,3051.50,11,Sport,1,0,261,0,0,0,0,1654733414204,4138,4135,4126,4113,0,0,27,,,,,,,0,0,0,52.00,-3.00,-1212.00,1.00,0.00,-1339.00,31,8.00,0.00,3.81,0.00,0.00,0.00,0,,,100,100,0,1,0,0,0,0,6,,,,,0.0,3.3,0.0,0.0,0.0,0.0,0
33.737633,-118.104797,0.80,1.20,0.00,0.38,0.90,0.90,0.94,1.00,2894,2022-06-09 00:10:14.304,2022-06-08 17:10:14.304,16,0,0,16.513,33.737631,-118.104801,0.00,0.00,0.00,-10.40,-0.50,-121.20,0,1,0,88,100,-6987,3085,16513,3051.50,11,Sport,1,0,0,0,0,0,0,1654733414304,4138,4135,4126,4113,0,0,27,,,,,,,0,0,0,104.00,-5.00,-1212.00,1.00,0.00,-1339.00,31,8.00,0.00,3.84,0.00,0.00,0.00,0,,,100,100,0,1,0,0,0,0,6,,,,,0.0,3.3,0.0,0.0,0.0,0.0,0
33.737633,-118.104798,0.80,1.10,0.00,0.38,0.90,0.90,0.94,1.00,2994,2022-06-09 00:10:14.404,2022-06-08 17:10:14.404,16,0,0,16.513,33.737631,-118.104801,0.00,0.00,0.00,-7.20,-0.40,-121.10,0,1,0,88,100,-6987,3085,16513,3051.50,11,Sport,1,0,0,0,0,0,0,1654733414404,4138,4135,4126,4113,0,0,27,,,,,,,0,0,0,72.00,-4.00,-1211.00,1.00,0.00,-1339.00,31,8.00,0.00,3.82,0.00,0.00,0.00,0,,,100,100,0,1,0,0,0,0,6,,,,,0.0,4.0,0.0,0.0,0.0,0.0,0
33.737633,-118.104798,0.80,1.10,0.00,0.38,0.90,0.90,0.94,1.00,3093,2022-06-09 00:10:14.503,2022-06-08 17:10:14.503,16,0,0,16.513,33.737631,-118.104801,0.00,0.00,0.00,-5.20,-0.70,-121.20,0,1,0,88,100,-6987,3085,16513,3051.50,11,Sport,1,0,0,0,0,0,0,1654733414503,4138,4135,4126,4113,0,0,27,,,,,,,0,0,0,52.00,-7.00,-1212.00,1.00,0.00,-1339.00,31,8.00,0.00,3.79,0.00,0.00,0.00,0,,,100,100,0,1,0,0,0,0,6,,,,,0.0,4.0,0.0,0.0,0.0,0.0,0
33.737633,-118.104798,0.80,1.10,0.00,0.37,0.90,0.90,0.94,1.00,3193,2022-06-09 00:10:14.604,2022-06-08 17:10:14.604,16,0,0,16.513,33.737631,-118.104801,0.00,0.00,0.00,-4.70,-0.80,-121.10,0,1,0,88,100,-6987,3085,16513,3051.50,11,Sport,1,0,0,0,0,0,0,1654733414603,4138,4135,4126,4113,0,0,27,,,,,,,0,0,0,47.00,-8.00,-1211.00,1.00,0.00,-1339.00,31,8.00,0.00,3.74,0.00,0.00,0.00,0,,,100,100,0,1,0,0,0,0,6,,,,,0.0,3.3,0.0,0.0,0.0,0.0,0
33.737633,-118.104798,0.80,1.20,0.00,0.37,0.90,0.90,0.94,1.00,3294,2022-06-09 00:10:14.704,2022-06-08 17:10:14.704,16,0,0,16.489,33.737631,-118.104801,0.00,0.00,0.00,-5.20,-0.60,-120.90,0,1,0,88,100,-7031,3081,16489,3051.50,11,Sport,1,0,0,0,0,0,0,1654733414704,4138,4135,4126,4113,0,0,27,,,,,,,0,0,0,52.00,-6.00,-1209.00,1.00,0.00,-1339.00,31,8.00,0.00,3.74,0.00,0.00,0.00,0,,,100,100,0,1,0,0,0,0,6,,,,,0.0,3.3,0.0,0.0,0.0,0.0,0
33.737633,-118.104798,0.80,1.20,0.00,0.38,0.90,0.90,0.94,1.00,3392,2022-06-09 00:10:14.803,2022-06-08 17:10:14.803,16,0,0,16.489,33.737631,-118.104801,0.00,0.00,0.00,-5.40,-0.60,-121.00,0,1,0,88,100,-7031,3081,16489,3051.50,11,Sport,1,0,0,0,0,0,0,1654733414802,4138,4135,4126,4113,0,0,27,,,,,,,0,0,0,54.00,-6.00,-1210.00,1.00,0.00,-1339.00,31,8.00,0.00,3.82,0.00,0.00,0.00,0,,,100,100,0,1,0,0,0,0,6,,,,,0.0,3.3,0.0,0.0,0.0,0.0,0
33.737634,-118.104798,0.80,1.10,0.00,0.39,0.90,0.90,0.94,1.00,3494,2022-06-09 00:10:14.904,2022-06-08 17:10:14.904,16,0,0,16.489,33.737631,-118.104801,0.00,0.00,0.00,-5.00,-0.50,-121.00,0,1,0,88,100,-7031,3081,16489,3051.50,11,Sport,1,0,0,0,0,0,0,1654733414904,4138,4135,4126,4113,0,0,27,,,,,,,0,0,0,50.00,-5.00,-1210.00,1.00,0.00,-1339.00,31,8.00,0.00,3.86,0.00,0.00,0.00,0,,,100,100,0,1,0,0,0,0,6,,,,,0.0,3.3,0.0,0.0,0.0,0.0,0
33.737634,-118.104798,0.80,1.10,0.00,0.40,0.90,0.90,0.94,1.00,3594,2022-06-09 00:10:15.004,2022-06-08 17:10:15.005,16,0,0,16.489,33.737631,-118.104801,0.00,0.00,0.00,-5.70,-0.50,-121.10,0,1,0,88,100,-7031,3081,16489,3051.50,11,Sport,1,0,0,0,0,0,0,1654733415004,4138,4135,4126,4113,0,0,27,,,,,,,0,0,0,57.00,-5.00,-1211.00,1.00,0.00,-1339.00,31,8.00,0.00,3.96,0.00,0.00,0.00,0,,,100,100,0,1,0,0,0,0,6,,,,,0.0,3.1,0.0,0.0,0.0,0.0,0
33.737634,-118.104797,0.80,1.10,0.00,0.41,0.90,0.90,0.94,1.00,3694,2022-06-09 00:10:15.104,2022-06-08 17:10:15.104,16,0,0,16.489,33.737631,-118.104801,0.00,0.00,0.00,-6.20,-0.50,-121.00,0,1,0,88,100,-7031,3081,16489,3051.50,11,Sport,1,0,0,0,0,0,0,1654733415104,4138,4135,4126,4113,0,0,27,,,,,,,0,0,0,62.00,-5.00,-1210.00,1.00,0.00,-1339.00,31,8.00,0.00,4.05,0.00,0.00,0.00,0,,,100,100,0,1,0,0,0,0,6,,,,,0.0,3.1,0.0,0.0,0.0,0.0,0
33.737634,-118.104797,0.80,1.10,0.10,0.44,0.90,0.90,0.94,1.00,3794,2022-06-09 00:10:15.204,2022-06-08 17:10:15.204,16,0,0,16.489,33.737631,-118.104801,0.00,0.10,0.00,-6.60,-0.50,-121.00,0,1,0,88,100,-7031,3081,16489,3051.50,11,Sport,1,0,0,0,0,0,0,1654733415204,4138,4135,4126,4113,0,0,27,,,,,,,0,0,0,66.00,-5.00,-1210.00,1.00,0.00,-1339.00,31,8.00,1.00,4.35,0.00,1.00,0.00,0,,,100,100,0,1,0,0,0,0,6,,,,,0.0,3.2,0.0,0.0,0.0,0.0,0
33.737634,-118.104797,0.80,1.10,0.10,0.45,0.90,0.90,0.94,1.00,3894,2022-06-09 00:10:15.305,2022-06-08 17:10:15.305,16,0,0,16.489,33.737631,-118.104801,0.00,0.10,0.00,-7.10,-0.50,-121.00,0,1,0,88,100,-7031,3081,16489,3051.50,11,Sport,1,0,0,0,0,0,0,1654733415304,4138,4135,4126,4113,0,0,27,,,,,,,0,0,0,71.00,-5.00,-1210.00,1.00,0.00,-1339.00,31,8.00,1.00,4.49,0.00,1.00,0.00,0,,,100,100,0,1,0,0,0,0,6,,,,,0.0,3.2,0.0,0.0,0.0,0.0,0
33.737634,-118.104797,0.80,1.10,0.10,0.46,0.90,0.90,0.94,1.00,3994,2022-06-09 00:10:15.404,2022-06-08 17:10:15.405,16,0,0,16.489,33.737631,-118.104801,0.00,0.10,0.00,-7.40,-0.60,-121.00,0,1,0,88,100,-7031,3081,16489,3051.50,11,Sport,1,0,0,0,0,0,0,1654733415404,4138,4135,4126,4113,0,0,27,,,,,,,0,0,0,74.00,-6.00,-1210.00,1.00,0.00,-1339.00,31,8.00,1.00,4.56,0.00,1.00,0.00,0,,,100,100,0,1,0,0,0,0,6,,,,,0.0,2.6,0.0,0.0,0.0,0.0,0
33.737634,-118.104797,0.80,1.10,0.10,0.47,0.90,0.90,0.94,1.00,4095,2022-06-09 00:10:15.505,2022-06-08 17:10:15.505,16,0,0,16.489,33.737631,-118.104801,0.00,0.10,0.00,-7.60,-0.70,-121.00,0,1,0,88,100,-7031,3081,16489,3051.50,11,Sport,1,0,0,0,0,0,0,1654733415505,4138,4135,4126,4113,0,0,27,,,,,,,0,0,0,76.00,-7.00,-1210.00,1.00,0.00,-1339.00,31,8.00,1.00,4.69,0.00,1.00,0.00,0,,,100,100,0,1,0,0,0,0,6,,,,,0.0,2.6,0.0,0.0,0.0,0.0,0
33.737634,-118.104797,0.80,1.10,0.10,0.50,0.90,0.90,0.94,1.00,4196,2022-06-09 00:10:15.606,2022-06-08 17:10:15.606,16,0,0,16.489,33.737631,-118.104801,0.00,0.10,0.00,-7.50,-0.60,-121.00,0,1,0,88,100,-7031,3081,16489,3051.50,11,Sport,1,0,166,0,0,0,0,1654733415606,4138,4135,4126,4113,0,0,27,,,,,,,0,0,0,75.00,-6.00,-1210.00,1.00,0.00,-1339.00,31,8.00,1.00,4.96,0.00,1.00,0.00,0,,,100,100,0,1,0,0,0,0,6,,,,,0.0,0.0,0.0,0.0,0.0,0.0,0
33.737634,-118.104797,0.80,1.10,0.10,0.51,0.90,0.90,0.94,1.00,4297,2022-06-09 00:10:15.707,2022-06-08 17:10:15.707,16,0,0,16.489,33.737631,-118.104801,0.00,0.10,0.00,-8.70,-0.40,-121.00,0,1,0,88,100,-7031,3081,16489,3051.50,11,Sport,1,0,213,0,0,0,0,1654733415707,4138,4135,4126,4113,0,0,27,,,,,,,0,0,0,87.00,-4.00,-1210.00,1.00,0.00,-1339.00,31,8.00,1.00,5.10,0.00,1.00,0.00,0,,,100,100,0,1,0,0,0,0,6,,,,,0.0,0.0,0.0,0.0,0.0,0.0,0
33.737634,-118.104797,0.80,1.10,0.00,0.52,0.90,0.90,0.94,1.00,4396,2022-06-09 00:10:15.807,2022-06-08 17:10:15.807,16,0,0,16.489,33.737631,-118.104801,0.00,0.00,0.00,-12.40,-0.50,-121.00,0,1,0,88,100,-7031,3081,16489,3051.50,11,Sport,1,0,0,0,0,0,0,1654733415806,4138,4135,4126,4113,0,0,27,,,,,,,0,0,0,124.00,-5.00,-1210.00,1.00,0.00,-1339.00,31,8.00,0.00,5.19,0.00,0.00,0.00,0,,,100,100,0,1,0,0,0,0,6,,,,,0.0,0.0,0.0,0.0,0.0,0.0,0
33.737634,-118.104797,0.80,1.10,0.00,0.52,0.90,0.90,0.94,1.00,4497,2022-06-09 00:10:15.908,2022-06-08 17:10:15.908,16,0,0,16.489,33.737631,-118.104801,0.00,0.00,0.00,-9.10,-0.60,-121.00,0,1,0,88,100,-7031,3081,16489,3051.50,11,Sport,1,0,0,0,0,0,0,1654733415907,4138,4135,4126,4113,0,0,27,,,,,,,0,0,0,91.00,-6.00,-1210.00,1.00,0.00,-1339.00,31,8.00,0.00,5.23,0.00,0.00,0.00,0,,,100,100,0,1,0,0,0,0,6,,,,,0.0,0.0,0.0,0.0,0.0,0.0,0
33.737635,-118.104797,0.80,1.10,0.00,0.54,0.90,0.90,0.94,1.00,4596,2022-06-09 00:10:16.006,2022-06-08 17:10:16.006,16,0,0,16.489,33.737631,-118.104801,0.00,0.00,0.00,-6.80,-0.70,-121.00,0,1,0,88,100,-7031,3081,16489,3051.50,11,Sport,1,0,0,0,0,0,0,1654733416006,4138,4135,4126,4113,0,0,27,,,,,,,0,0,0,68.00,-7.00,-1210.00,1.00,0.00,-1339.00,31,8.00,0.00,5.44,0.00,0.00,0.00,0,,,100,100,0,1,0,0,0,0,6,,,,,0.0,0.0,0.0,0.0,0.0,0.0,0
33.737635,-118.104797,0.80,1.10,0.00,0.54,0.90,0.90,0.94,1.00,4695,2022-06-09 00:10:16.106,2022-06-08 17:10:16.106,16,0,0,16.489,33.737631,-118.104801,0.00,0.00,0.00,-6.00,-0.70,-121.10,0,1,0,88,100,-7031,3081,16489,3051.50,11,Sport,1,0,295,0,0,0,0,1654733416105,4138,4135,4126,4113,0,0,27,,,,,,,0,0,0,60.00,-7.00,-1211.00,1.00,0.00,-1339.00,31,8.00,0.00,5.45,0.00,0.00,0.00,0,,,100,100,0,1,0,0,0,0,6,,,,,0.0,0.0,0.0,0.0,0.0,0.0,0
33.737635,-118.104796,0.80,1.10,0.00,0.55,0.90,0.90,0.94,1.00,4793,2022-06-09 00:10:16.204,2022-06-08 17:10:16.204,16,0,0,16.489,33.737631,-118.104801,0.00,0.00,0.00,-10.00,-0.60,-121.00,0,1,0,88,100,-7031,3081,16489,3051.50,11,Sport,1,0,207,0,0,0,0,1654733416203,4138,4135,4126,4113,0,0,27,,,,,,,0,0,0,100.00,-6.00,-1210.00,1.00,0.00,-1339.00,31,8.00,0.00,5.51,0.00,0.00,0.00,0,,,100,100,0,1,0,0,0,0,6,,,,,0.0,0.0,0.0,0.0,0.0,0.0,0
33.737635,-118.104797,0.80,1.10,0.00,0.55,0.90,0.90,0.94,1.00,4893,2022-06-09 00:10:16.304,2022-06-08 17:10:16.304,16,0,0,16.489,33.737631,-118.104801,0.00,0.00,0.00,-15.60,-0.50,-120.90,0,1,0,88,100,-7031,3081,16489,3051.50,11,Sport,1,0,0,0,0,0,0,1654733416303,4138,4135,4126,4113,0,0,27,,,,,,,0,0,0,156.00,-5.00,-1209.00,1.00,0.00,-1339.00,31,8.00,0.00,5.49,0.00,0.00,0.00,0,,,100,100,0,1,0,0,0,0,6,,,,,0.0,0.0,0.0,0.0,0.0,0.0,0
33.737635,-118.104797,0.80,1.10,0.10,0.54,0.90,0.90,0.94,1.00,4994,2022-06-09 00:10:16.405,2022-06-08 17:10:16.405,16,0,0,16.489,33.737631,-118.104801,0.00,-0.10,0.00,-9.40,0.00,-120.80,0,1,0,88,100,-7031,3081,16489,3051.50,11,Sport,1,0,0,0,0,0,0,1654733416404,4138,4135,4126,4113,0,0,27,,,,,,,0,0,0,94.00,0.00,-1208.00,1.00,0.00,-1339.00,31,8.00,1.00,5.40,0.00,-1.00,0.00,0,,,100,100,0,1,0,0,0,0,6,,,,,0.0,0.0,0.0,0.0,0.0,0.0,0
33.737635,-118.104797,0.80,1.10,0.14,0.52,0.90,0.90,0.94,1.00,5094,2022-06-09 00:10:16.505,2022-06-08 17:10:16.505,16,0,0,16.489,33.737631,-118.104801,-0.10,-0.10,0.00,-5.40,-0.10,-121.10,0,1,0,88,100,-7031,3081,16489,3051.50,11,Sport,1,0,121,0,0,0,0,1654733416504,4138,4135,4126,4113,0,0,27,,,,,,,0,0,0,54.00,-1.00,-1211.00,1.00,0.00,-1339.00,31,8.00,1.41,5.20,-1.00,-1.00,0.00,0,,,100,100,0,1,0,0,0,0,6,,,,,0.0,0.0,0.0,0.0,0.0,0.0,0
33.737635,-118.104797,0.80,1.10,0.10,0.51,0.90,0.90,0.94,1.00,5196,2022-06-09 00:10:16.606,2022-06-08 17:10:16.606,16,0,0,16.489,33.737631,-118.104801,0.00,-0.10,0.00,-5.10,-0.40,-121.10,0,1,0,88,100,-7031,3081,16489,3051.50,11,Sport,1,0,347,0,0,0,0,1654733416606,4138,4135,4126,4113,0,0,27,,,,,,,0,0,0,51.00,-4.00,-1211.00,1.00,0.00,-1339.00,31,8.00,1.00,5.13,0.00,-1.00,0.00,0,,,100,100,0,1,0,0,0,0,6,,,,,0.0,0.0,0.0,0.0,0.0,0.0,0
33.737634,-118.104797,0.80,1.10,0.10,0.50,0.90,0.90,0.94,1.00,5294,2022-06-09 00:10:16.705,2022-06-08 17:10:16.705,16,0,0,16.489,33.737631,-118.104801,0.00,-0.10,0.00,-13.10,-0.30,-121.00,0,1,0,88,100,-7031,3081,16489,3051.50,11,Sport,1,0,346,0,0,0,0,1654733416704,4138,4135,4126,4113,0,0,27,,,,,,,0,0,0,131.00,-3.00,-1210.00,1.00,0.00,-1339.00,31,8.00,1.00,4.99,0.00,-1.00,0.00,0,,,100,100,0,1,0,0,0,0,6,,,,,0.0,0.0,0.0,0.0,0.0,0.0,0
33.737634,-118.104797,0.80,1.10,0.22,0.48,0.90,0.90,0.94,1.00,5396,2022-06-09 00:10:16.806,2022-06-08 17:10:16.806,16,0,0,16.434,33.737631,-118.104801,-0.10,-0.20,0.00,-21.20,-0.10,-120.90,0,1,0,88,100,-6837,3077,16434,3051.50,11,Sport,1,0,0,0,0,0,0,1654733416806,4138,4135,4126,4113,0,0,27,,,,,,,0,0,0,212.00,-1.00,-1209.00,1.00,0.00,-1339.00,31,8.00,2.24,4.80,-1.00,-2.00,0.00,0,,,100,100,0,1,0,0,0,0,6,,,,,0.0,0.0,0.0,0.0,0.0,0.0,0
33.737634,-118.104798,0.80,1.10,0.45,0.44,0.90,0.90,0.94,1.00,5495,2022-06-09 00:10:16.905,2022-06-08 17:10:16.905,16,0,0,16.434,33.737631,-118.104801,-0.20,-0.40,0.00,-15.90,-0.30,-121.00,0,1,0,88,100,-6837,3077,16434,3051.50,11,Sport,1,0,0,0,0,0,0,1654733416905,4138,4135,4126,4113,0,0,27,,,,,,,0,0,0,159.00,-3.00,-1210.00,1.00,0.00,-1339.00,31,8.00,4.47,4.41,-2.00,-4.00,0.00,0,,,100,100,0,1,0,0,0,0,6,,,,,0.0,0.0,0.0,0.0,0.0,0.0,0
33.737634,-118.104798,0.80,1.10,0.54,0.37,0.90,0.90,0.94,1.00,5596,2022-06-09 00:10:17.006,2022-06-08 17:10:17.006,16,0,0,16.434,33.737631,-118.104801,-0.20,-0.50,0.00,-6.30,-0.70,-121.00,0,1,0,88,100,-6837,3077,16434,3051.50,11,Sport,1,0,84,0,0,0,0,1654733417006,4138,4135,4126,4113,0,0,27,,,,,,,0,0,0,63.00,-7.00,-1210.00,1.00,0.00,-1339.00,31,8.00,5.39,3.73,-2.00,-5.00,0.00,0,,,100,100,0,1,0,0,0,0,6,,,,,0.0,0.0,0.0,0.0,0.0,0.0,0
33.737634,-118.104799,0.80,1.10,0.46,0.32,0.90,0.90,0.94,1.00,5695,2022-06-09 00:10:17.106,2022-06-08 17:10:17.106,16,0,0,16.434,33.737631,-118.104801,-0.20,-0.40,-0.10,-2.50,-0.90,-121.10,0,1,0,88,100,-6837,3077,16434,3051.50,11,Sport,1,0,232,0,0,0,0,1654733417105,4138,4135,4126,4113,0,0,27,,,,,,,0,0,0,25.00,-9.00,-1211.00,1.00,0.00,-1339.00,31,8.00,4.58,3.22,-2.00,-4.00,-1.00,0,,,100,100,0,1,0,0,0,0,6,,,,,0.0,0.0,0.0,0.0,0.0,0.0,0
33.737634,-118.104799,0.80,1.10,0.36,0.30,0.90,0.90,0.94,1.00,5797,2022-06-09 00:10:17.207,2022-06-08 17:10:17.207,16,0,0,16.434,33.737631,-118.104801,-0.20,-0.30,0.00,-7.00,-0.80,-121.10,0,1,0,88,100,-6837,3077,16434,3051.50,11,Sport,1,0,0,0,0,0,0,1654733417207,4138,4135,4126,4113,0,0,27,,,,,,,0,0,0,70.00,-8.00,-1211.00,1.00,0.00,-1339.00,31,8.00,3.61,2.96,-2.00,-3.00,0.00,0,,,100,100,0,1,0,0,0,0,6,,,,,0.0,0.0,0.0,0.0,0.0,0.0,0
33.737633,-118.104800,0.80,1.10,0.36,0.26,0.90,0.90,0.94,1.00,5896,2022-06-09 00:10:17.306,2022-06-08 17:10:17.306,16,0,0,16.434,33.737631,-118.104801,-0.20,-0.30,0.00,-6.90,-0.70,-121.00,0,1,0,88,100,-6837,3077,16434,3051.50,11,Sport,1,0,0,0,0,0,0,1654733417306,4138,4135,4126,4113,0,0,27,,,,,,,0,0,0,69.00,-7.00,-1210.00,1.00,0.00,-1339.00,31,8.00,3.61,2.59,-2.00,-3.00,0.00,0,,,100,100,0,1,0,0,0,0,6,,,,,0.0,0.0,0.0,0.0,0.0,0.0,0
33.737633,-118.104800,0.80,1.10,0.36,0.23,0.90,0.90,0.94,1.00,5995,2022-06-09 00:10:17.406,2022-06-08 17:10:17.406,16,0,0,16.434,33.737631,-118.104801,-0.20,-0.30,0.00,-4.10,-0.60,-121.10,0,1,0,88,100,-6837,3077,16434,3051.50,11,Sport,1,0,0,0,0,0,0,1654733417405,4138,4135,4126,4113,0,0,27,,,,,,,0,0,0,41.00,-6.00,-1211.00,1.00,0.00,-1339.00,31,8.00,3.61,2.27,-2.00,-3.00,0.00,0,,,100,100,0,1,0,0,0,0,6,,,,,0.0,0.0,0.0,0.0,0.0,0.0,0
33.737633,-118.104800,0.80,1.00,0.32,0.20,0.90,0.90,0.94,1.00,6097,2022-06-09 00:10:17.508,2022-06-08 17:10:17.508,16,0,0,16.434,33.737631,-118.104801,-0.10,-0.30,0.00,-2.50,-0.60,-121.10,0,1,0,88,100,-6837,3077,16434,3051.50,11,Sport,1,0,0,0,0,0,0,1654733417507,4138,4135,4126,4113,0,0,27,,,,,,,0,0,0,25.00,-6.00,-1211.00,1.00,0.00,-1339.00,31,8.00,3.16,1.99,-1.00,-3.00,0.00,0,,,100,100,0,1,0,0,0,0,6,,,,,0.0,0.0,0.0,0.0,0.0,0.0,0
33.737633,-118.104801,0.80,0.90,0.22,0.17,0.90,0.90,0.94,1.00,6195,2022-06-09 00:10:17.606,2022-06-08 17:10:17.606,16,0,0,16.434,33.737631,-118.104801,-0.10,-0.20,0.00,-2.20,-0.60,-121.10,0,1,0,88,100,-6837,3077,16434,3051.50,11,Sport,1,0,0,0,0,0,0,1654733417605,4138,4135,4126,4113,0,0,27,,,,,,,0,0,0,22.00,-6.00,-1211.00,1.00,0.00,-1339.00,31,8.00,2.24,1.73,-1.00,-2.00,0.00,0,,,100,100,0,1,0,0,0,0,6,,,,,0.0,0.0,0.0,0.0,0.0,0.0,0
33.737633,-118.104801,0.80,0.90,0.10,0.16,0.90,0.90,0.94,1.00,6301,2022-06-09 00:10:17.712,2022-06-08 17:10:17.712,16,0,0,16.434,33.737631,-118.104801,0.00,-0.10,0.00,-2.50,-0.40,-121.10,0,1,0,88,100,-6837,3077,16434,3051.50,11,Sport,1,0,0,0,0,0,0,1654733417711,4138,4135,4126,4113,0,0,27,,,,,,,0,0,0,25.00,-4.00,-1211.00,1.00,0.00,-1339.00,31,8.00,1.00,1.63,0.00,-1.00,0.00,0,,,100,100,0,1,0,0,0,0,6,,,,,0.0,0.0,0.0,0.0,0.0,0.0,0
33.737633,-118.104801,0.80,0.80,0.00,0.16,0.90,0.90,0.94,1.00,6401,2022-06-09 00:10:17.812,2022-06-08 17:10:17.812,16,0,0,16.434,33.737631,-118.104801,0.00,0.00,0.00,-3.50,-0.40,-121.10,0,1,0,88,100,-6837,3077,16434,3051.50,11,Sport,1,0,0,0,0,0,0,1654733417811,4138,4135,4126,4113,0,0,27,,,,,,,0,0,0,35.00,-4.00,-1211.00,1.00,0.00,-1339.00,31,8.00,0.00,1.63,0.00,0.00,0.00,0,,,100,100,0,1,0,0,0,0,6,,,,,0.0,0.0,0.0,0.0,0.0,0.0,0
33.737633,-118.104801,0.80,0.80,0.00,0.16,0.90,0.90,0.94,1.00,6500,2022-06-09 00:10:17.911,2022-06-08 17:10:17.911,16,0,0,16.434,33.737631,-118.104801,0.00,0.00,0.00,-4.30,-0.70,-121.10,0,1,0,88,100,-6837,3077,16434,3051.50,11,Sport,1,0,0,0,0,0,0,1654733417910,4138,4135,4126,4113,0,0,27,,,,,,,0,0,0,43.00,-7.00,-1211.00,1.00,0.00,-1339.00,31,8.00,0.00,1.64,0.00,0.00,0.00,0,,,100,100,0,1,0,0,0,0,6,,,,,0.0,0.0,0.0,0.0,0.0,0.0,0
33.737633,-118.104801,0.80,0.90,0.00,0.17,0.90,0.90,0.94,1.00,6599,2022-06-09 00:10:18.010,2022-06-08 17:10:18.010,16,0,0,16.434,33.737631,-118.104801,0.00,0.00,0.00,-5.10,-0.60,-121.10,0,1,0,88,100,-6837,3077,16434,3051.50,11,Sport,1,0,0,0,188,0,0,1654733418009,4138,4135,4126,4113,0,0,27,,,,,,,0,0,0,51.00,-6.00,-1211.00,1.00,0.00,-1339.00,31,8.00,0.00,1.66,0.00,0.00,0.00,0,,,100,100,0,1,0,0,0,0,6,,,,,0.0,0.0,0.0,0.0,0.0,0.0,0
33.737633,-118.104801,0.80,0.90,0.00,0.17,0.90,0.90,0.94,1.00,6702,2022-06-09 00:10:18.113,2022-06-08 17:10:18.113,16,0,0,16.434,33.737631,-118.104801,0.00,0.00,0.00,-5.20,-0.60,-121.10,0,1,0,88,100,-6837,3077,16434,3051.50,11,Sport,1,0,0,0,228,0,0,1654733418112,4138,4135,4126,4113,0,0,27,,,,,,,0,0,0,52.00,-6.00,-1211.00,1.00,0.00,-1339.00,31,8.00,0.00,1.72,0.00,0.00,0.00,0,,,100,100,0,1,0,0,0,0,6,,,,,0.0,0.0,0.0,0.0,0.0,0.0,0
33.737633,-118.104801,0.80,0.90,0.20,0.17,0.90,0.90,0.94,1.00,6797,2022-06-09 00:10:18.207,2022-06-08 17:10:18.208,16,0,0,16.434,33.737631,-118.104801,0.00,0.00,-0.20,-5.70,-0.60,-121.00,0,1,0,88,100,-6837,3077,16434,3051.50,11,Sport,1,0,0,0,0,0,0,1654733418207,4138,4135,4126,4113,0,0,27,,,,,,,0,0,0,57.00,-6.00,-1210.00,1.00,0.00,-1339.00,31,8.00,2.00,1.71,0.00,0.00,-2.00,0,,,100,100,0,1,0,0,0,0,6,,,,,0.0,0.0,0.0,0.0,0.0,0.0,0
33.737633,-118.104801,0.80,0.90,0.10,0.18,0.90,0.90,0.94,1.00,6896,2022-06-09 00:10:18.306,2022-06-08 17:10:18.307,16,0,0,16.434,33.737631,-118.104801,0.00,0.00,-0.10,-7.20,-0.70,-121.00,0,1,0,88,100,-6837,3077,16434,3051.50,11,Sport,1,0,0,0,0,0,0,1654733418306,4138,4135,4126,4113,0,0,27,,,,,,,0,0,0,72.00,-7.00,-1210.00,1.00,0.00,-1339.00,31,8.00,1.00,1.79,0.00,0.00,-1.00,0,,,100,100,0,1,0,0,0,0,6,,,,,0.0,0.0,0.0,0.0,0.0,0.0,0
33.737633,-118.104801,0.80,0.90,0.00,0.20,0.90,0.90,0.94,1.00,6995,2022-06-09 00:10:18.406,2022-06-08 17:10:18.406,16,0,0,16.434,33.737631,-118.104801,0.00,0.00,0.00,-7.70,-0.80,-121.00,0,1,0,88,100,-6837,3077,16434,3051.50,11,Sport,1,0,0,0,145,0,0,1654733418405,4138,4135,4126,4113,0,0,27,,,,,,,0,0,0,77.00,-8.00,-1210.00,1.00,0.00,-1339.00,31,8.00,0.00,1.95,0.00,0.00,0.00,0,,,100,100,0,1,0,0,0,0,6,,,,,0.0,0.0,0.0,0.0,0.0,0.0,0
33.737633,-118.104801,0.80,0.90,0.10,0.21,0.90,0.90,0.94,1.00,7098,2022-06-09 00:10:18.508,2022-06-08 17:10:18.508,16,0,0,16.434,33.737631,-118.104801,0.00,0.10,0.00,-7.40,-1.00,-121.10,0,1,0,88,100,-6837,3077,16434,3051.50,11,Sport,1,0,0,0,253,0,0,1654733418508,4138,4135,4126,4113,0,0,27,,,,,,,0,0,0,74.00,-10.00,-1211.00,1.00,0.00,-1339.00,31,8.00,1.00,2.08,0.00,1.00,0.00,0,,,100,100,0,1,0,0,0,0,6,,,,,0.0,0.0,0.0,0.0,0.0,0.0,0
33.737633,-118.104801,0.80,1.00,0.22,0.21,0.90,0.90,0.94,1.00,7197,2022-06-09 00:10:18.607,2022-06-08 17:10:18.607,16,0,0,16.434,33.737631,-118.104801,0.10,0.00,-0.20,-7.20,-1.30,-121.10,0,1,0,88,100,-6837,3077,16434,3051.50,11,Sport,1,0,0,0,199,0,0,1654733418607,4138,4135,4126,4113,0,0,27,,,,,,,0,0,0,72.00,-13.00,-1211.00,1.00,0.00,-1339.00,31,8.00,2.24,2.14,1.00,0.00,-2.00,0,,,100,100,0,1,0,0,0,0,6,,,,,0.0,0.0,0.0,0.0,0.0,0.0,0
33.737633,-118.104801,0.90,1.00,0.32,0.23,0.90,0.90,0.94,1.00,7297,2022-06-09 00:10:18.708,2022-06-08 17:10:18.708,16,0,0,16.434,33.737631,-118.104801,0.00,0.10,-0.30,-8.20,-1.10,-121.10,0,1,0,88,100,-6837,3077,16434,3051.50,11,Sport,1,0,0,0,0,0,0,1654733418707,4138,4135,4126,4113,0,0,27,,,,,,,0,0,0,82.00,-11.00,-1211.00,1.00,0.00,-1339.00,31,9.00,3.16,2.27,0.00,1.00,-3.00,0,,,100,100,0,1,0,0,0,0,6,,,,,0.0,0.0,0.0,0.0,0.0,0.0,0
33.737634,-118.104800,0.90,1.10,0.14,0.24,0.90,0.90,0.94,1.00,7397,2022-06-09 00:10:18.807,2022-06-08 17:10:18.807,16,0,0,16.439,33.737631,-118.104801,0.00,0.10,-0.10,-9.40,-0.90,-121.00,0,1,0,87,100,-6644,3073,16439,3051.50,11,Sport,1,0,0,0,92,0,0,1654733418807,4138,4135,4126,4113,0,0,27,,,,,,,0,0,0,94.00,-9.00,-1210.00,1.00,0.00,-1339.00,31,9.00,1.41,2.41,0.00,1.00,-1.00,0,,,100,100,0,1,0,0,0,0,6,,,,,0.0,0.0,0.0,0.0,0.0,0.0,0
33.737634,-118.104800,0.90,1.10,0.10,0.25,0.90,0.90,0.94,1.00,7496,2022-06-09 00:10:18.906,2022-06-08 17:10:18.906,16,0,0,16.439,33.737631,-118.104801,0.00,0.10,0.00,-9.20,-1.10,-121.10,0,1,0,87,100,-6644,3073,16439,3051.50,11,Sport,1,0,0,0,243,0,0,1654733418906,4138,4135,4126,4113,0,0,27,,,,,,,0,0,0,92.00,-11.00,-1211.00,1.00,0.00,-1339.00,31,9.00,1.00,2.54,0.00,1.00,0.00,0,,,100,100,0,1,0,0,0,0,6,,,,,0.0,0.0,0.0,0.0,0.0,0.0,0
33.737634,-118.104800,0.90,1.20,0.20,0.28,0.90,0.90,0.94,1.00,7596,2022-06-09 00:10:19.006,2022-06-08 17:10:19.006,16,0,0,16.439,33.737631,-118.104801,0.00,0.00,-0.20,-7.80,-0.80,-121.10,0,1,0,87,100,-6644,3073,16439,3051.50,11,Sport,1,0,0,0,256,0,0,1654733419006,4138,4135,4126,4113,0,0,27,,,,,,,0,0,0,78.00,-8.00,-1211.00,1.00,0.00,-1339.00,31,9.00,2.00,2.76,0.00,0.00,-2.00,0,,,100,100,0,1,0,0,0,0,6,,,,,0.0,0.0,0.0,0.0,0.0,0.0,0
33.737634,-118.104800,1.00,1.30,0.40,0.29,1.00,1.00,0.94,1.00,7698,2022-06-09 00:10:19.108,2022-06-08 17:10:19.109,16,0,0,16.439,33.737631,-118.104801,0.00,0.00,-0.40,-7.50,-0.70,-121.10,0,1,0,87,100,-6644,3073,16439,3051.50,11,Sport,1,0,0,0,263,0,0,1654733419108,4138,4135,4126,4113,0,0,27,,,,,,,0,0,0,75.00,-7.00,-1211.00,1.00,0.00,-1339.00,31,10.00,4.00,2.86,0.00,0.00,-4.00,0,,,100,100,0,1,0,0,0,0,6,,,,,0.0,0.0,0.0,0.0,0.0,0.0,0
33.737634,-118.104800,1.00,1.30,0.50,0.30,1.00,1.00,0.94,1.00,7799,2022-06-09 00:10:19.210,2022-06-08 17:10:19.210,16,0,0,16.439,33.737631,-118.104801,0.00,0.00,-0.50,-7.80,-0.40,-121.10,0,1,0,87,100,-6644,3073,16439,3051.50,11,Sport,1,0,0,0,257,0,0,1654733419209,4138,4135,4126,4113,0,0,27,,,,,,,0,0,0,78.00,-4.00,-1211.00,1.00,0.00,-1339.00,31,10.00,5.00,2.97,0.00,0.00,-5.00,0,,,100,100,0,1,0,0,0,0,6,,,,,0.0,0.0,0.0,0.0,0.0,0.0,0
33.737634,-118.104800,1.10,1.40,0.50,0.31,1.10,1.10,0.94,1.00,7899,2022-06-09 00:10:19.309,2022-06-08 17:10:19.310,16,0,0,16.439,33.737631,-118.104801,0.00,0.00,-0.50,-8.10,-0.10,-121.10,0,1,0,87,100,-6644,3073,16439,3051.50,11,Sport,1,0,0,0,221,0,0,1654733419309,4138,4135,4126,4113,0,0,27,,,,,,,0,0,0,81.00,-1.00,-1211.00,1.00,0.00,-1339.00,31,11.00,5.00,3.06,0.00,0.00,-5.00,0,,,100,100,0,1,0,0,0,0,6,,,,,0.0,0.0,0.0,0.0,0.0,0.0,0
33.737634,-118.104800,1.10,1.40,0.50,0.30,1.10,1.10,0.94,1.00,7996,2022-06-09 00:10:19.406,2022-06-08 17:10:19.406,16,0,0,16.439,33.737631,-118.104801,0.00,0.00,-0.50,-8.40,-0.10,-121.10,0,1,0,87,100,-6644,3073,16439,3051.50,11,Sport,1,0,0,0,0,0,0,1654733419406,4138,4135,4126,4113,0,0,27,,,,,,,0,0,0,84.00,-1.00,-1211.00,1.00,0.00,-1339.00,31,11.00,5.00,3.03,0.00,0.00,-5.00,0,,,100,100,0,1,0,0,0,0,6,,,,,0.0,0.0,0.0,0.0,0.0,0.0,0
33.737634,-118.104800,1.20,1.50,0.30,0.31,1.20,1.20,0.94,1.00,8096,2022-06-09 00:10:19.507,2022-06-08 17:10:19.507,16,0,0,16.439,33.737631,-118.104801,0.00,0.00,-0.30,-9.00,0.00,-121.10,0,1,0,87,100,-6644,3073,16439,3051.50,11,Sport,1,0,0,0,0,0,0,1654733419506,4138,4135,4126,4113,0,0,27,,,,,,,0,0,0,90.00,0.00,-1211.00,1.00,0.00,-1339.00,31,12.00,3.00,3.08,0.00,0.00,-3.00,0,,,100,100,0,1,0,0,0,0,6,,,,,0.0,0.0,0.0,0.0,0.0,0.0,0
33.737634,-118.104800,1.20,1.50,0.10,0.29,1.20,1.20,0.94,1.00,8196,2022-06-09 00:10:19.606,2022-06-08 17:10:19.607,16,0,0,16.439,33.737631,-118.104801,0.00,0.00,-0.10,-8.40,0.20,-121.00,0,1,0,87,100,-6644,3073,16439,3051.50,11,Sport,1,0,0,0,0,0,0,1654733419606,4138,4135,4126,4113,0,0,27,,,,,,,0,0,0,84.00,2.00,-1210.00,1.00,0.00,-1339.00,31,12.00,1.00,2.95,0.00,0.00,-1.00,0,,,100,100,0,1,0,0,0,0,6,,,,,0.0,0.0,0.0,0.0,0.0,0.0,0
33.737634,-118.104800,1.20,1.50,0.10,0.30,1.20,1.20,0.94,1.00,8297,2022-06-09 00:10:19.707,2022-06-08 17:10:19.707,16,0,0,16.439,33.737631,-118.104801,0.00,0.00,-0.10,-7.60,0.30,-121.00,0,1,0,87,100,-6644,3073,16439,3051.50,11,Sport,1,0,0,0,0,0,0,1654733419707,4138,4135,4126,4113,0,0,27,,,,,,,0,0,0,76.00,3.00,-1210.00,1.00,0.00,-1339.00,31,12.00,1.00,2.96,0.00,0.00,-1.00,0,,,100,100,0,1,0,0,0,0,6,,,,,0.0,0.0,0.0,0.0,0.0,0.0,0
33.737634,-118.104800,1.20,1.60,0.00,0.30,1.20,1.20,0.94,1.00,8397,2022-06-09 00:10:19.807,2022-06-08 17:10:19.807,16,0,0,16.439,33.737631,-118.104801,0.00,0.00,0.00,-7.30,0.50,-121.00,0,1,0,87,100,-6644,3073,16439,3051.50,11,Sport,1,0,0,0,0,0,0,1654733419807,4138,4135,4126,4113,0,0,27,,,,,,,0,0,0,73.00,5.00,-1210.00,1.00,0.00,-1339.00,31,12.00,0.00,3.02,0.00,0.00,0.00,0,,,100,100,0,1,0,0,0,0,6,,,,,0.0,0.0,0.0,0.0,0.0,0.0,0
33.737634,-118.104800,1.20,1.50,0.00,0.30,1.20,1.20,0.94,1.00,8496,2022-06-09 00:10:19.906,2022-06-08 17:10:19.906,16,0,0,16.439,33.737631,-118.104801,0.00,0.00,0.00,-7.30,0.50,-120.90,0,1,0,87,100,-6644,3073,16439,3051.50,11,Sport,1,0,0,0,0,0,0,1654733419906,4138,4135,4126,4113,0,0,27,,,,,,,0,0,0,73.00,5.00,-1209.00,1.00,0.00,-1339.00,31,12.00,0.00,3.02,0.00,0.00,0.00,0,,,100,100,0,1,0,0,0,0,6,,,,,0.0,0.0,0.0,0.0,0.0,0.0,0
33.737634,-118.104799,1.20,1.50,0.00,0.31,1.20,1.20,0.94,1.00,8595,2022-06-09 00:10:20.006,2022-06-08 17:10:20.006,16,0,0,16.439,33.737631,-118.104801,0.00,0.00,0.00,-6.80,0.00,-121.00,0,1,0,87,100,-6644,3073,16439,3051.50,11,Sport,1,0,0,0,0,0,0,1654733420005,4138,4135,4126,4113,0,0,27,,,,,,,0,0,0,68.00,0.00,-1210.00,1.00,0.00,-1339.00,31,12.00,0.00,3.06,0.00,0.00,0.00,0,,,100,100,0,1,0,0,0,0,6,,,,,0.0,0.0,0.0,0.0,0.0,0.0,0
33.737634,-118.104799,1.20,1.50,0.00,0.31,1.20,1.20,0.94,1.00,8696,2022-06-09 00:10:20.107,2022-06-08 17:10:20.107,16,0,0,16.439,33.737631,-118.104801,0.00,0.00,0.00,-6.80,0.20,-121.00,0,1,0,87,100,-6644,3073,16439,3051.50,11,Sport,1,0,0,0,0,0,0,1654733420106,4138,4135,4126,4113,0,0,27,,,,,,,0,0,0,68.00,2.00,-1210.00,1.00,0.00,-1339.00,31,12.00,0.00,3.06,0.00,0.00,0.00,0,,,100,100,0,1,0,0,0,0,6,,,,,0.0,0.0,0.0,0.0,0.0,0.0,0
33.737634,-118.104799,1.20,1.50,0.00,0.31,1.20,1.20,0.94,1.00,8795,2022-06-09 00:10:20.206,2022-06-08 17:10:20.206,16,0,0,16.439,33.737631,-118.104801,0.00,0.00,0.00,-6.70,0.30,-121.10,0,1,0,87,100,-6644,3073,16439,3051.50,11,Sport,1,0,0,0,0,0,0,1654733420205,4138,4135,4126,4113,0,0,27,,,,,,,0,0,0,67.00,3.00,-1211.00,1.00,0.00,-1339.00,31,12.00,0.00,3.09,0.00,0.00,0.00,0,,,100,100,0,1,0,0,0,0,6,,,,,0.0,0.0,0.0,0.0,0.0,0.0,0
33.737634,-118.104799,1.20,1.50,0.00,0.31,1.20,1.20,0.94,1.00,8896,2022-06-09 00:10:20.307,2022-06-08 17:10:20.307,16,0,0,16.439,33.737631,-118.104801,0.00,0.00,0.00,-6.80,0.30,-121.10,0,1,0,87,100,-6644,3073,16439,3051.50,11,Sport,1,0,0,7,0,0,0,1654733420306,4138,4135,4126,4113,0,0,27,,,,,,,0,0,0,68.00,3.00,-1211.00,1.00,0.00,-1339.00,31,12.00,0.00,3.10,0.00,0.00,0.00,0,,,100,100,0,1,0,0,0,0,6,,,,,0.0,0.0,0.0,0.0,0.0,0.0,0
33.737634,-118.104800,1.20,1.50,0.00,0.31,1.20,1.20,0.94,1.00,8996,2022-06-09 00:10:20.407,2022-06-08 17:10:20.407,16,0,0,16.439,33.737631,-118.104801,0.00,0.00,0.00,-6.90,0.50,-121.10,0,1,0,87,100,-6644,3073,16439,3051.50,11,Sport,1,0,0,520,0,0,0,1654733420406,4138,4135,4126,4113,0,0,27,,,,,,,0,0,0,69.00,5.00,-1211.00,1.00,0.00,-1339.00,31,12.00,0.00,3.10,0.00,0.00,0.00,0,,,100,100,0,1,0,0,0,0,6,,,,,0.0,0.0,0.0,0.0,0.0,0.0,0
33.737634,-118.104800,1.20,1.50,0.00,0.31,1.20,1.20,0.94,1.00,9095,2022-06-09 00:10:20.506,2022-06-08 17:10:20.506,16,0,0,16.439,33.737631,-118.104801,0.00,0.00,0.00,-6.70,10.60,-121.70,0,1,0,87,100,-6644,3073,16439,3051.50,11,Sport,1,0,0,0,0,0,0,1654733420505,4138,4135,4126,4113,0,0,27,,,,,,,0,0,0,67.00,106.00,-1217.00,1.00,0.00,-1339.00,31,12.00,0.00,3.12,0.00,0.00,0.00,0,,,100,100,0,1,0,0,0,0,6,,,,,0.0,0.0,0.0,0.0,0.0,0.0,0
33.737634,-118.104800,1.20,1.50,0.22,0.32,1.20,1.20,0.94,1.00,9199,2022-06-09 00:10:20.609,2022-06-08 17:10:20.609,16,0,0,16.439,33.737631,-118.104801,0.20,-0.10,0.00,-6.70,16.50,-121.60,0,1,0,87,100,-6644,3073,16439,3051.50,11,Sport,1,0,0,0,0,0,0,1654733420609,4138,4135,4126,4113,0,0,27,,,,,,,0,0,0,67.00,165.00,-1216.00,1.00,0.00,-1339.00,31,12.00,2.24,3.21,2.00,-1.00,0.00,0,,,100,100,0,1,0,0,0,0,6,,,,,0.0,0.0,0.0,0.0,0.0,0.0,0
33.737634,-118.104800,1.20,1.50,0.45,0.35,1.20,1.20,0.94,1.00,9297,2022-06-09 00:10:20.707,2022-06-08 17:10:20.707,16,0,0,16.439,33.737631,-118.104801,0.40,-0.20,0.00,-6.80,4.70,-121.10,0,1,0,87,100,-6644,3073,16439,3051.50,11,Sport,1,0,0,0,0,0,0,1654733420707,4138,4135,4126,4113,0,0,27,,,,,,,0,0,0,68.00,47.00,-1211.00,1.00,0.00,-1339.00,31,12.00,4.47,3.50,4.00,-2.00,0.00,0,,,100,100,0,1,0,0,0,0,6,,,,,0.0,0.0,0.0,0.0,0.0,0.0,0
33.737635,-118.104800,1.20,1.50,0.45,0.39,1.20,1.20,0.94,1.00,9397,2022-06-09 00:10:20.807,2022-06-08 17:10:20.807,16,0,0,16.439,33.737631,-118.104801,0.40,-0.20,0.00,-6.80,-2.00,-121.10,0,1,0,87,100,-6191,3070,16439,3051.50,11,Sport,1,0,0,0,0,0,0,1654733420807,4138,4135,4126,4113,0,0,27,,,,,,,0,0,0,68.00,-20.00,-1211.00,1.00,0.00,-1339.00,31,12.00,4.47,3.89,4.00,-2.00,0.00,0,,,100,100,0,1,0,0,0,0,6,,,,,0.0,0.0,0.0,0.0,0.0,0.0,0
33.737635,-118.104800,1.20,1.50,0.45,0.43,1.20,1.20,0.94,1.00,9497,2022-06-09 00:10:20.908,2022-06-08 17:10:20.908,16,0,0,16.439,33.737631,-118.104801,0.40,-0.20,0.00,-6.70,-4.50,-120.90,0,1,0,87,100,-6191,3070,16439,3051.50,11,Sport,1,0,0,0,0,0,0,1654733420907,4138,4135,4126,4113,0,0,27,,,,,,,0,0,0,67.00,-45.00,-1209.00,1.00,0.00,-1339.00,31,12.00,4.47,4.29,4.00,-2.00,0.00,0,,,100,100,0,1,0,0,0,0,6,,,,,0.0,0.0,0.0,0.0,0.0,0.0,0
33.737635,-118.104800,1.20,1.50,0.32,0.46,1.20,1.20,0.94,1.00,9597,2022-06-09 00:10:21.008,2022-06-08 17:10:21.008,16,0,0,16.439,33.737631,-118.104801,0.30,-0.10,0.00,-6.70,-4.50,-120.90,0,1,0,87,100,-6191,3070,16439,3051.50,11,Sport,1,0,394,0,0,0,0,1654733421007,4138,4135,4126,4113,0,0,27,,,,,,,0,0,0,67.00,-45.00,-1209.00,1.00,0.00,-1339.00,31,12.00,3.16,4.56,3.00,-1.00,0.00,0,,,100,100,0,1,0,0,0,0,6,,,,,0.0,0.0,0.0,0.0,0.0,0.0,0
33.737636,-118.104801,1.20,1.50,0.22,0.49,1.20,1.20,0.94,1.00,9698,2022-06-09 00:10:21.108,2022-06-08 17:10:21.108,16,0,0,16.439,33.737631,-118.104801,0.20,-0.10,0.00,-12.80,-3.10,-120.60,0,1,0,87,100,-6191,3070,16439,3051.50,11,Sport,1,0,309,0,0,0,0,1654733421108,4138,4135,4126,4113,0,0,27,,,,,,,0,0,0,128.00,-31.00,-1206.00,1.00,0.00,-1339.00,31,12.00,2.24,4.87,2.00,-1.00,0.00,0,,,100,100,0,1,0,0,0,0,6,,,,,0.0,0.0,0.0,0.0,0.0,0.0,0
33.737636,-118.104801,1.20,1.50,0.22,0.52,1.20,1.20,0.94,1.00,9796,2022-06-09 00:10:21.207,2022-06-08 17:10:21.207,16,0,0,16.439,33.737631,-118.104801,0.10,-0.20,0.00,-21.60,-2.30,-120.50,0,1,0,87,100,-6191,3070,16439,3051.50,11,Sport,1,0,0,0,0,0,0,1654733421206,4138,4135,4126,4113,0,0,27,,,,,,,0,0,0,216.00,-23.00,-1205.00,1.00,0.00,-1339.00,31,12.00,2.24,5.24,1.00,-2.00,0.00,0,,,100,100,0,1,0,0,0,0,6,,,,,0.0,0.0,0.0,0.0,0.0,0.0,0
33.737636,-118.104801,1.10,1.50,0.30,0.53,1.20,1.20,0.94,1.00,9898,2022-06-09 00:10:21.308,2022-06-08 17:10:21.308,16,0,0,16.439,33.737631,-118.104801,0.00,-0.30,0.00,-17.10,-1.60,-121.00,0,1,0,87,100,-6191,3070,16439,3051.50,11,Sport,1,0,0,0,0,0,0,1654733421308,4138,4135,4126,4113,0,0,27,,,,,,,0,0,0,171.00,-16.00,-1210.00,1.00,0.00,-1339.00,31,11.00,3.00,5.34,0.00,-3.00,0.00,0,,,100,100,0,1,0,0,0,0,6,,,,,0.0,0.0,0.0,0.0,0.0,0.0,0
33.737636,-118.104802,1.10,1.50,0.40,0.54,1.20,1.20,0.94,1.00,9997,2022-06-09 00:10:21.407,2022-06-08 17:10:21.407,16,0,0,16.439,33.737631,-118.104801,0.00,-0.40,0.00,-7.70,-1.80,-121.00,0,1,0,87,100,-6191,3070,16439,3051.50,11,Sport,1,0,0,0,0,0,0,1654733421407,4138,4135,4126,4113,0,0,27,,,,,,,0,0,0,77.00,-18.00,-1210.00,1.00,0.00,-1339.00,31,11.00,4.00,5.38,0.00,-4.00,0.00,0,,,100,100,0,1,0,0,0,0,6,,,,,0.0,0.0,0.0,0.0,0.0,0.0,0
33.737636,-118.104802,1.10,1.50,0.42,0.54,1.20,1.20,0.94,1.00,10097,2022-06-09 00:10:21.507,2022-06-08 17:10:21.507,16,0,0,16.439,33.737631,-118.104801,-0.10,-0.40,-0.10,-3.50,-1.70,-121.10,0,1,0,87,100,-6191,3070,16439,3051.50,11,Sport,1,0,0,0,0,0,0,1654733421507,4138,4135,4126,4113,0,0,27,,,,,,,0,0,0,35.00,-17.00,-1211.00,1.00,0.00,-1339.00,31,11.00,4.24,5.36,-1.00,-4.00,-1.00,0,,,100,100,0,1,0,0,0,0,6,,,,,0.0,0.0,0.0,0.0,0.0,0.0,0
33.737636,-118.104802,1.20,1.50,0.32,0.54,1.20,1.20,0.94,1.00,10197,2022-06-09 00:10:21.608,2022-06-08 17:10:21.608,16,0,0,16.439,33.737631,-118.104801,-0.10,-0.30,0.00,-1.90,-1.30,-121.00,0,1,0,87,100,-6191,3070,16439,3051.50,11,Sport,1,0,0,0,0,0,0,1654733421607,4138,4135,4126,4113,0,0,27,,,,,,,0,0,0,19.00,-13.00,-1210.00,1.00,0.00,-1339.00,31,12.00,3.16,5.41,-1.00,-3.00,0.00,0,,,100,100,0,1,0,0,0,0,6,,,,,0.0,0.0,0.0,0.0,0.0,0.0,0
33.737636,-118.104803,1.20,1.50,0.22,0.54,1.20,1.20,0.94,1.00,10296,2022-06-09 00:10:21.707,2022-06-08 17:10:21.707,16,0,0,16.439,33.737631,-118.104801,-0.10,-0.20,0.00,-1.70,-0.90,-121.00,0,1,0,87,100,-6191,3070,16439,3051.50,11,Sport,1,0,0,0,0,0,0,1654733421706,4138,4135,4126,4113,0,0,27,,,,,,,0,0,0,17.00,-9.00,-1210.00,1.00,0.00,-1339.00,31,12.00,2.24,5.41,-1.00,-2.00,0.00,0,,,100,100,0,1,0,0,0,0,6,,,,,0.0,0.0,0.0,0.0,0.0,0.0,0
33.737636,-118.104803,1.20,1.50,0.22,0.56,1.20,1.20,0.94,1.00,10397,2022-06-09 00:10:21.808,2022-06-08 17:10:21.808,16,0,0,16.439,33.737631,-118.104801,-0.10,-0.20,0.00,-2.60,-0.60,-120.80,0,1,0,87,100,-6191,3070,16439,3051.50,11,Sport,1,0,0,0,0,0,0,1654733421807,4138,4135,4126,4113,0,0,27,,,,,,,0,0,0,26.00,-6.00,-1208.00,1.00,0.00,-1339.00,31,12.00,2.24,5.56,-1.00,-2.00,0.00,0,,,100,100,0,1,0,0,0,0,6,,,,,0.0,0.0,0.0,0.0,0.0,0.0,0
33.737636,-118.104803,1.20,1.50,0.14,0.56,1.20,1.20,0.94,1.00,10497,2022-06-09 00:10:21.907,2022-06-08 17:10:21.907,16,0,0,16.439,33.737631,-118.104801,-0.10,-0.10,0.00,-2.60,-0.20,-120.80,0,1,0,87,100,-6191,3070,16439,3051.50,11,Sport,1,0,0,0,0,0,0,1654733421907,4138,4135,4126,4113,0,0,27,,,,,,,0,0,0,26.00,-2.00,-1208.00,1.00,0.00,-1339.00,31,12.00,1.41,5.57,-1.00,-1.00,0.00,0,,,100,100,0,1,0,0,0,0,6,,,,,0.0,0.0,0.0,0.0,0.0,0.0,0
33.737636,-118.104803,1.20,1.50,0.10,0.56,1.20,1.20,0.94,1.00,10597,2022-06-09 00:10:22.007,2022-06-08 17:10:22.007,16,0,0,16.439,33.737631,-118.104801,0.00,-0.10,0.00,-3.10,0.00,-120.90,0,1,0,87,100,-6191,3070,16439,3051.50,11,Sport,1,0,0,0,0,0,0,1654733422007,4138,4135,4126,4113,0,0,27,,,,,,,0,0,0,31.00,0.00,-1209.00,1.00,0.00,-1339.00,31,12.00,1.00,5.63,0.00,-1.00,0.00,0,,,100,100,0,1,0,0,0,0,6,,,,,0.0,0.0,0.0,0.0,0.0,0.0,0
33.737636,-118.104804,1.20,1.50,0.00,0.57,1.20,1.20,0.94,1.00,10696,2022-06-09 00:10:22.107,2022-06-08 17:10:22.107,16,0,0,16.439,33.737631,-118.104801,0.00,0.00,0.00,-4.30,0.00,-120.90,0,1,0,87,100,-6191,3070,16439,3051.50,11,Sport,1,0,0,0,0,0,0,1654733422106,4138,4135,4126,4113,0,0,27,,,,,,,0,0,0,43.00,0.00,-1209.00,1.00,0.00,-1339.00,31,12.00,0.00,5.66,0.00,0.00,0.00,0,,,100,100,0,1,0,0,0,0,6,,,,,0.0,0.0,0.0,0.0,0.0,0.0,0
33.737636,-118.104804,1.20,1.50,0.00,0.56,1.20,1.20,0.94,1.00,10798,2022-06-09 00:10:22.209,2022-06-08 17:10:22.209,16,0,0,16.439,33.737631,-118.104801,0.00,0.00,0.00,-5.50,-0.10,-121.00,0,1,0,87,100,-6191,3070,16439,3051.50,11,Sport,1,0,0,0,0,0,0,1654733422208,4138,4135,4126,4113,0,0,27,,,,,,,0,0,0,55.00,-1.00,-1210.00,1.00,0.00,-1339.00,31,12.00,0.00,5.63,0.00,0.00,0.00,0,,,100,100,0,1,0,0,0,0,6,,,,,0.0,0.0,0.0,0.0,0.0,0.0,0
33.737636,-118.104804,1.20,1.50,0.00,0.57,1.20,1.20,0.94,1.00,10899,2022-06-09 00:10:22.310,2022-06-08 17:10:22.310,16,0,0,16.439,33.737631,-118.104801,0.00,0.00,0.00,-5.90,0.00,-121.00,0,1,0,87,100,-6191,3070,16439,3051.50,11,Sport,1,0,0,0,0,0,0,1654733422309,4138,4135,4126,4113,0,0,27,,,,,,,0,0,0,59.00,0.00,-1210.00,1.00,0.00,-1339.00,31,12.00,0.00,5.65,0.00,0.00,0.00,0,,,100,100,0,1,0,0,0,0,6,,,,,0.0,0.0,0.0,0.0,0.0,0.0,0
33.737636,-118.104804,1.10,1.50,0.00,0.57,1.20,1.20,0.94,1.00,10999,2022-06-09 00:10:22.409,2022-06-08 17:10:22.409,16,0,0,16.439,33.737631,-118.104801,0.00,0.00,0.00,-6.20,0.00,-121.10,0,1,0,87,100,-6191,3070,16439,3051.50,11,Sport,1,0,0,-10,0,0,0,1654733422409,4138,4135,4126,4113,0,0,27,,,,,,,0,0,0,62.00,0.00,-1211.00,1.00,0.00,-1339.00,31,11.00,0.00,5.65,0.00,0.00,0.00,0,,,100,100,0,1,0,0,0,0,6,,,,,0.0,0.0,0.0,0.0,0.0,0.0,0
33.737636,-118.104804,1.10,1.50,0.00,0.57,1.20,1.20,0.94,1.00,11100,2022-06-09 00:10:22.510,2022-06-08 17:10:22.510,16,0,0,16.439,33.737631,-118.104801,0.00,0.00,0.00,-6.90,-0.60,-121.00,0,1,0,87,100,-6191,3070,16439,3051.50,11,Sport,1,0,0,-617,0,0,0,1654733422510,4138,4135,4126,4113,0,0,27,,,,,,,0,0,0,69.00,-6.00,-1210.00,1.00,0.00,-1339.00,31,11.00,0.00,5.68,0.00,0.00,0.00,0,,,100,100,0,1,0,0,0,0,6,,,,,0.0,0.0,0.0,0.0,0.0,0.0,0
33.737636,-118.104804,1.10,1.50,0.10,0.58,1.20,1.20,0.94,1.00,11199,2022-06-09 00:10:22.610,2022-06-08 17:10:22.610,16,0,0,16.439,33.737631,-118.104801,0.00,0.10,0.00,-7.00,-12.50,-120.20,0,1,0,87,100,-6191,3070,16439,3051.50,11,Sport,1,0,0,0,0,0,0,1654733422609,4138,4135,4126,4113,0,0,27,,,,,,,0,0,0,70.00,-125.00,-1202.00,1.00,0.00,-1339.00,31,11.00,1.00,5.78,0.00,1.00,0.00,0,,,100,100,0,1,0,0,0,0,6,,,,,0.0,0.0,0.0,0.0,0.0,0.0,0
33.737636,-118.104803,1.10,1.50,0.28,0.56,1.20,1.20,0.94,1.00,11298,2022-06-09 00:10:22.709,2022-06-08 17:10:22.709,16,0,0,16.439,33.737631,-118.104801,-0.20,0.20,0.00,-7.20,-16.30,-120.60,0,1,0,87,100,-6191,3070,16439,3051.50,11,Sport,1,0,0,0,0,0,0,1654733422708,4138,4135,4126,4113,0,0,27,,,,,,,0,0,0,72.00,-163.00,-1206.00,1.00,0.00,-1339.00,31,11.00,2.83,5.65,-2.00,2.00,0.00,0,,,100,100,0,1,0,0,0,0,6,,,,,0.0,0.0,0.0,0.0,0.0,0.0,0
33.737636,-118.104803,1.10,1.40,0.50,0.52,1.20,1.20,0.94,1.00,11399,2022-06-09 00:10:22.810,2022-06-08 17:10:22.810,16,0,0,16.417,33.737631,-118.104801,-0.40,0.30,0.00,-7.20,-3.30,-121.00,0,1,0,87,100,-6859,3066,16417,3051.50,11,Sport,1,0,0,0,0,0,0,1654733422809,4138,4135,4126,4113,0,0,27,,,,,,,0,0,0,72.00,-33.00,-1210.00,1.00,0.00,-1339.00,31,11.00,5.00,5.23,-4.00,3.00,0.00,0,,,100,100,0,1,0,0,0,0,6,,,,,0.0,0.0,0.0,0.0,0.0,0.0,0
33.737635,-118.104803,1.10,1.50,0.50,0.47,1.20,1.20,0.94,1.00,11499,2022-06-09 00:10:22.909,2022-06-08 17:10:22.909,16,0,0,16.417,33.737631,-118.104801,-0.40,0.30,0.00,-7.50,2.50,-121.10,0,1,0,87,100,-6859,3066,16417,3051.50,11,Sport,1,0,0,0,0,0,0,1654733422909,4138,4135,4126,4113,0,0,27,,,,,,,0,0,0,75.00,25.00,-1211.00,1.00,0.00,-1339.00,31,11.00,5.00,4.74,-4.00,3.00,0.00,0,,,100,100,0,1,0,0,0,0,6,,,,,0.0,0.0,0.0,0.0,0.0,0.0,0
33.737635,-118.104802,1.10,1.50,0.42,0.42,1.20,1.20,0.94,1.00,11598,2022-06-09 00:10:23.008,2022-06-08 17:10:23.008,16,0,0,16.417,33.737631,-118.104801,-0.30,0.30,0.00,-7.60,4.20,-121.20,0,1,0,87,100,-6859,3066,16417,3051.50,11,Sport,1,0,0,-233,0,0,0,1654733423008,4138,4135,4126,4113,0,0,27,,,,,,,0,0,0,76.00,42.00,-1212.00,1.00,0.00,-1339.00,31,11.00,4.24,4.16,-3.00,3.00,0.00,0,,,100,100,0,1,0,0,0,0,6,,,,,0.0,0.0,0.0,0.0,0.0,0.0,0
33.737635,-118.104802,1.10,1.40,0.28,0.38,1.20,1.20,0.94,1.00,11698,2022-06-09 00:10:23.108,2022-06-08 17:10:23.108,16,0,0,16.417,33.737631,-118.104801,-0.20,0.20,0.00,-7.50,-0.60,-121.00,0,1,0,87,100,-6859,3066,16417,3051.50,11,Sport,1,0,0,0,0,0,0,1654733423108,4138,4135,4126,4113,0,0,27,,,,,,,0,0,0,75.00,-6.00,-1210.00,1.00,0.00,-1339.00,31,11.00,2.83,3.83,-2.00,2.00,0.00,0,,,100,100,0,1,0,0,0,0,6,,,,,0.0,0.0,0.0,0.0,0.0,0.0,0
33.737635,-118.104802,1.10,1.40,0.28,0.35,1.20,1.20,0.94,1.00,11800,2022-06-09 00:10:23.210,2022-06-08 17:10:23.210,16,0,0,16.417,33.737631,-118.104801,-0.20,0.20,0.00,-7.40,0.90,-121.30,0,1,0,87,100,-6859,3066,16417,3051.50,11,Sport,1,0,0,0,0,0,0,1654733423210,4138,4135,4126,4113,0,0,27,,,,,,,0,0,0,74.00,9.00,-1213.00,1.00,0.00,-1339.00,31,11.00,2.83,3.52,-2.00,2.00,0.00,0,,,100,100,0,1,0,0,0,0,6,,,,,0.0,0.0,0.0,0.0,0.0,0.0,0
33.737634,-118.104801,1.10,1.40,0.28,0.32,1.20,1.20,0.94,1.00,11899,2022-06-09 00:10:23.310,2022-06-08 17:10:23.310,16,0,0,16.417,33.737631,-118.104801,-0.20,0.20,0.00,-7.40,2.60,-121.30,0,1,0,87,100,-6859,3066,16417,3051.50,11,Sport,1,0,0,0,0,0,0,1654733423309,4114,4112,4103,4089,0,0,27,,,,,,,0,0,0,74.00,26.00,-1213.00,1.00,0.00,-1339.00,31,11.00,2.83,3.22,-2.00,2.00,0.00,0,,,100,100,0,1,0,0,0,0,6,,,,,0.0,0.0,0.0,0.0,0.0,0.0,0
33.737634,-118.104801,1.10,1.30,0.28,0.30,1.20,1.20,0.94,1.00,12000,2022-06-09 00:10:23.411,2022-06-08 17:10:23.411,16,0,0,16.417,33.737631,-118.104801,-0.20,0.20,0.00,-7.40,3.20,-121.30,0,1,0,87,100,-6859,3066,16417,3051.50,11,Sport,1,0,0,0,0,0,0,1654733423410,4114,4112,4103,4089,0,0,27,,,,,,,0,0,0,74.00,32.00,-1213.00,1.00,0.00,-1339.00,31,11.00,2.83,2.98,-2.00,2.00,0.00,0,,,100,100,0,1,0,0,0,0,6,,,,,0.0,0.0,0.0,0.0,0.0,0.0,0
33.737634,-118.104801,1.10,1.30,0.14,0.28,1.20,1.20,0.94,1.00,12099,2022-06-09 00:10:23.510,2022-06-08 17:10:23.510,16,0,0,16.417,33.737631,-118.104801,-0.10,0.10,0.00,-7.10,3.00,-121.30,0,1,0,87,100,-6859,3066,16417,3051.50,11,Sport,1,0,0,0,0,0,0,1654733423509,4114,4112,4103,4089,0,0,27,,,,,,,0,0,0,71.00,30.00,-1213.00,1.00,0.00,-1339.00,31,11.00,1.41,2.83,-1.00,1.00,0.00,0,,,100,100,0,1,0,0,0,0,6,,,,,0.0,0.0,0.0,0.0,0.0,0.0,0
33.737634,-118.104801,1.10,1.20,0.14,0.27,1.20,1.20,0.94,1.00,12200,2022-06-09 00:10:23.610,2022-06-08 17:10:23.610,16,0,0,16.417,33.737631,-118.104801,-0.10,0.10,0.00,-7.10,2.20,-121.40,0,1,0,87,100,-6859,3066,16417,3051.50,11,Sport,1,0,34,0,0,0,0,1654733423610,4114,4112,4103,4089,0,0,27,,,,,,,0,0,0,71.00,22.00,-1214.00,1.00,0.00,-1339.00,31,11.00,1.41,2.74,-1.00,1.00,0.00,0,,,100,100,0,1,0,0,0,0,6,,,,,0.0,0.0,0.0,0.0,0.0,0.0,0
33.737634,-118.104801,1.10,1.20,0.10,0.27,1.20,1.20,0.94,1.00,12299,2022-06-09 00:10:23.709,2022-06-08 17:10:23.709,16,0,0,16.417,33.737631,-118.104801,0.00,0.10,0.00,-7.30,1.70,-121.30,0,1,0,87,100,-6859,3066,16417,3051.50,11,Sport,1,0,206,0,0,0,0,1654733423709,4114,4112,4103,4089,0,0,27,,,,,,,0,0,0,73.00,17.00,-1213.00,1.00,0.00,-1339.00,31,11.00,1.00,2.68,0.00,1.00,0.00,0,,,100,100,0,1,0,0,0,0,6,,,,,0.0,0.0,0.0,0.0,0.0,0.0,0
33.737634,-118.104800,1.10,1.20,0.10,0.26,1.20,1.20,0.94,1.00,12399,2022-06-09 00:10:23.809,2022-06-08 17:10:23.809,16,0,0,16.417,33.737631,-118.104801,0.00,0.10,0.00,-9.70,1.10,-121.20,0,1,0,87,100,-6859,3066,16417,3051.50,11,Sport,1,0,0,0,0,0,0,1654733423809,4114,4112,4103,4089,0,0,27,,,,,,,0,0,0,97.00,11.00,-1212.00,1.00,0.00,-1339.00,31,11.00,1.00,2.62,0.00,1.00,0.00,0,,,100,100,0,1,0,0,0,0,6,,,,,0.0,0.0,0.0,0.0,0.0,0.0,0
33.737634,-118.104800,1.10,1.30,0.00,0.26,1.20,1.20,0.94,1.00,12499,2022-06-09 00:10:23.910,2022-06-08 17:10:23.910,16,0,0,16.417,33.737631,-118.104801,0.00,0.00,0.00,-8.30,0.60,-121.20,0,1,0,87,100,-6859,3066,16417,3051.50,11,Sport,1,0,0,0,0,0,0,1654733423909,4114,4112,4103,4089,0,0,27,,,,,,,0,0,0,83.00,6.00,-1212.00,1.00,0.00,-1339.00,31,11.00,0.00,2.61,0.00,0.00,0.00,0,,,100,100,0,1,0,0,0,0,6,,,,,0.0,0.0,0.0,0.0,0.0,0.0,0
33.737634,-118.104800,1.10,1.30,0.00,0.26,1.20,1.20,0.94,1.00,12599,2022-06-09 00:10:24.010,2022-06-08 17:10:24.010,16,0,0,16.417,33.737631,-118.104801,0.00,0.00,0.00,-7.20,0.30,-121.30,0,1,0,87,100,-6859,3066,16417,3051.50,11,Sport,1,0,68,0,0,0,0,1654733424009,4114,4112,4103,4089,0,0,27,,,,,,,0,0,0,72.00,3.00,-1213.00,1.00,0.00,-1339.00,31,11.00,0.00,2.58,0.00,0.00,0.00,0,,,100,100,0,1,0,0,0,0,6,,,,,0.0,0.0,0.0,0.0,0.0,0.0,0
33.737634,-118.104800,1.10,1.40,0.00,0.26,1.20,1.20,0.94,1.00,12702,2022-06-09 00:10:24.112,2022-06-08 17:10:24.112,16,0,0,16.417,33.737631,-118.104801,0.00,0.00,0.00,-7.00,0.00,-121.20,0,1,0,87,100,-6859,3066,16417,3051.50,11,Sport,1,0,232,0,0,0,0,1654733424112,4114,4112,4103,4089,0,0,27,,,,,,,0,0,0,70.00,0.00,-1212.00,1.00,0.00,-1339.00,31,11.00,0.00,2.58,0.00,0.00,0.00,0,,,100,100,0,1,0,0,0,0,6,,,,,0.0,0.0,0.0,0.0,0.0,0.0,0
33.737634,-118.104800,1.10,1.30,0.00,0.26,1.20,1.20,0.94,1.00,12800,2022-06-09 00:10:24.211,2022-06-08 17:10:24.211,16,0,0,16.417,33.737631,-118.104801,0.00,0.00,0.00,-11.30,-0.10,-121.10,0,1,0,87,100,-6859,3066,16417,3051.50,11,Sport,1,0,0,0,0,0,0,1654733424210,4114,4112,4103,4089,0,0,27,,,,,,,0,0,0,113.00,-1.00,-1211.00,1.00,0.00,-1339.00,31,11.00,0.00,2.56,0.00,0.00,0.00,0,,,100,100,0,1,0,0,0,0,6,,,,,0.0,0.0,0.0,0.0,0.0,0.0,0
33.737634,-118.104800,1.10,1.30,0.00,0.25,1.20,1.20,0.94,1.00,12900,2022-06-09 00:10:24.311,2022-06-08 17:10:24.311,16,0,0,16.417,33.737631,-118.104801,0.00,0.00,0.00,-8.10,-0.20,-121.00,0,1,0,87,100,-6859,3066,16417,3051.50,11,Sport,1,0,0,0,0,0,0,1654733424310,4114,4112,4103,4089,0,0,27,,,,,,,0,0,0,81.00,-2.00,-1210.00,1.00,0.00,-1339.00,31,11.00,0.00,2.54,0.00,0.00,0.00,0,,,100,100,0,1,0,0,0,0,6,,,,,0.0,0.0,0.0,0.0,0.0,0.0,0
33.737634,-118.104800,1.10,1.40,0.00,0.26,1.20,1.20,0.94,1.00,12999,2022-06-09 00:10:24.410,2022-06-08 17:10:24.410,16,0,0,16.417,33.737631,-118.104801,0.00,0.00,0.00,-6.60,-0.30,-121.00,0,1,0,87,100,-6859,3066,16417,3051.50,11,Sport,1,0,208,0,0,0,0,1654733424409,4114,4112,4103,4089,0,0,27,,,,,,,0,0,0,66.00,-3.00,-1210.00,1.00,0.00,-1339.00,31,11.00,0.00,2.57,0.00,0.00,0.00,0,,,100,100,0,1,0,0,0,0,6,,,,,0.0,0.0,0.0,0.0,0.0,0.0,0
33.737634,-118.104800,1.10,1.40,0.00,0.25,1.20,1.20,0.94,1.00,13099,2022-06-09 00:10:24.509,2022-06-08 17:10:24.509,16,0,0,16.417,33.737631,-118.104801,0.00,0.00,0.00,-8.70,-0.40,-121.10,0,1,0,87,100,-6859,3066,16417,3051.50,11,Sport,1,0,206,0,0,0,0,1654733424509,4114,4112,4103,4089,0,0,27,,,,,,,0,0,0,87.00,-4.00,-1211.00,1.00,0.00,-1339.00,31,11.00,0.00,2.55,0.00,0.00,0.00,0,,,100,100,0,1,0,0,0,0,6,,,,,0.0,0.0,0.0,0.0,0.0,0.0,0
33.737633,-118.104800,1.10,1.30,0.10,0.24,1.20,1.20,0.94,1.00,13198,2022-06-09 00:10:24.609,2022-06-08 17:10:24.609,16,0,0,16.417,33.737631,-118.104801,0.00,-0.10,0.00,-14.40,-0.70,-121.10,0,1,0,87,100,-6859,3066,16417,3051.50,11,Sport,1,0,0,0,0,0,0,1654733424608,4114,4112,4103,4089,0,0,27,,,,,,,0,0,0,144.00,-7.00,-1211.00,1.00,0.00,-1339.00,31,11.00,1.00,2.37,0.00,-1.00,0.00,0,,,100,100,0,1,0,0,0,0,6,,,,,0.0,0.0,0.0,0.0,0.0,0.0,0
33.737633,-118.104800,1.10,1.30,0.10,0.23,1.20,1.20,0.94,1.00,13299,2022-06-09 00:10:24.709,2022-06-08 17:10:24.709,16,0,0,16.417,33.737631,-118.104801,0.00,-0.10,0.00,-9.30,-0.50,-120.90,0,1,0,87,100,-6859,3066,16417,3051.50,11,Sport,1,0,0,0,0,0,0,1654733424709,4114,4112,4103,4089,0,0,27,,,,,,,0,0,0,93.00,-5.00,-1209.00,1.00,0.00,-1339.00,31,11.00,1.00,2.27,0.00,-1.00,0.00,0,,,100,100,0,1,0,0,0,0,6,,,,,0.0,0.0,0.0,0.0,0.0,0.0,0
33.737633,-118.104801,1.10,1.40,0.20,0.22,1.20,1.20,0.94,1.00,13400,2022-06-09 00:10:24.810,2022-06-08 17:10:24.810,16,0,0,16.399,33.737631,-118.104801,0.00,-0.20,0.00,-5.80,-0.70,-121.00,0,1,0,87,100,-6724,3062,16399,3051.50,11,Sport,1,0,0,0,0,0,0,1654733424810,4114,4112,4103,4089,0,0,27,,,,,,,0,0,0,58.00,-7.00,-1210.00,1.00,0.00,-1339.00,31,11.00,2.00,2.20,0.00,-2.00,0.00,0,,,100,100,0,1,0,0,0,0,6,,,,,0.0,0.0,0.0,0.0,0.0,0.0,0
