latitude,longitude,altitude(feet),ultrasonicHeight(feet),speed(mph),distance(feet),max_altitude(feet),max_ascent(feet),max_speed(mph),max_distance(feet),time(millisecond),datetime(utc),datetime(local),satellites,pressure(Pa),temperature(F),voltage(v),home_latitude,home_longitude,velocityX(mph),velocityY(mph),velocityZ(mph),pitch(deg),roll(deg),yaw(deg),powerlevel,isflying,istakingphoto,remainPowerPercent,remainLifePercent,currentCurrent,currentElectricity,currentVoltage,batteryTemperature,dischargeCount,flightmode,isMotorsOn,isTakingVideo,Rc_elevator,Rc_aileron,Rc_throttle,Rc_rudder,Rc_gyro,timestamp,Battery_Cell1,Battery_Cell2,Battery_Cell3,Battery_Cell4,Battery_Cell5,Battery_Cell6,Dronetype,AppVersion,Planename,FlyControllerSerialNumber,RemoteSerialNumber,BatterySerialNumber,CENTER_BATTERY.productDate,CENTER_BATTERY.serialNo,CENTER_BATTERY.fullCapacity,CENTER_BATTERY.productDateRaw,pitchRaw,rollRaw,yawRaw,gimbalPitchRaw,gimbalRollRaw,gimbalYawRaw,flyState,altitudeRaw,speedRaw,distanceRaw,velocityXRaw,velocityYRaw,velocityZRaw,data_reuse,App_Tip,App_Warning,downlinkSignalQuality,uplinkSignalQuality,transmissionChannel,rcModeSwitch,rcHome,rcPause,rcTransform,rcJoystickMode,appMode,FlyControllerSerialNumber_legacy,RemoteSerialNumber_legacy,BatterySerialNumber_legacy,Battery2SerialNumber,frontAvoidDist,backAvoidDist,rightAvoidDist,leftAvoidDist,upAvoidDist,downAvoidDist,isBrakingToAvoid
34.182617,-118.129083,0.98,0.98,0.89,0.49,0.98,0.98,0.89,0.49,0,2022-06-07 23:29:45.924,2022-06-07 16:29:45.924,12,0,0,17.034,34.182616,-118.129083,0.00,0.00,-0.89,1.50,-0.70,-3.80,0,1,0,100,100,-3640,3488,17034,3021.50,10,TakeOff,1,0,0,0,0,0,0,1654644585923,4337,4340,4339,4332,0,0,27,Litchi_iOS_2.14.0,Brian-MAVIC 2,163DFCK001S13F,1DUCFB800104PR,0P2AFBV5340045,,0,3507,0,-15.00,-7.00,-38.00,0.00,0.00,-33.00,11,3.00,4.00,1.50,0.00,0.00,-4.00,0,,,100,100,0,2,0,0,0,1,0,(null),(null),(null),(null),0.0,0.0,0.0,0.0,0.0,0.0,0
34.182617,-118.129083,1.31,1.31,0.89,0.46,1.31,1.31,0.89,0.49,99,2022-06-07 23:29:46.022,2022-06-07 16:29:46.023,12,0,0,17.034,34.182616,-118.129083,0.00,0.00,-0.89,1.20,-0.60,-3.80,0,1,0,100,100,-3640,3488,17034,3021.50,10,TakeOff,1,0,0,0,0,0,0,1654644586022,4337,4340,4339,4332,0,0,27,,,,,,,0,0,0,-12.00,-6.00,-38.00,0.00,0.00,-33.00,11,4.00,4.00,1.41,0.00,0.00,-4.00,0,,,100,100,0,2,0,0,0,1,0,,,,,0.0,0.0,0.0,0.0,0.0,0.0,0
34.182617,-118.129083,1.31,1.31,0.89,0.48,1.31,1.31,0.89,0.49,199,2022-06-07 23:29:46.122,2022-06-07 16:29:46.122,12,0,0,17.034,34.182616,-118.129083,0.00,0.00,-0.89,1.00,-0.40,-3.70,0,1,0,100,100,-3640,3488,17034,3021.50,10,TakeOff,1,0,0,0,0,0,0,1654644586122,4337,4340,4339,4332,0,0,27,,,,,,,0,0,0,-10.00,-4.00,-37.00,0.00,0.00,-34.00,11,4.00,4.00,1.47,0.00,0.00,-4.00,0,,,100,100,0,2,0,0,0,1,0,,,,,0.0,0.0,0.0,0.0,0.0,0.0,0
34.182617,-118.129083,1.64,1.64,0.89,0.51,1.64,1.64,0.89,0.51,299,2022-06-07 23:29:46.223,2022-06-07 16:29:46.223,12,0,0,17.034,34.182616,-118.129083,0.00,0.00,-0.89,1.00,-0.30,-3.70,0,1,0,100,100,-3640,3488,17034,3021.50,10,TakeOff,1,0,0,0,0,0,0,1654644586222,4337,4340,4339,4332,0,0,27,,,,,,,0,0,0,-10.00,-3.00,-37.00,0.00,0.00,-34.00,11,5.00,4.00,1.55,0.00,0.00,-4.00,0,,,100,100,0,2,0,0,0,1,0,,,,,0.0,0.0,0.0,0.0,0.0,0.0,0
34.182618,-118.129083,1.64,1.64,0.89,0.53,1.64,1.64,0.89,0.53,400,2022-06-07 23:29:46.323,2022-06-07 16:29:46.323,12,0,0,17.034,34.182616,-118.129083,0.00,0.00,-0.89,1.20,-0.10,-3.80,0,1,0,100,100,-3640,3488,17034,3021.50,10,TakeOff,1,0,0,0,0,0,0,1654644586323,4337,4340,4339,4332,0,0,27,,,,,,,0,0,0,-12.00,-1.00,-38.00,0.00,0.00,-34.00,11,5.00,4.00,1.61,0.00,0.00,-4.00,0,,,100,100,0,2,0,0,0,1,0,,,,,0.0,0.0,0.0,0.0,0.0,0.0,0
34.182618,-118.129083,1.64,1.97,1.12,0.53,1.64,1.64,1.12,0.53,500,2022-06-07 23:29:46.423,2022-06-07 16:29:46.423,12,0,0,17.034,34.182616,-118.129083,0.00,0.00,-1.12,1.30,-0.10,-3.80,0,1,0,100,100,-3640,3488,17034,3021.50,10,TakeOff,1,0,0,0,0,0,0,1654644586423,4337,4340,4339,4332,0,0,27,,,,,,,0,0,0,-13.00,-1.00,-38.00,0.00,0.00,-34.00,11,5.00,5.00,1.61,0.00,0.00,-5.00,0,,,100,100,0,2,0,0,0,1,0,,,,,0.0,0.0,0.0,0.0,0.0,0.0,0
34.182618,-118.129083,1.97,1.97,1.12,0.54,1.97,1.97,1.12,0.54,599,2022-06-07 23:29:46.523,2022-06-07 16:29:46.523,12,0,0,17.034,34.182616,-118.129083,0.00,0.00,-1.12,1.30,-0.10,-3.80,0,1,0,100,100,-3640,3488,17034,3021.50,10,TakeOff,1,0,0,0,0,0,0,1654644586522,4337,4340,4339,4332,0,0,27,,,,,,,0,0,0,-13.00,-1.00,-38.00,0.00,0.00,-34.00,11,6.00,5.00,1.66,0.00,0.00,-5.00,0,,,100,100,0,2,0,0,0,1,0,,,,,0.0,0.0,0.0,0.0,0.0,0.0,0
34.182618,-118.129083,1.97,2.30,1.12,0.55,1.97,1.97,1.12,0.55,700,2022-06-07 23:29:46.624,2022-06-07 16:29:46.624,12,0,0,16.793,34.182616,-118.129083,0.00,0.00,-1.12,1.20,0.00,-3.80,0,1,0,100,100,-7186,3485,16793,3021.50,10,TakeOff,1,0,0,0,0,0,0,1654644586623,4337,4340,4339,4332,0,0,27,,,,,,,0,0,0,-12.00,0.00,-38.00,0.00,0.00,-34.00,11,6.00,5.00,1.68,0.00,0.00,-5.00,0,,,100,100,0,2,0,0,0,1,0,,,,,0.0,0.0,0.0,0.0,0.0,0.0,0
34.182618,-118.129083,2.30,2.30,1.12,0.57,2.30,2.30,1.12,0.57,800,2022-06-07 23:29:46.723,2022-06-07 16:29:46.723,12,0,0,16.793,34.182616,-118.129083,0.00,0.00,-1.12,1.20,0.00,-3.80,0,1,0,100,100,-7186,3485,16793,3021.50,10,TakeOff,1,0,0,0,0,0,0,1654644586723,4337,4340,4339,4332,0,0,27,,,,,,,0,0,0,-12.00,0.00,-38.00,0.00,0.00,-34.00,11,7.00,5.00,1.72,0.00,0.00,-5.00,0,,,100,100,0,2,0,0,0,1,0,,,,,0.0,0.0,0.0,0.0,0.0,0.0,0
34.182618,-118.129083,2.30,2.62,1.12,0.58,2.30,2.30,1.12,0.58,899,2022-06-07 23:29:46.823,2022-06-07 16:29:46.823,12,0,0,16.793,34.182616,-118.129083,0.00,0.00,-1.12,1.20,0.00,-3.80,0,1,0,100,100,-7186,3485,16793,3021.50,10,TakeOff,1,0,0,0,0,0,0,1654644586822,4337,4340,4339,4332,0,0,27,,,,,,,0,0,0,-12.00,0.00,-38.00,0.00,0.00,-34.00,11,7.00,5.00,1.77,0.00,0.00,-5.00,0,,,100,100,0,2,0,0,0,1,0,,,,,0.0,0.0,0.0,0.0,0.0,0.0,0
34.182618,-118.129083,2.62,2.62,1.12,0.59,2.62,2.62,1.12,0.59,1000,2022-06-07 23:29:46.924,2022-06-07 16:29:46.924,12,0,0,16.793,34.182616,-118.129083,0.00,0.00,-1.12,1.20,-0.10,-4.00,0,1,0,100,100,-7186,3485,16793,3021.50,10,TakeOff,1,0,0,0,0,0,0,1654644586923,4337,4340,4339,4332,0,0,27,,,,,,,0,0,0,-12.00,-1.00,-40.00,0.00,0.00,-34.00,11,8.00,5.00,1.80,0.00,0.00,-5.00,0,,,100,100,0,2,0,0,0,1,0,,,,,0.0,0.0,0.0,0.0,0.0,0.0,0
34.182618,-118.129083,2.62,2.95,0.89,0.62,2.62,2.62,1.12,0.62,1100,2022-06-07 23:29:47.024,2022-06-07 16:29:47.024,12,0,0,16.793,34.182616,-118.129083,0.00,0.00,-0.89,1.30,-0.10,-4.00,0,1,0,100,100,-7186,3485,16793,3021.50,10,TakeOff,1,0,0,0,0,0,0,1654644587023,4337,4340,4339,4332,0,0,27,,,,,,,0,0,0,-13.00,-1.00,-40.00,0.00,0.00,-34.00,11,8.00,4.00,1.88,0.00,0.00,-4.00,0,,,100,100,0,2,0,0,0,1,0,,,,,0.0,0.0,0.0,0.0,0.0,0.0,0
34.182618,-118.129083,2.95,3.28,1.12,0.63,2.95,2.95,1.12,0.63,1201,2022-06-07 23:29:47.125,2022-06-07 16:29:47.125,12,0,0,16.793,34.182616,-118.129083,0.00,0.00,-1.12,1.40,-0.10,-3.90,0,1,0,100,100,-7186,3485,16793,3021.50,10,TakeOff,1,0,0,0,0,0,0,1654644587124,4337,4340,4339,4332,0,0,27,,,,,,,0,0,0,-14.00,-1.00,-39.00,0.00,0.00,-34.00,11,9.00,5.00,1.91,0.00,0.00,-5.00,0,,,100,100,0,2,0,0,0,1,0,,,,,0.0,0.0,0.0,0.0,0.0,0.0,0
34.182618,-118.129083,2.95,3.28,1.12,0.59,2.95,2.95,1.12,0.63,1300,2022-06-07 23:29:47.223,2022-06-07 16:29:47.223,12,0,0,16.793,34.182616,-118.129083,0.00,0.00,-1.12,1.30,-0.10,-3.90,0,1,0,100,100,-7186,3485,16793,3021.50,10,TakeOff,1,0,0,0,0,0,0,1654644587223,4337,4340,4339,4332,0,0,27,,,,,,,0,0,0,-13.00,-1.00,-39.00,0.00,0.00,-34.00,11,9.00,5.00,1.79,0.00,0.00,-5.00,0,,,100,100,0,2,0,0,0,1,0,,,,,0.0,0.0,0.0,0.0,0.0,0.0,0
34.182618,-118.129083,3.28,3.61,1.12,0.59,3.28,3.28,1.12,0.63,1401,2022-06-07 23:29:47.324,2022-06-07 16:29:47.324,12,0,0,16.793,34.182616,-118.129083,0.00,0.00,-1.12,1.20,-0.20,-3.90,0,1,0,100,100,-7186,3485,16793,3021.50,10,TakeOff,1,0,0,0,0,0,0,1654644587324,4337,4340,4339,4332,0,0,27,,,,,,,0,0,0,-12.00,-2.00,-39.00,0.00,0.00,-34.00,11,10.00,5.00,1.79,0.00,0.00,-5.00,0,,,100,100,0,2,0,0,0,1,0,,,,,0.0,0.0,0.0,0.0,0.0,0.0,0
34.182618,-118.129083,3.28,3.61,0.89,0.62,3.28,3.28,1.12,0.63,1550,2022-06-07 23:29:47.473,2022-06-07 16:29:47.473,12,0,0,16.793,34.182616,-118.129083,0.00,0.00,-0.89,0.60,-0.50,-4.00,0,1,0,100,100,-7186,3485,16793,3021.50,10,WP,1,0,0,0,0,0,0,1654644587473,4337,4340,4339,4332,0,0,27,,,,,,,0,0,0,-6.00,-5.00,-40.00,0.00,0.00,-34.00,14,10.00,4.00,1.89,0.00,0.00,-4.00,0,,,100,100,0,2,0,0,0,1,0,,,,,0.0,0.0,0.0,0.0,0.0,0.0,0
34.182618,-118.129083,3.61,3.94,0.89,0.62,3.61,3.61,1.12,0.63,1600,2022-06-07 23:29:47.523,2022-06-07 16:29:47.523,12,0,0,16.793,34.182616,-118.129083,0.00,0.00,-0.89,0.50,-0.10,-4.00,0,1,0,100,100,-7186,3485,16793,3021.50,10,WP,1,0,0,0,0,0,0,1654644587523,4337,4340,4339,4332,0,0,27,,,,,,,0,0,0,-5.00,-1.00,-40.00,0.00,0.00,-34.00,14,11.00,4.00,1.90,0.00,0.00,-4.00,0,,,100,100,0,2,0,0,0,1,0,,,,,0.0,0.0,0.0,0.0,0.0,0.0,0
34.182618,-118.129083,3.61,3.94,1.12,0.55,3.61,3.61,1.12,0.63,1700,2022-06-07 23:29:47.623,2022-06-07 16:29:47.623,12,0,0,16.793,34.182616,-118.129083,0.00,0.00,-1.12,0.70,-0.20,-4.00,0,1,0,100,100,-7186,3485,16793,3021.50,10,WP,1,0,0,0,0,0,0,1654644587623,4337,4340,4339,4332,0,0,27,,,,,,,0,0,0,-7.00,-2.00,-40.00,0.00,0.00,-34.00,14,11.00,5.00,1.69,0.00,0.00,-5.00,0,,,100,100,0,2,0,0,0,1,0,,,,,0.0,0.0,0.0,0.0,0.0,0.0,0
34.182618,-118.129083,3.94,4.27,1.12,0.56,3.94,3.94,1.12,0.63,1800,2022-06-07 23:29:47.724,2022-06-07 16:29:47.724,12,0,0,16.793,34.182616,-118.129083,0.00,0.00,-1.12,0.80,-0.20,-3.90,0,1,0,100,100,-7186,3485,16793,3021.50,10,WP,1,0,0,0,0,0,0,1654644587723,4337,4340,4339,4332,0,0,27,,,,,,,0,0,0,-8.00,-2.00,-39.00,0.00,0.00,-34.00,14,12.00,5.00,1.70,0.00,0.00,-5.00,0,,,100,100,0,2,0,0,0,1,0,,,,,0.0,0.0,0.0,0.0,0.0,0.0,0
34.182618,-118.129083,3.94,4.27,1.12,0.63,3.94,3.94,1.12,0.63,1900,2022-06-07 23:29:47.824,2022-06-07 16:29:47.824,12,0,0,16.793,34.182616,-118.129083,0.00,0.00,-1.12,1.60,-0.60,-4.00,0,1,0,100,100,-7186,3485,16793,3021.50,10,WP,1,0,0,0,0,0,0,1654644587823,4337,4340,4339,4332,0,0,27,,,,,,,0,0,0,-16.00,-6.00,-40.00,0.00,0.00,-34.00,14,12.00,5.00,1.93,0.00,0.00,-5.00,0,,,100,100,0,2,0,0,0,1,0,,,,,0.0,0.0,0.0,0.0,0.0,0.0,0
34.182618,-118.129083,4.27,4.59,1.12,0.65,4.27,4.27,1.12,0.65,2000,2022-06-07 23:29:47.924,2022-06-07 16:29:47.924,12,0,0,16.793,34.182616,-118.129083,0.00,0.00,-1.12,1.90,-0.80,-4.00,0,1,0,100,100,-7186,3485,16793,3021.50,10,WP,1,0,0,0,0,0,0,1654644587923,4337,4340,4339,4332,0,0,27,,,,,,,0,0,0,-19.00,-8.00,-40.00,0.00,0.00,-34.00,14,13.00,5.00,1.97,0.00,0.00,-5.00,0,,,100,100,0,2,0,0,0,1,0,,,,,0.0,0.0,0.0,0.0,0.0,0.0,0
34.182618,-118.129083,4.27,4.59,1.12,0.59,4.27,4.27,1.12,0.65,2150,2022-06-07 23:29:48.074,2022-06-07 16:29:48.074,12,0,0,16.793,34.182616,-118.129083,0.00,0.00,-1.12,1.60,-0.60,-4.10,0,1,0,100,100,-7186,3485,16793,3021.50,10,WP,1,0,0,0,0,0,0,1654644588073,4337,4340,4339,4332,0,0,27,,,,,,,0,0,0,-16.00,-6.00,-41.00,0.00,0.00,-34.00,14,13.00,5.00,1.81,0.00,0.00,-5.00,0,,,100,100,0,2,0,0,0,1,0,,,,,0.0,0.0,0.0,0.0,0.0,0.0,0
34.182618,-118.129083,4.59,4.92,0.89,0.60,4.59,4.59,1.12,0.65,2201,2022-06-07 23:29:48.124,2022-06-07 16:29:48.124,12,0,0,16.793,34.182616,-118.129083,0.00,0.00,-0.89,1.50,-0.10,-4.00,0,1,0,100,100,-7186,3485,16793,3021.50,10,WP,1,0,0,0,0,0,0,1654644588124,4337,4340,4339,4332,0,0,27,,,,,,,0,0,0,-15.00,-1.00,-40.00,0.00,0.00,-34.00,14,14.00,4.00,1.84,0.00,0.00,-4.00,0,,,100,100,0,2,0,0,0,1,0,,,,,0.0,0.0,0.0,0.0,0.0,0.0,0
34.182618,-118.129083,4.59,4.92,0.89,0.59,4.59,4.59,1.12,0.65,2300,2022-06-07 23:29:48.224,2022-06-07 16:29:48.224,12,0,0,16.793,34.182616,-118.129083,0.00,0.00,-0.89,1.40,0.20,-4.00,0,1,0,100,100,-7186,3485,16793,3021.50,10,WP,1,0,0,0,0,0,0,1654644588223,4337,4340,4339,4332,0,0,27,,,,,,,0,0,0,-14.00,2.00,-40.00,0.00,0.00,-35.00,14,14.00,4.00,1.81,0.00,0.00,-4.00,0,,,100,100,0,2,0,0,0,1,0,,,,,0.0,0.0,0.0,0.0,0.0,0.0,0
34.182618,-118.129083,4.92,5.25,0.89,0.60,4.92,4.92,1.12,0.65,2403,2022-06-07 23:29:48.326,2022-06-07 16:29:48.326,12,0,0,16.793,34.182616,-118.129083,0.00,0.00,-0.89,1.40,0.00,-3.90,0,1,0,100,100,-7186,3485,16793,3021.50,10,WP,1,0,0,0,0,0,0,1654644588326,4337,4340,4339,4332,0,0,27,,,,,,,0,0,0,-14.00,0.00,-39.00,0.00,0.00,-35.00,14,15.00,4.00,1.83,0.00,0.00,-4.00,0,,,100,100,0,2,0,0,0,1,0,,,,,0.0,0.0,0.0,0.0,0.0,0.0,0
34.182618,-118.129083,4.92,5.25,0.89,0.70,4.92,4.92,1.12,0.70,2500,2022-06-07 23:29:48.424,2022-06-07 16:29:48.424,12,0,0,16.793,34.182616,-118.129083,0.00,0.00,-0.89,2.20,-0.80,-3.90,0,1,0,100,100,-7186,3485,16793,3021.50,10,WP,1,0,0,0,0,0,0,1654644588423,4337,4340,4339,4332,0,0,27,,,,,,,0,0,0,-22.00,-8.00,-39.00,0.00,0.00,-35.00,14,15.00,4.00,2.13,0.00,0.00,-4.00,0,,,100,100,0,2,0,0,0,1,0,,,,,0.0,0.0,0.0,0.0,0.0,0.0,0
34.182618,-118.129083,5.25,5.58,0.67,0.71,5.25,5.25,1.12,0.71,2600,2022-06-07 23:29:48.523,2022-06-07 16:29:48.524,12,0,0,16.793,34.182616,-118.129083,0.00,0.00,-0.67,2.30,-0.80,-4.00,0,1,0,100,100,-7186,3485,16793,3021.50,10,WP,1,0,0,0,0,0,0,1654644588523,4337,4340,4339,4332,0,0,27,,,,,,,0,0,0,-23.00,-8.00,-40.00,0.00,0.00,-35.00,14,16.00,3.00,2.17,0.00,0.00,-3.00,0,,,100,100,0,2,0,0,0,1,0,,,,,0.0,0.0,0.0,0.0,0.0,0.0,0
34.182618,-118.129083,5.25,5.58,0.67,0.73,5.25,5.25,1.12,0.73,2703,2022-06-07 23:29:48.626,2022-06-07 16:29:48.626,12,0,0,16.760,34.182616,-118.129083,0.00,0.00,-0.67,2.30,0.10,-3.90,0,1,0,100,100,-7294,3481,16760,3021.50,10,WP,1,0,0,0,0,0,0,1654644588626,4337,4340,4339,4332,0,0,27,,,,,,,0,0,0,-23.00,1.00,-39.00,0.00,0.00,-35.00,14,16.00,3.00,2.23,0.00,0.00,-3.00,0,,,100,100,0,2,0,0,0,1,0,,,,,0.0,0.0,0.0,0.0,0.0,0.0,0
34.182618,-118.129083,5.58,5.91,0.67,0.74,5.58,5.58,1.12,0.74,2803,2022-06-07 23:29:48.727,2022-06-07 16:29:48.727,12,0,0,16.760,34.182616,-118.129083,0.00,0.00,-0.67,2.20,0.30,-3.90,0,1,0,100,100,-7294,3481,16760,3021.50,10,WP,1,0,0,0,0,0,0,1654644588726,4337,4340,4339,4332,0,0,27,,,,,,,0,0,0,-22.00,3.00,-39.00,0.00,0.00,-35.00,14,17.00,3.00,2.26,0.00,0.00,-3.00,0,,,100,100,0,2,0,0,0,1,0,,,,,0.0,0.0,0.0,0.0,0.0,0.0,0
34.182618,-118.129083,5.58,5.91,0.89,0.64,5.58,5.58,1.12,0.74,2950,2022-06-07 23:29:48.874,2022-06-07 16:29:48.874,12,0,0,16.760,34.182616,-118.129083,0.00,0.00,-0.89,1.40,0.30,-4.00,0,1,0,100,100,-7294,3481,16760,3021.50,10,WP,1,0,0,0,0,0,0,1654644588873,4337,4340,4339,4332,0,0,27,,,,,,,0,0,0,-14.00,3.00,-40.00,0.00,0.00,-36.00,14,17.00,4.00,1.96,0.00,0.00,-4.00,0,,,100,100,0,2,0,0,0,1,0,,,,,0.0,0.0,0.0,0.0,0.0,0.0,0
34.182618,-118.129083,5.58,5.91,0.67,0.64,5.58,5.58,1.12,0.74,3002,2022-06-07 23:29:48.926,2022-06-07 16:29:48.926,12,0,0,16.760,34.182616,-118.129083,0.00,0.00,-0.67,1.30,0.00,-4.10,0,1,0,100,100,-7294,3481,16760,3021.50,10,WP,1,0,0,0,0,0,0,1654644588925,4337,4340,4339,4332,0,0,27,,,,,,,0,0,0,-13.00,0.00,-41.00,0.00,0.00,-36.00,14,17.00,3.00,1.95,0.00,0.00,-3.00,0,,,100,100,0,2,0,0,0,1,0,,,,,0.0,0.0,0.0,0.0,0.0,0.0,0
34.182618,-118.129083,5.91,6.23,0.45,0.69,5.91,5.91,1.12,0.74,3101,2022-06-07 23:29:49.024,2022-06-07 16:29:49.024,12,0,0,16.760,34.182616,-118.129083,0.00,0.00,-0.45,1.50,-0.30,-4.70,0,1,0,100,100,-7294,3481,16760,3021.50,10,WP,1,0,0,0,0,0,0,1654644589024,4337,4340,4339,4332,0,0,27,,,,,,,0,0,0,-15.00,-3.00,-47.00,0.00,0.00,-36.00,14,18.00,2.00,2.10,0.00,0.00,-2.00,0,,,100,100,0,2,0,0,0,1,0,,,,,0.0,0.0,0.0,0.0,0.0,0.0,0
34.182618,-118.129083,5.91,6.23,0.45,0.70,5.91,5.91,1.12,0.74,3202,2022-06-07 23:29:49.126,2022-06-07 16:29:49.126,12,0,0,16.760,34.182616,-118.129083,0.00,0.00,-0.45,1.50,-0.80,-6.00,0,1,0,100,100,-7294,3481,16760,3021.50,10,WP,1,0,0,0,0,0,0,1654644589125,4337,4340,4339,4332,0,0,27,,,,,,,0,0,0,-15.00,-8.00,-60.00,0.00,0.00,-37.00,14,18.00,2.00,2.13,0.00,0.00,-2.00,0,,,100,100,0,2,0,0,0,1,0,,,,,0.0,0.0,0.0,0.0,0.0,0.0,0
34.182618,-118.129083,5.91,6.23,0.22,0.70,5.91,5.91,1.12,0.74,3303,2022-06-07 23:29:49.226,2022-06-07 16:29:49.226,12,0,0,16.760,34.182616,-118.129083,0.00,0.00,-0.22,1.40,-1.30,-7.90,0,1,0,100,100,-7294,3481,16760,3021.50,10,WP,1,0,0,0,0,0,0,1654644589226,4337,4340,4339,4332,0,0,27,,,,,,,0,0,0,-14.00,-13.00,-79.00,0.00,0.00,-41.00,14,18.00,1.00,2.13,0.00,0.00,-1.00,0,,,100,100,0,2,0,0,0,1,0,,,,,0.0,0.0,0.0,0.0,0.0,0.0,0
34.182618,-118.129083,5.91,6.23,0.22,0.71,5.91,5.91,1.12,0.74,3403,2022-06-07 23:29:49.326,2022-06-07 16:29:49.326,12,0,0,16.760,34.182616,-118.129083,0.00,0.00,-0.22,1.40,-1.70,-10.40,0,1,0,100,100,-7294,3481,16760,3021.50,10,WP,1,0,0,0,0,0,0,1654644589326,4337,4340,4339,4332,0,0,27,,,,,,,0,0,0,-14.00,-17.00,-104.00,0.00,0.00,-51.00,14,18.00,1.00,2.17,0.00,0.00,-1.00,0,,,100,100,0,2,0,0,0,1,0,,,,,0.0,0.0,0.0,0.0,0.0,0.0,0
34.182618,-118.129083,5.91,6.23,0.00,0.70,5.91,5.91,1.12,0.74,3501,2022-06-07 23:29:49.425,2022-06-07 16:29:49.425,12,0,0,16.760,34.182616,-118.129083,0.00,0.00,0.00,1.40,-1.70,-13.40,0,1,0,100,100,-7294,3481,16760,3021.50,10,WP,1,0,0,0,0,0,0,1654644589424,4337,4340,4339,4332,0,0,27,,,,,,,0,0,0,-14.00,-17.00,-134.00,0.00,0.00,-72.00,14,18.00,0.00,2.15,0.00,0.00,0.00,0,,,100,100,0,2,0,0,0,1,0,,,,,0.0,0.0,0.0,0.0,0.0,0.0,0
34.182618,-118.129083,5.91,6.56,0.00,0.71,5.91,5.91,1.12,0.74,3603,2022-06-07 23:29:49.526,2022-06-07 16:29:49.526,12,0,0,16.760,34.182616,-118.129083,0.00,0.00,0.00,1.40,-1.70,-16.90,0,1,0,100,100,-7294,3481,16760,3021.50,10,WP,1,0,0,0,0,0,0,1654644589526,4337,4340,4339,4332,0,0,27,,,,,,,0,0,0,-14.00,-17.00,-169.00,0.00,0.00,-102.00,14,18.00,0.00,2.18,0.00,0.00,0.00,0,,,100,100,0,2,0,0,0,1,0,,,,,0.0,0.0,0.0,0.0,0.0,0.0,0
34.182618,-118.129083,5.91,6.56,0.00,0.72,5.91,5.91,1.12,0.74,3703,2022-06-07 23:29:49.626,2022-06-07 16:29:49.626,12,0,0,16.760,34.182616,-118.129083,0.00,0.00,0.00,1.50,-1.80,-21.20,0,1,0,100,100,-7294,3481,16760,3021.50,10,WP,1,0,0,0,0,0,0,1654644589626,4337,4340,4339,4332,0,0,27,,,,,,,0,0,0,-15.00,-18.00,-212.00,0.00,0.00,-140.00,14,18.00,0.00,2.20,0.00,0.00,0.00,0,,,100,100,0,2,0,0,0,1,0,,,,,0.0,0.0,0.0,0.0,0.0,0.0,0
34.182618,-118.129083,5.91,6.56,0.00,0.73,5.91,5.91,1.12,0.74,3803,2022-06-07 23:29:49.726,2022-06-07 16:29:49.726,12,0,0,16.760,34.182616,-118.129083,0.00,0.00,0.00,1.50,-1.90,-25.90,0,1,0,100,100,-7294,3481,16760,3021.50,10,WP,1,0,0,0,0,0,0,1654644589726,4337,4340,4339,4332,0,0,27,,,,,,,0,0,0,-15.00,-19.00,-259.00,0.00,0.00,-184.00,14,18.00,0.00,2.23,0.00,0.00,0.00,0,,,100,100,0,2,0,0,0,1,0,,,,,0.0,0.0,0.0,0.0,0.0,0.0,0
34.182618,-118.129083,5.91,6.56,0.00,0.73,5.91,5.91,1.12,0.74,3903,2022-06-07 23:29:49.827,2022-06-07 16:29:49.827,12,0,0,16.760,34.182616,-118.129083,0.00,0.00,0.00,1.40,-2.10,-31.20,0,1,0,100,100,-7294,3481,16760,3021.50,10,WP,1,0,0,0,0,0,0,1654644589826,4337,4340,4339,4332,0,0,27,,,,,,,0,0,0,-14.00,-21.00,-312.00,0.00,0.00,-234.00,14,18.00,0.00,2.22,0.00,0.00,0.00,0,,,100,100,0,2,0,0,0,1,0,,,,,0.0,0.0,0.0,0.0,0.0,0.0,0
34.182618,-118.129083,5.91,6.56,0.00,0.74,5.91,5.91,1.12,0.74,4003,2022-06-07 23:29:49.926,2022-06-07 16:29:49.926,12,0,0,16.760,34.182616,-118.129083,0.00,0.00,0.00,1.30,-2.20,-37.10,0,1,0,100,100,-7294,3481,16760,3021.50,10,WP,1,0,0,0,0,0,0,1654644589926,4337,4340,4339,4332,0,0,27,,,,,,,0,0,0,-13.00,-22.00,-371.00,0.00,0.00,-289.00,14,18.00,0.00,2.24,0.00,0.00,0.00,0,,,100,100,0,2,0,0,0,1,0,,,,,0.0,0.0,0.0,0.0,0.0,0.0,0
34.182618,-118.129083,5.91,6.56,0.00,0.72,5.91,5.91,1.12,0.74,4103,2022-06-07 23:29:50.026,2022-06-07 16:29:50.026,12,0,0,16.760,34.182616,-118.129083,0.00,0.00,0.00,1.10,-2.50,-43.60,0,1,0,100,100,-7294,3481,16760,3021.50,10,WP,1,0,0,0,0,0,0,1654644590026,4337,4340,4339,4332,0,0,27,,,,,,,0,0,0,-11.00,-25.00,-436.00,0.00,0.00,-351.00,14,18.00,0.00,2.21,0.00,0.00,0.00,0,,,100,100,0,2,0,0,0,1,0,,,,,0.0,0.0,0.0,0.0,0.0,0.0,0
34.182618,-118.129083,6.23,6.56,0.00,0.72,6.23,6.23,1.12,0.74,4221,2022-06-07 23:29:50.144,2022-06-07 16:29:50.144,12,0,0,16.760,34.182616,-118.129083,0.00,0.00,0.00,0.70,-2.60,-50.80,0,1,0,100,100,-7294,3481,16760,3021.50,10,WP,1,0,0,0,0,0,0,1654644590144,4337,4340,4339,4332,0,0,27,,,,,,,0,0,0,-7.00,-26.00,-508.00,0.00,0.00,-420.00,14,19.00,0.00,2.21,0.00,0.00,0.00,0,,,100,100,0,2,0,0,0,1,0,,,,,0.0,0.0,0.0,0.0,0.0,0.0,0
34.182618,-118.129083,6.23,6.56,0.00,0.67,6.23,6.23,1.12,0.74,4304,2022-06-07 23:29:50.228,2022-06-07 16:29:50.228,12,0,0,16.760,34.182616,-118.129083,0.00,0.00,0.00,0.60,-2.40,-58.50,0,1,0,100,100,-7294,3481,16760,3021.50,10,WP,1,0,0,0,0,0,0,1654644590227,4337,4340,4339,4332,0,0,27,,,,,,,0,0,0,-6.00,-24.00,-585.00,0.00,0.00,-494.00,14,19.00,0.00,2.04,0.00,0.00,0.00,0,,,100,100,0,2,0,0,0,1,0,,,,,0.0,0.0,0.0,0.0,0.0,0.0,0
34.182618,-118.129083,6.23,6.56,0.00,0.65,6.23,6.23,1.12,0.74,4403,2022-06-07 23:29:50.327,2022-06-07 16:29:50.327,12,0,0,16.760,34.182616,-118.129083,0.00,0.00,0.00,0.30,-2.30,-66.20,0,1,0,100,100,-7294,3481,16760,3021.50,10,WP,1,0,0,0,0,0,0,1654644590326,4337,4340,4339,4332,0,0,27,,,,,,,0,0,0,-3.00,-23.00,-662.00,0.00,0.00,-573.00,14,19.00,0.00,1.99,0.00,0.00,0.00,0,,,100,100,0,2,0,0,0,1,0,,,,,0.0,0.0,0.0,0.0,0.0,0.0,0
34.182618,-118.129083,6.23,6.56,0.00,0.68,6.23,6.23,1.12,0.74,4504,2022-06-07 23:29:50.428,2022-06-07 16:29:50.428,12,0,0,16.760,34.182616,-118.129083,0.00,0.00,0.00,0.00,-2.10,-73.80,0,1,0,100,100,-7294,3481,16760,3021.50,10,WP,1,0,0,0,0,0,0,1654644590427,4337,4340,4339,4332,0,0,27,,,,,,,0,0,0,-0.00,-21.00,-738.00,0.00,0.00,-652.00,14,19.00,0.00,2.06,0.00,0.00,0.00,0,,,100,100,0,2,0,0,0,1,0,,,,,0.0,0.0,0.0,0.0,0.0,0.0,0
34.182618,-118.129083,6.23,6.56,0.00,0.66,6.23,6.23,1.12,0.74,4604,2022-06-07 23:29:50.527,2022-06-07 16:29:50.527,12,0,0,16.760,34.182616,-118.129083,0.00,0.00,0.00,0.20,-1.80,-81.40,0,1,0,100,100,-7294,3481,16760,3021.50,10,WP,1,0,0,0,0,0,0,1654644590527,4337,4340,4339,4332,0,0,27,,,,,,,0,0,0,-2.00,-18.00,-814.00,0.00,0.00,-729.00,14,19.00,0.00,2.01,0.00,0.00,0.00,0,,,100,100,0,2,0,0,0,1,0,,,,,0.0,0.0,0.0,0.0,0.0,0.0,0
34.182618,-118.129083,6.23,6.56,0.00,0.64,6.23,6.23,1.12,0.74,4704,2022-06-07 23:29:50.628,2022-06-07 16:29:50.628,12,0,0,16.760,34.182616,-118.129083,0.00,0.00,0.00,0.10,-1.50,-88.90,0,1,0,100,100,-7294,3481,16760,3021.50,10,WP,1,0,0,0,0,0,0,1654644590627,4337,4340,4339,4332,0,0,27,,,,,,,0,0,0,-1.00,-15.00,-889.00,0.00,0.00,-807.00,14,19.00,0.00,1.95,0.00,0.00,0.00,0,,,100,100,0,2,0,0,0,1,0,,,,,0.0,0.0,0.0,0.0,0.0,0.0,0
34.182618,-118.129083,6.23,6.56,0.00,0.62,6.23,6.23,1.12,0.74,4804,2022-06-07 23:29:50.728,2022-06-07 16:29:50.728,12,0,0,16.751,34.182616,-118.129083,0.00,0.00,0.00,-0.10,-1.10,-96.30,0,1,0,100,100,-6816,3477,16751,3021.50,10,WP,1,0,0,0,0,0,0,1654644590727,4337,4340,4339,4332,0,0,27,,,,,,,0,0,0,1.00,-11.00,-963.00,0.00,0.00,-882.00,14,19.00,0.00,1.90,0.00,0.00,0.00,0,,,100,100,0,2,0,0,0,1,0,,,,,0.0,0.0,0.0,0.0,0.0,0.0,0
34.182618,-118.129083,6.23,6.56,0.00,0.63,6.23,6.23,1.12,0.74,4904,2022-06-07 23:29:50.828,2022-06-07 16:29:50.828,12,0,0,16.751,34.182616,-118.129083,0.00,0.00,0.00,-0.60,-0.80,-103.70,0,1,0,100,100,-6816,3477,16751,3021.50,10,WP,1,0,0,0,0,0,0,1654644590827,4337,4340,4339,4332,0,0,27,,,,,,,0,0,0,6.00,-8.00,-1037.00,0.00,0.00,-957.00,14,19.00,0.00,1.93,0.00,0.00,0.00,0,,,100,100,0,2,0,0,0,1,0,,,,,0.0,0.0,0.0,0.0,0.0,0.0,0
34.182618,-118.129083,6.23,6.56,0.00,0.62,6.23,6.23,1.12,0.74,5004,2022-06-07 23:29:50.928,2022-06-07 16:29:50.928,12,0,0,16.751,34.182616,-118.129083,0.00,0.00,0.00,-1.10,-0.50,-111.10,0,1,0,100,100,-6816,3477,16751,3021.50,10,WP,1,0,0,0,0,0,0,1654644590927,4337,4340,4339,4332,0,0,27,,,,,,,0,0,0,11.00,-5.00,-1111.00,0.00,0.00,-1031.00,14,19.00,0.00,1.90,0.00,0.00,0.00,0,,,100,100,0,2,0,0,0,1,0,,,,,0.0,0.0,0.0,0.0,0.0,0.0,0
34.182618,-118.129083,6.23,6.56,0.00,0.60,6.23,6.23,1.12,0.74,5104,2022-06-07 23:29:51.027,2022-06-07 16:29:51.027,12,0,0,16.751,34.182616,-118.129083,0.00,0.00,0.00,-1.20,-0.50,-118.50,0,1,0,100,100,-6816,3477,16751,3021.50,10,WP,1,0,0,0,0,0,0,1654644591027,4337,4340,4339,4332,0,0,27,,,,,,,0,0,0,12.00,-5.00,-1185.00,0.00,0.00,-1106.00,14,19.00,0.00,1.81,0.00,0.00,0.00,0,,,100,100,0,2,0,0,0,1,0,,,,,0.0,0.0,0.0,0.0,0.0,0.0,0
34.182618,-118.129083,6.23,6.56,0.00,0.59,6.23,6.23,1.12,0.74,5204,2022-06-07 23:29:51.128,2022-06-07 16:29:51.128,12,0,0,16.751,34.182616,-118.129083,0.00,0.00,0.00,-1.10,-0.70,-125.90,0,1,0,100,100,-6816,3477,16751,3021.50,10,WP,1,0,0,0,0,0,0,1654644591127,4337,4340,4339,4332,0,0,27,,,,,,,0,0,0,11.00,-7.00,-1259.00,0.00,0.00,-1179.00,14,19.00,0.00,1.79,0.00,0.00,0.00,0,,,100,100,0,2,0,0,0,1,0,,,,,0.0,0.0,0.0,0.0,0.0,0.0,0
34.182618,-118.129083,6.23,6.56,0.00,0.62,6.23,6.23,1.12,0.74,5303,2022-06-07 23:29:51.227,2022-06-07 16:29:51.227,12,0,0,16.751,34.182616,-118.129083,0.00,0.00,0.00,-1.20,-1.10,-133.30,0,1,0,100,100,-6816,3477,16751,3021.50,10,WP,1,0,0,0,0,0,0,1654644591226,4337,4340,4339,4332,0,0,27,,,,,,,0,0,0,12.00,-11.00,-1333.00,0.00,0.00,-1254.00,14,19.00,0.00,1.90,0.00,0.00,0.00,0,,,100,100,0,2,0,0,0,1,0,,,,,0.0,0.0,0.0,0.0,0.0,0.0,0
34.182618,-118.129083,6.23,6.56,0.00,0.62,6.23,6.23,1.12,0.74,5404,2022-06-07 23:29:51.327,2022-06-07 16:29:51.327,12,0,0,16.751,34.182616,-118.129083,0.00,0.00,0.00,-1.20,-1.20,-140.80,0,1,0,100,100,-6816,3477,16751,3021.50,10,WP,1,0,0,0,0,0,0,1654644591327,4337,4340,4339,4332,0,0,27,,,,,,,0,0,0,12.00,-12.00,-1408.00,0.00,0.00,-1329.00,14,19.00,0.00,1.90,0.00,0.00,0.00,0,,,100,100,0,2,0,0,0,1,0,,,,,0.0,0.0,0.0,0.0,0.0,0.0,0
34.182618,-118.129083,6.23,6.56,0.00,0.59,6.23,6.23,1.12,0.74,5503,2022-06-07 23:29:51.427,2022-06-07 16:29:51.427,12,0,0,16.751,34.182616,-118.129083,0.00,0.00,0.00,-1.50,-1.20,-148.30,0,1,0,100,100,-6816,3477,16751,3021.50,10,WP,1,0,0,0,0,0,0,1654644591426,4337,4340,4339,4332,0,0,27,,,,,,,0,0,0,15.00,-12.00,-1483.00,0.00,0.00,-1403.00,14,19.00,0.00,1.79,0.00,0.00,0.00,0,,,100,100,0,2,0,0,0,1,0,,,,,0.0,0.0,0.0,0.0,0.0,0.0,0
34.182618,-118.129083,6.23,6.56,0.00,0.58,6.23,6.23,1.12,0.74,5604,2022-06-07 23:29:51.528,2022-06-07 16:29:51.528,12,0,0,16.751,34.182616,-118.129083,0.00,0.00,0.00,-1.60,-1.60,-155.80,0,1,0,100,100,-6816,3477,16751,3021.50,10,WP,1,0,0,0,0,0,0,1654644591527,4337,4340,4339,4332,0,0,27,,,,,,,0,0,0,16.00,-16.00,-1558.00,0.00,0.00,-1479.00,14,19.00,0.00,1.76,0.00,0.00,0.00,0,,,100,100,0,2,0,0,0,1,0,,,,,0.0,0.0,0.0,0.0,0.0,0.0,0
34.182618,-118.129083,6.23,6.56,0.00,0.62,6.23,6.23,1.12,0.74,5704,2022-06-07 23:29:51.628,2022-06-07 16:29:51.628,12,0,0,16.751,34.182616,-118.129083,0.00,0.00,0.00,-1.70,-2.00,-162.20,0,1,0,100,100,-6816,3477,16751,3021.50,10,WP,1,0,0,0,0,0,0,1654644591627,4337,4340,4339,4332,0,0,27,,,,,,,0,0,0,17.00,-20.00,-1622.00,0.00,0.00,-1553.00,14,19.00,0.00,1.90,0.00,0.00,0.00,0,,,100,100,0,2,0,0,0,1,0,,,,,0.0,0.0,0.0,0.0,0.0,0.0,0
34.182618,-118.129083,6.23,6.56,0.00,0.61,6.23,6.23,1.12,0.74,5804,2022-06-07 23:29:51.728,2022-06-07 16:29:51.728,12,0,0,16.751,34.182616,-118.129083,0.00,0.00,0.00,-1.30,-2.00,-166.80,0,1,0,100,100,-6816,3477,16751,3021.50,10,WP,1,0,0,0,0,0,0,1654644591727,4337,4340,4339,4332,0,0,27,,,,,,,0,0,0,13.00,-20.00,-1668.00,0.00,0.00,-1615.00,14,19.00,0.00,1.85,0.00,0.00,0.00,0,,,100,100,0,2,0,0,0,1,0,,,,,0.0,0.0,0.0,0.0,0.0,0.0,0
34.182618,-118.129083,6.23,6.56,0.00,0.62,6.23,6.23,1.12,0.74,5904,2022-06-07 23:29:51.828,2022-06-07 16:29:51.828,12,0,0,16.751,34.182616,-118.129083,0.00,0.00,0.00,-1.10,-1.40,-169.70,0,1,0,100,100,-6816,3477,16751,3021.50,10,WP,1,0,0,0,0,0,0,1654644591827,4337,4340,4339,4332,0,0,27,,,,,,,0,0,0,11.00,-14.00,-1697.00,0.00,0.00,-1659.00,14,19.00,0.00,1.88,0.00,0.00,0.00,0,,,100,100,0,2,0,0,0,1,0,,,,,0.0,0.0,0.0,0.0,0.0,0.0,0
34.182618,-118.129083,6.23,6.56,0.00,0.59,6.23,6.23,1.12,0.74,6004,2022-06-07 23:29:51.927,2022-06-07 16:29:51.927,12,0,0,16.751,34.182616,-118.129083,0.00,0.00,0.00,-0.80,-1.00,-171.50,0,1,0,100,100,-6816,3477,16751,3021.50,10,WP,1,0,0,0,0,0,0,1654644591927,4337,4340,4339,4332,0,0,27,,,,,,,0,0,0,8.00,-10.00,-1715.00,0.00,0.00,-1688.00,14,19.00,0.00,1.81,0.00,0.00,0.00,0,,,100,100,0,2,0,0,0,1,0,,,,,0.0,0.0,0.0,0.0,0.0,0.0,0
34.182618,-118.129083,6.23,6.56,0.00,0.55,6.23,6.23,1.12,0.74,6104,2022-06-07 23:29:52.028,2022-06-07 16:29:52.028,12,0,0,16.751,34.182616,-118.129083,0.00,0.00,0.00,-0.80,-0.50,-172.60,0,1,0,100,100,-6816,3477,16751,3021.50,10,WP,1,0,0,0,0,0,0,1654644592027,4337,4340,4339,4332,0,0,27,,,,,,,0,0,0,8.00,-5.00,-1726.00,0.00,0.00,-1707.00,14,19.00,0.00,1.66,0.00,0.00,0.00,0,,,100,100,0,2,0,0,0,1,0,,,,,0.0,0.0,0.0,0.0,0.0,0.0,0
34.182618,-118.129083,6.23,6.56,0.00,0.52,6.23,6.23,1.12,0.74,6204,2022-06-07 23:29:52.127,2022-06-07 16:29:52.127,12,0,0,16.751,34.182616,-118.129083,0.00,0.00,0.00,-0.80,0.00,-173.10,0,1,0,100,100,-6816,3477,16751,3021.50,10,WP,1,0,0,0,0,0,0,1654644592127,4337,4340,4339,4332,0,0,27,,,,,,,0,0,0,8.00,0.00,-1731.00,0.00,0.00,-1718.00,14,19.00,0.00,1.58,0.00,0.00,0.00,0,,,100,100,0,2,0,0,0,1,0,,,,,0.0,0.0,0.0,0.0,0.0,0.0,0
34.182617,-118.129083,6.23,6.56,0.00,0.50,6.23,6.23,1.12,0.74,6304,2022-06-07 23:29:52.228,2022-06-07 16:29:52.228,12,0,0,16.751,34.182616,-118.129083,0.00,0.00,0.00,-0.60,0.10,-173.20,0,1,0,100,100,-6816,3477,16751,3021.50,10,WP,1,0,0,0,0,0,0,1654644592227,4337,4340,4339,4332,0,0,27,,,,,,,0,0,0,6.00,1.00,-1732.00,0.00,0.00,-1724.00,14,19.00,0.00,1.52,0.00,0.00,0.00,0,,,100,100,0,2,0,0,0,1,0,,,,,0.0,0.0,0.0,0.0,0.0,0.0,0
34.182617,-118.129083,6.23,6.56,0.00,0.47,6.23,6.23,1.12,0.74,6454,2022-06-07 23:29:52.378,2022-06-07 16:29:52.378,12,0,0,16.751,34.182616,-118.129083,0.00,0.00,0.00,-0.40,0.10,-173.30,0,1,0,100,100,-6816,3477,16751,3021.50,10,WP,1,0,0,0,0,0,0,1654644592377,4337,4340,4339,4332,0,0,27,,,,,,,0,0,0,4.00,1.00,-1733.00,0.00,0.00,-1727.00,14,19.00,0.00,1.43,0.00,0.00,0.00,0,,,100,100,0,2,0,0,0,1,0,,,,,0.0,0.0,0.0,0.0,0.0,0.0,0
34.182617,-118.129083,6.23,6.56,0.00,0.46,6.23,6.23,1.12,0.74,6504,2022-06-07 23:29:52.428,2022-06-07 16:29:52.428,12,0,0,16.751,34.182616,-118.129083,0.00,0.00,0.00,-0.10,0.00,-173.40,0,1,0,100,100,-6816,3477,16751,3021.50,10,WP,1,0,0,0,0,0,0,1654644592427,4337,4340,4339,4332,0,0,27,,,,,,,0,0,0,1.00,0.00,-1734.00,0.00,0.00,-1729.00,14,19.00,0.00,1.41,0.00,0.00,0.00,0,,,100,100,0,2,0,0,0,1,0,,,,,0.0,0.0,0.0,0.0,0.0,0.0,0
34.182617,-118.129083,6.23,6.56,0.00,0.44,6.23,6.23,1.12,0.74,6604,2022-06-07 23:29:52.527,2022-06-07 16:29:52.527,12,0,0,16.751,34.182616,-118.129083,0.00,0.00,0.00,-3.20,0.10,-173.50,0,1,0,100,100,-6816,3477,16751,3021.50,10,WP,1,0,0,0,0,0,0,1654644592527,4337,4340,4339,4332,0,0,27,,,,,,,0,0,0,32.00,1.00,-1735.00,0.00,0.00,-1730.00,14,19.00,0.00,1.34,0.00,0.00,0.00,0,,,100,100,0,2,0,0,0,1,0,,,,,0.0,0.0,0.0,0.0,0.0,0.0,0
34.182617,-118.129083,6.23,6.56,0.22,0.44,6.23,6.23,1.12,0.74,6704,2022-06-07 23:29:52.628,2022-06-07 16:29:52.628,12,0,0,16.723,34.182616,-118.129083,-0.22,0.00,0.00,-8.50,0.30,-173.50,0,1,0,100,100,-7044,3473,16723,3021.50,10,WP,1,0,0,0,0,0,0,1654644592627,4337,4340,4339,4332,0,0,27,,,,,,,0,0,0,85.00,3.00,-1735.00,0.00,0.00,-1730.00,14,19.00,1.00,1.34,-1.00,0.00,0.00,0,,,100,100,0,2,0,0,0,1,0,,,,,0.0,0.0,0.0,0.0,0.0,0.0,0
34.182617,-118.129083,6.23,6.56,0.45,0.37,6.23,6.23,1.12,0.74,6804,2022-06-07 23:29:52.728,2022-06-07 16:29:52.728,12,0,0,16.723,34.182616,-118.129083,-0.45,0.00,0.00,-12.80,0.60,-173.60,0,1,0,100,100,-7044,3473,16723,3021.50,10,WP,1,0,0,0,0,0,0,1654644592727,4337,4340,4339,4332,0,0,27,,,,,,,0,0,0,128.00,6.00,-1736.00,0.00,0.00,-1731.00,14,19.00,2.00,1.14,-2.00,0.00,0.00,0,,,100,100,0,2,0,0,0,1,0,,,,,0.0,0.0,0.0,0.0,0.0,0.0,0
34.182617,-118.129083,6.23,6.56,1.12,0.25,6.23,6.23,1.12,0.74,6904,2022-06-07 23:29:52.827,2022-06-07 16:29:52.827,12,0,0,16.723,34.182616,-118.129083,-1.12,0.00,0.00,-15.70,0.60,-173.50,0,1,0,100,100,-7044,3473,16723,3021.50,10,WP,1,0,0,0,0,0,0,1654644592827,4337,4340,4339,4332,0,0,27,,,,,,,0,0,0,157.00,6.00,-1735.00,0.00,0.00,-1731.00,14,19.00,5.00,0.75,-5.00,0.00,0.00,0,,,100,100,0,2,0,0,0,1,0,,,,,0.0,0.0,0.0,0.0,0.0,0.0,0
34.182616,-118.129083,6.23,6.56,1.57,0.19,6.23,6.23,1.57,0.74,7004,2022-06-07 23:29:52.927,2022-06-07 16:29:52.927,12,0,0,16.723,34.182616,-118.129083,-1.57,0.00,0.00,-17.60,0.50,-173.40,0,1,0,100,100,-7044,3473,16723,3021.50,10,WP,1,0,0,0,0,0,0,1654644592927,4337,4340,4339,4332,0,0,27,,,,,,,0,0,0,176.00,5.00,-1734.00,0.00,0.00,-1731.00,14,19.00,7.00,0.57,-7.00,0.00,0.00,0,,,100,100,0,2,0,0,0,1,0,,,,,0.0,0.0,0.0,0.0,0.0,0.0,0
34.182615,-118.129083,6.23,6.56,2.25,0.40,6.23,6.23,2.25,0.74,7104,2022-06-07 23:29:53.028,2022-06-07 16:29:53.028,12,0,0,16.723,34.182616,-118.129083,-2.24,-0.22,0.00,-19.00,0.60,-173.40,0,1,0,100,100,-7044,3473,16723,3021.50,10,WP,1,0,0,0,0,0,0,1654644593027,4337,4340,4339,4332,0,0,27,,,,,,,0,0,0,190.00,6.00,-1734.00,0.00,0.00,-1731.00,14,19.00,10.05,1.22,-10.00,-1.00,0.00,0,,,100,100,0,2,0,0,0,1,0,,,,,0.0,0.0,0.0,0.0,0.0,0.0,0
34.182614,-118.129083,6.23,6.56,2.92,0.79,6.23,6.23,2.92,0.79,7204,2022-06-07 23:29:53.128,2022-06-07 16:29:53.128,12,0,0,16.723,34.182616,-118.129083,-2.91,-0.22,0.00,-20.10,0.60,-173.50,0,1,0,100,100,-7044,3473,16723,3021.50,10,WP,1,0,0,0,0,0,0,1654644593127,4337,4340,4339,4332,0,0,27,,,,,,,0,0,0,201.00,6.00,-1735.00,0.00,0.00,-1731.00,14,19.00,13.04,2.40,-13.00,-1.00,0.00,0,,,100,100,0,2,0,0,0,1,0,,,,,0.0,0.0,0.0,0.0,0.0,0.0,0
34.182613,-118.129083,6.23,6.56,3.61,1.30,6.23,6.23,3.61,1.30,7304,2022-06-07 23:29:53.228,2022-06-07 16:29:53.228,12,0,0,16.723,34.182616,-118.129083,-3.58,-0.45,0.00,-21.00,0.60,-173.20,0,1,0,100,100,-7044,3473,16723,3021.50,10,WP,1,0,0,0,0,0,0,1654644593227,4337,4340,4339,4332,0,0,27,,,,,,,0,0,0,210.00,6.00,-1732.00,0.00,0.00,-1732.00,14,19.00,16.12,3.96,-16.00,-2.00,0.00,0,,,100,100,0,2,0,0,0,1,0,,,,,0.0,0.0,0.0,0.0,0.0,0.0,0
34.182611,-118.129083,6.23,6.56,4.50,1.93,6.23,6.23,4.50,1.93,7405,2022-06-07 23:29:53.328,2022-06-07 16:29:53.328,12,0,0,16.723,34.182616,-118.129083,-4.47,-0.45,0.00,-21.40,0.50,-173.10,0,1,0,100,100,-7044,3473,16723,3021.50,10,WP,1,0,0,0,0,0,0,1654644593328,4337,4340,4339,4332,0,0,27,,,,,,,0,0,0,214.00,5.00,-1731.00,0.00,0.00,-1732.00,14,19.00,20.10,5.87,-20.00,-2.00,0.00,0,,,100,100,0,2,0,0,0,1,0,,,,,0.0,0.0,0.0,0.0,0.0,0.0,0
34.182609,-118.129084,6.23,6.56,5.19,2.62,6.23,6.23,5.19,2.62,7505,2022-06-07 23:29:53.428,2022-06-07 16:29:53.428,12,0,0,16.723,34.182616,-118.129083,-5.14,-0.67,0.00,-20.30,-0.10,-172.40,0,1,0,100,100,-7044,3473,16723,3021.50,10,WP,1,0,0,0,0,0,0,1654644593428,4337,4340,4339,4332,0,0,27,,,,,,,0,0,0,203.00,-1.00,-1724.00,0.00,0.00,-1732.00,14,19.00,23.19,8.00,-23.00,-3.00,0.00,0,,,100,100,0,2,0,0,0,1,0,,,,,0.0,0.0,0.0,0.0,0.0,0.0,0
34.182607,-118.129085,6.23,6.56,5.88,3.47,6.23,6.23,5.88,3.47,7604,2022-06-07 23:29:53.528,2022-06-07 16:29:53.528,12,0,0,16.723,34.182616,-118.129083,-5.82,-0.89,0.00,-18.10,-0.70,-172.30,0,1,0,100,100,-7044,3473,16723,3021.50,10,WP,1,0,0,0,0,0,0,1654644593527,4337,4340,4339,4332,0,0,27,,,,,,,0,0,0,181.00,-7.00,-1723.00,0.00,0.00,-1734.00,14,19.00,26.31,10.57,-26.00,-4.00,0.00,0,,,100,100,0,2,0,0,0,1,0,,,,,0.0,0.0,0.0,0.0,0.0,0.0,0
34.182604,-118.129086,6.23,6.56,6.33,4.32,6.23,6.23,6.33,4.32,7704,2022-06-07 23:29:53.628,2022-06-07 16:29:53.628,12,0,0,16.723,34.182616,-118.129083,-6.26,-0.89,0.00,-14.00,-1.60,-172.00,0,1,0,100,100,-7044,3473,16723,3021.50,10,WP,1,0,0,0,0,0,0,1654644593627,4337,4340,4339,4332,0,0,27,,,,,,,0,0,0,140.00,-16.00,-1720.00,0.00,0.00,-1737.00,14,19.00,28.28,13.16,-28.00,-4.00,0.00,0,,,100,100,0,2,0,0,0,1,0,,,,,0.0,0.0,0.0,0.0,0.0,0.0,0
34.182602,-118.129086,6.23,6.89,6.77,5.31,6.23,6.23,6.77,5.31,7804,2022-06-07 23:29:53.728,2022-06-07 16:29:53.728,12,0,0,16.723,34.182616,-118.129083,-6.71,-0.89,0.00,-7.70,-1.90,-172.20,0,1,0,100,100,-7044,3473,16723,3021.50,10,WP,1,0,0,0,0,0,0,1654644593727,4337,4340,4339,4332,0,0,27,,,,,,,0,0,0,77.00,-19.00,-1722.00,0.00,0.00,-1741.00,14,19.00,30.27,16.17,-30.00,-4.00,0.00,0,,,100,100,0,2,0,0,0,1,0,,,,,0.0,0.0,0.0,0.0,0.0,0.0,0
34.182599,-118.129087,6.23,6.89,6.77,6.34,6.23,6.23,6.77,6.34,7905,2022-06-07 23:29:53.828,2022-06-07 16:29:53.828,12,0,0,16.723,34.182616,-118.129083,-6.71,-0.89,-0.22,-1.90,-2.10,-172.40,0,1,0,100,100,-7044,3473,16723,3021.50,10,WP,1,0,0,0,0,0,0,1654644593828,4337,4340,4339,4332,0,0,27,,,,,,,0,0,0,19.00,-21.00,-1724.00,0.00,0.00,-1746.00,14,19.00,30.28,19.34,-30.00,-4.00,-1.00,0,,,100,100,0,2,0,0,0,1,0,,,,,0.0,0.0,0.0,0.0,0.0,0.0,0
34.182596,-118.129088,6.23,6.89,6.77,7.36,6.23,6.23,6.77,7.36,8005,2022-06-07 23:29:53.929,2022-06-07 16:29:53.929,12,0,0,16.723,34.182616,-118.129083,-6.71,-0.89,0.00,1.90,-1.50,-172.70,0,1,0,100,100,-7044,3473,16723,3021.50,10,WP,1,0,0,0,0,0,0,1654644593928,4337,4340,4339,4332,0,0,27,,,,,,,0,0,0,-19.00,-15.00,-1727.00,0.00,0.00,-1751.00,14,19.00,30.27,22.43,-30.00,-4.00,0.00,0,,,100,100,0,2,0,0,0,1,0,,,,,0.0,0.0,0.0,0.0,0.0,0.0,0
34.182594,-118.129089,6.23,6.89,6.55,8.30,6.23,6.23,6.77,8.30,8105,2022-06-07 23:29:54.028,2022-06-07 16:29:54.028,12,0,0,16.723,34.182616,-118.129083,-6.49,-0.89,0.00,3.50,-2.40,-173.00,0,1,0,100,100,-7044,3473,16723,3021.50,10,WP,1,0,0,0,0,0,0,1654644594028,4337,4340,4339,4332,0,0,27,,,,,,,0,0,0,-35.00,-24.00,-1730.00,0.00,0.00,-1756.00,14,19.00,29.27,25.30,-29.00,-4.00,0.00,0,,,100,100,0,2,0,0,0,1,0,,,,,0.0,0.0,0.0,0.0,0.0,0.0,0
34.182591,-118.129090,6.23,6.89,6.33,9.25,6.23,6.23,6.77,9.25,8206,2022-06-07 23:29:54.129,2022-06-07 16:29:54.129,12,0,0,16.723,34.182616,-118.129083,-6.26,-0.89,0.00,4.30,-3.60,-173.30,0,1,0,100,100,-7044,3473,16723,3021.50,10,WP,1,0,0,0,0,0,0,1654644594129,4337,4340,4339,4332,0,0,27,,,,,,,0,0,0,-43.00,-36.00,-1733.00,0.00,0.00,-1760.00,14,19.00,28.28,28.18,-28.00,-4.00,0.00,0,,,100,100,0,2,0,0,0,1,0,,,,,0.0,0.0,0.0,0.0,0.0,0.0,0
34.182589,-118.129091,6.23,6.89,6.11,10.04,6.23,6.23,6.77,10.04,8304,2022-06-07 23:29:54.228,2022-06-07 16:29:54.228,12,0,0,16.723,34.182616,-118.129083,-6.04,-0.89,0.00,4.50,-5.00,-173.70,0,1,0,100,100,-7044,3473,16723,3021.50,10,WP,1,0,0,0,0,0,0,1654644594227,4168,4168,4162,4166,0,0,27,,,,,,,0,0,0,-45.00,-50.00,-1737.00,0.00,0.00,-1763.00,14,19.00,27.29,30.60,-27.00,-4.00,0.00,0,,,100,100,0,2,0,0,0,1,0,,,,,0.0,0.0,0.0,0.0,0.0,0.0,0
34.182587,-118.129091,6.23,6.89,5.63,10.89,6.23,6.23,6.77,10.89,8405,2022-06-07 23:29:54.329,2022-06-07 16:29:54.329,12,0,0,16.723,34.182616,-118.129083,-5.59,-0.67,0.00,4.90,-5.70,-173.90,0,1,0,100,100,-7044,3473,16723,3021.50,10,WP,1,0,0,0,0,0,0,1654644594328,4168,4168,4162,4166,0,0,27,,,,,,,0,0,0,-49.00,-57.00,-1739.00,0.00,0.00,-1766.00,14,19.00,25.18,33.18,-25.00,-3.00,0.00,0,,,100,100,0,2,0,0,0,1,0,,,,,0.0,0.0,0.0,0.0,0.0,0.0,0
34.182585,-118.129092,6.23,6.89,5.39,11.73,6.23,6.23,6.77,11.73,8505,2022-06-07 23:29:54.428,2022-06-07 16:29:54.429,12,0,0,16.723,34.182616,-118.129083,-5.37,-0.45,0.00,5.70,-6.50,-173.90,0,1,0,100,100,-7044,3473,16723,3021.50,10,WP,1,0,0,0,0,0,0,1654644594428,4168,4168,4162,4166,0,0,27,,,,,,,0,0,0,-57.00,-65.00,-1739.00,0.00,0.00,-1768.00,14,19.00,24.08,35.76,-24.00,-2.00,0.00,0,,,100,100,0,2,0,0,0,1,0,,,,,0.0,0.0,0.0,0.0,0.0,0.0,0
34.182583,-118.129092,6.23,6.89,5.15,12.48,6.23,6.23,6.77,12.48,8605,2022-06-07 23:29:54.529,2022-06-07 16:29:54.529,12,0,0,16.723,34.182616,-118.129083,-5.14,-0.22,0.00,7.10,-5.50,-173.90,0,1,0,100,100,-7044,3473,16723,3021.50,10,WP,1,0,0,0,0,0,0,1654644594528,4168,4168,4162,4166,0,0,27,,,,,,,0,0,0,-71.00,-55.00,-1739.00,0.00,0.00,-1769.00,14,19.00,23.02,38.04,-23.00,-1.00,0.00,0,,,100,100,0,2,0,0,0,1,0,,,,,0.0,0.0,0.0,0.0,0.0,0.0,0
34.182581,-118.129093,6.23,6.89,4.70,13.20,6.23,6.23,6.77,13.20,8705,2022-06-07 23:29:54.629,2022-06-07 16:29:54.629,12,0,0,16.750,34.182616,-118.129083,-4.70,0.00,0.00,7.80,-4.30,-173.80,0,1,0,99,100,-6976,3469,16750,3021.50,10,WP,1,0,0,0,0,0,0,1654644594628,4168,4168,4162,4166,0,0,27,,,,,,,0,0,0,-78.00,-43.00,-1738.00,0.00,0.00,-1771.00,14,19.00,21.00,40.24,-21.00,0.00,0.00,0,,,100,100,0,2,0,0,0,1,0,,,,,0.0,0.0,0.0,0.0,0.0,0.0,0
34.182579,-118.129093,6.23,6.89,4.25,13.84,6.23,6.23,6.77,13.84,8805,2022-06-07 23:29:54.729,2022-06-07 16:29:54.729,12,0,0,16.750,34.182616,-118.129083,-4.25,0.00,0.00,7.70,-4.30,-173.00,0,1,0,99,100,-6976,3469,16750,3021.50,10,WP,1,0,0,0,0,0,0,1654644594728,4168,4168,4162,4166,0,0,27,,,,,,,0,0,0,-77.00,-43.00,-1730.00,0.00,0.00,-1772.00,14,19.00,19.00,42.18,-19.00,0.00,0.00,0,,,100,100,0,2,0,0,0,1,0,,,,,0.0,0.0,0.0,0.0,0.0,0.0,0
34.182577,-118.129093,6.23,6.89,3.80,14.47,6.23,6.23,6.77,14.47,8905,2022-06-07 23:29:54.829,2022-06-07 16:29:54.829,12,0,0,16.750,34.182616,-118.129083,-3.80,0.00,0.00,7.60,-4.20,-173.50,0,1,0,99,100,-6976,3469,16750,3021.50,10,WP,1,0,0,0,0,0,0,1654644594828,4168,4168,4162,4166,0,0,27,,,,,,,0,0,0,-76.00,-42.00,-1735.00,0.00,0.00,-1773.00,14,19.00,17.00,44.11,-17.00,0.00,0.00,0,,,100,100,0,2,0,0,0,1,0,,,,,0.0,0.0,0.0,0.0,0.0,0.0,0
34.182576,-118.129093,6.23,6.89,3.58,15.00,6.23,6.23,6.77,15.00,9005,2022-06-07 23:29:54.929,2022-06-07 16:29:54.929,12,0,0,16.750,34.182616,-118.129083,-3.58,0.00,0.00,6.90,-3.90,-173.20,0,1,0,99,100,-6976,3469,16750,3021.50,10,WP,1,0,0,0,0,0,0,1654644594928,4168,4168,4162,4166,0,0,27,,,,,,,0,0,0,-69.00,-39.00,-1732.00,0.00,0.00,-1774.00,14,19.00,16.00,45.72,-16.00,0.00,0.00,0,,,100,100,0,2,0,0,0,1,0,,,,,0.0,0.0,0.0,0.0,0.0,0.0,0
34.182574,-118.129093,6.23,6.89,3.14,15.53,6.23,6.23,6.77,15.53,9106,2022-06-07 23:29:55.029,2022-06-07 16:29:55.029,12,0,0,16.750,34.182616,-118.129083,-3.13,0.22,0.00,6.20,-3.10,-173.40,0,1,0,99,100,-6976,3469,16750,3021.50,10,WP,1,0,0,0,0,0,0,1654644595029,4168,4168,4162,4166,0,0,27,,,,,,,0,0,0,-62.00,-31.00,-1734.00,0.00,0.00,-1774.00,14,19.00,14.04,47.33,-14.00,1.00,0.00,0,,,100,100,0,2,0,0,0,1,0,,,,,0.0,0.0,0.0,0.0,0.0,0.0,0
34.182573,-118.129093,6.23,6.89,2.92,15.96,6.23,6.23,6.77,15.96,9207,2022-06-07 23:29:55.130,2022-06-07 16:29:55.130,12,0,0,16.750,34.182616,-118.129083,-2.91,0.22,0.00,5.20,-2.70,-173.30,0,1,0,99,100,-6976,3469,16750,3021.50,10,WP,1,0,0,0,0,0,0,1654644595130,4168,4168,4162,4166,0,0,27,,,,,,,0,0,0,-52.00,-27.00,-1733.00,0.00,0.00,-1775.00,14,19.00,13.04,48.65,-13.00,1.00,0.00,0,,,100,100,0,2,0,0,0,1,0,,,,,0.0,0.0,0.0,0.0,0.0,0.0,0
34.182572,-118.129093,6.23,6.89,2.69,16.44,6.23,6.23,6.77,16.44,9306,2022-06-07 23:29:55.229,2022-06-07 16:29:55.229,12,0,0,16.750,34.182616,-118.129083,-2.68,0.22,0.00,5.00,-1.70,-173.30,0,1,0,99,100,-6976,3469,16750,3021.50,10,WP,1,0,0,0,0,0,0,1654644595229,4168,4168,4162,4166,0,0,27,,,,,,,0,0,0,-50.00,-17.00,-1733.00,0.00,0.00,-1775.00,14,19.00,12.04,50.11,-12.00,1.00,0.00,0,,,100,100,0,2,0,0,0,1,0,,,,,0.0,0.0,0.0,0.0,0.0,0.0,0
34.182571,-118.129093,6.23,6.89,2.47,16.81,6.23,6.23,6.77,16.81,9406,2022-06-07 23:29:55.329,2022-06-07 16:29:55.329,12,0,0,16.750,34.182616,-118.129083,-2.46,0.22,0.00,4.30,-1.40,-173.30,0,1,0,99,100,-6976,3469,16750,3021.50,10,WP,1,0,0,0,0,0,0,1654644595329,4168,4168,4162,4166,0,0,27,,,,,,,0,0,0,-43.00,-14.00,-1733.00,0.00,0.00,-1776.00,14,19.00,11.05,51.23,-11.00,1.00,0.00,0,,,100,100,0,2,0,0,0,1,0,,,,,0.0,0.0,0.0,0.0,0.0,0.0,0
34.182570,-118.129092,6.23,6.89,2.28,17.14,6.23,6.23,6.77,17.14,9506,2022-06-07 23:29:55.429,2022-06-07 16:29:55.429,12,0,0,16.750,34.182616,-118.129083,-2.24,0.45,0.00,3.60,-0.10,-173.30,0,1,0,99,100,-6976,3469,16750,3021.50,10,WP,1,0,0,0,0,0,0,1654644595429,4168,4168,4162,4166,0,0,27,,,,,,,0,0,0,-36.00,-1.00,-1733.00,0.00,0.00,-1776.00,14,19.00,10.20,52.26,-10.00,2.00,0.00,0,,,100,100,0,2,0,0,0,1,0,,,,,0.0,0.0,0.0,0.0,0.0,0.0,0
34.182569,-118.129092,6.23,6.89,2.06,17.45,6.23,6.23,6.77,17.45,9606,2022-06-07 23:29:55.529,2022-06-07 16:29:55.529,12,0,0,16.750,34.182616,-118.129083,-2.01,0.45,0.00,3.00,0.10,-173.40,0,1,0,99,100,-6976,3469,16750,3021.50,10,WP,1,0,0,0,0,0,0,1654644595529,4168,4168,4162,4166,0,0,27,,,,,,,0,0,0,-30.00,1.00,-1734.00,0.00,0.00,-1777.00,14,19.00,9.22,53.19,-9.00,2.00,0.00,0,,,100,100,0,2,0,0,0,1,0,,,,,0.0,0.0,0.0,0.0,0.0,0.0,0
34.182568,-118.129092,6.23,6.89,1.84,17.71,6.23,6.23,6.77,17.71,9706,2022-06-07 23:29:55.629,2022-06-07 16:29:55.629,12,0,0,16.750,34.182616,-118.129083,-1.79,0.45,0.00,2.30,0.90,-173.30,0,1,0,99,100,-6976,3469,16750,3021.50,10,WP,1,0,0,0,0,0,0,1654644595629,4168,4168,4162,4166,0,0,27,,,,,,,0,0,0,-23.00,9.00,-1733.00,0.00,0.00,-1777.00,14,19.00,8.25,53.97,-8.00,2.00,0.00,0,,,100,100,0,2,0,0,0,1,0,,,,,0.0,0.0,0.0,0.0,0.0,0.0,0
34.182567,-118.129092,6.23,7.22,1.80,17.97,6.23,6.23,6.77,17.97,9856,2022-06-07 23:29:55.779,2022-06-07 16:29:55.779,12,0,0,16.750,34.182616,-118.129083,-1.79,0.22,0.00,2.20,0.80,-173.30,0,1,0,99,100,-6976,3469,16750,3021.50,10,WP,1,0,0,0,0,0,0,1654644595779,4168,4168,4162,4166,0,0,27,,,,,,,0,0,0,-22.00,8.00,-1733.00,0.00,0.00,-1777.00,14,19.00,8.06,54.77,-8.00,1.00,0.00,0,,,100,100,0,2,0,0,0,1,0,,,,,0.0,0.0,0.0,0.0,0.0,0.0,0
34.182566,-118.129091,6.23,7.22,1.58,18.23,6.23,6.23,6.77,18.23,9906,2022-06-07 23:29:55.829,2022-06-07 16:29:55.829,12,0,0,16.750,34.182616,-118.129083,-1.57,0.22,0.00,2.50,1.20,-173.40,0,1,0,99,100,-6976,3469,16750,3021.50,10,WP,1,0,0,0,0,0,0,1654644595829,4168,4168,4162,4166,0,0,27,,,,,,,0,0,0,-25.00,12.00,-1734.00,0.00,0.00,-1778.00,14,19.00,7.07,55.57,-7.00,1.00,0.00,0,,,100,100,0,2,0,0,0,1,0,,,,,0.0,0.0,0.0,0.0,0.0,0.0,0
34.182566,-118.129091,6.23,7.22,1.36,18.46,6.23,6.23,6.77,18.46,10006,2022-06-07 23:29:55.929,2022-06-07 16:29:55.929,12,0,0,16.750,34.182616,-118.129083,-1.34,0.22,0.00,3.10,0.90,-173.30,0,1,0,99,100,-6976,3469,16750,3021.50,10,WP,1,0,0,0,0,0,0,1654644595929,4168,4168,4162,4166,0,0,27,,,,,,,0,0,0,-31.00,9.00,-1733.00,0.00,0.00,-1778.00,14,19.00,6.08,56.27,-6.00,1.00,0.00,0,,,100,100,0,2,0,0,0,1,0,,,,,0.0,0.0,0.0,0.0,0.0,0.0,0
34.182565,-118.129091,6.23,7.22,1.36,18.68,6.23,6.23,6.77,18.68,10107,2022-06-07 23:29:56.030,2022-06-07 16:29:56.030,12,0,0,16.750,34.182616,-118.129083,-1.34,0.22,0.00,3.60,1.20,-173.40,0,1,0,99,100,-6976,3469,16750,3021.50,10,WP,1,0,0,0,0,0,0,1654644596030,4168,4168,4162,4166,0,0,27,,,,,,,0,0,0,-36.00,12.00,-1734.00,0.00,0.00,-1778.00,14,19.00,6.08,56.95,-6.00,1.00,0.00,0,,,100,100,0,2,0,0,0,1,0,,,,,0.0,0.0,0.0,0.0,0.0,0.0,0
34.182565,-118.129091,6.23,7.22,1.12,18.87,6.23,6.23,6.77,18.87,10206,2022-06-07 23:29:56.130,2022-06-07 16:29:56.130,12,0,0,16.750,34.182616,-118.129083,-1.12,0.00,0.00,3.90,1.10,-173.40,0,1,0,99,100,-6976,3469,16750,3021.50,10,WP,1,0,0,0,0,0,0,1654644596129,4168,4168,4162,4166,0,0,27,,,,,,,0,0,0,-39.00,11.00,-1734.00,0.00,0.00,-1778.00,14,19.00,5.00,57.51,-5.00,0.00,0.00,0,,,100,100,0,2,0,0,0,1,0,,,,,0.0,0.0,0.0,0.0,0.0,0.0,0
34.182564,-118.129091,6.23,7.22,0.89,19.00,6.23,6.23,6.77,19.00,10307,2022-06-07 23:29:56.230,2022-06-07 16:29:56.230,12,0,0,16.750,34.182616,-118.129083,-0.89,0.00,0.00,3.80,1.50,-173.30,0,1,0,99,100,-6976,3469,16750,3021.50,10,WP,1,0,0,0,0,0,0,1654644596230,4168,4168,4162,4166,0,0,27,,,,,,,0,0,0,-38.00,15.00,-1733.00,0.00,0.00,-1779.00,14,19.00,4.00,57.91,-4.00,0.00,0.00,0,,,100,100,0,2,0,0,0,1,0,,,,,0.0,0.0,0.0,0.0,0.0,0.0,0
34.182564,-118.129091,6.23,7.22,0.67,19.13,6.23,6.23,6.77,19.13,10406,2022-06-07 23:29:56.330,2022-06-07 16:29:56.330,12,0,0,16.750,34.182616,-118.129083,-0.67,0.00,0.00,3.70,1.00,-173.30,0,1,0,99,100,-6976,3469,16750,3021.50,10,WP,1,0,0,0,0,0,0,1654644596329,4168,4168,4162,4166,0,0,27,,,,,,,0,0,0,-37.00,10.00,-1733.00,0.00,0.00,-1779.00,14,19.00,3.00,58.32,-3.00,0.00,0.00,0,,,100,100,0,2,0,0,0,1,0,,,,,0.0,0.0,0.0,0.0,0.0,0.0,0
34.182564,-118.129090,6.23,7.22,0.45,19.24,6.23,6.23,6.77,19.24,10506,2022-06-07 23:29:56.430,2022-06-07 16:29:56.430,12,0,0,16.750,34.182616,-118.129083,-0.45,0.00,0.00,5.40,0.10,-173.20,0,1,0,99,100,-6976,3469,16750,3021.50,10,WP,1,0,0,0,0,0,0,1654644596429,4168,4168,4162,4166,0,0,27,,,,,,,0,0,0,-54.00,1.00,-1732.00,0.00,0.00,-1779.00,14,19.00,2.00,58.65,-2.00,0.00,0.00,0,,,100,100,0,2,0,0,0,1,0,,,,,0.0,0.0,0.0,0.0,0.0,0.0,0
34.182563,-118.129090,6.23,7.22,0.22,19.32,6.23,6.23,6.77,19.32,10606,2022-06-07 23:29:56.530,2022-06-07 16:29:56.530,12,0,0,16.750,34.182616,-118.129083,-0.22,0.00,0.00,3.90,0.00,-173.20,0,1,0,99,100,-6976,3469,16750,3021.50,10,WP,1,0,0,0,0,0,0,1654644596529,4168,4168,4162,4166,0,0,27,,,,,,,0,0,0,-39.00,0.00,-1732.00,0.00,0.00,-1779.00,14,19.00,1.00,58.88,-1.00,0.00,0.00,0,,,100,100,0,2,0,0,0,1,0,,,,,0.0,0.0,0.0,0.0,0.0,0.0,0
34.182563,-118.129090,6.23,7.22,0.22,19.35,6.23,6.23,6.77,19.35,10707,2022-06-07 23:29:56.631,2022-06-07 16:29:56.631,12,0,0,16.682,34.182616,-118.129083,-0.22,0.00,0.00,2.50,-0.20,-173.10,0,1,0,99,100,-7041,3465,16682,3021.50,10,WP,1,0,0,0,0,0,0,1654644596630,4168,4168,4162,4166,0,0,27,,,,,,,0,0,0,-25.00,-2.00,-1731.00,0.00,0.00,-1779.00,14,19.00,1.00,58.99,-1.00,0.00,0.00,0,,,100,100,0,2,0,0,0,1,0,,,,,0.0,0.0,0.0,0.0,0.0,0.0,0
34.182563,-118.129090,6.23,7.22,0.00,19.38,6.23,6.23,6.77,19.38,10807,2022-06-07 23:29:56.731,2022-06-07 16:29:56.731,12,0,0,16.682,34.182616,-118.129083,0.00,0.00,0.00,1.60,-0.20,-166.10,0,1,0,99,100,-7041,3465,16682,3021.50,10,WP,1,0,0,0,0,0,0,1654644596730,4168,4168,4162,4166,0,0,27,,,,,,,0,0,0,-16.00,-2.00,-1661.00,0.00,0.00,-1779.00,14,19.00,0.00,59.08,0.00,0.00,0.00,0,,,100,100,0,2,0,0,0,1,0,,,,,0.0,0.0,0.0,0.0,0.0,0.0,0
34.182563,-118.129090,6.23,7.22,0.00,19.34,6.23,6.23,6.77,19.38,10906,2022-06-07 23:29:56.830,2022-06-07 16:29:56.830,12,0,0,16.682,34.182616,-118.129083,0.00,0.00,0.00,0.70,0.10,-158.60,0,1,0,99,100,-7041,3465,16682,3021.50,10,WP,1,0,0,0,0,0,0,1654644596829,4168,4168,4162,4166,0,0,27,,,,,,,0,0,0,-7.00,1.00,-1586.00,0.00,0.00,-1751.00,14,19.00,0.00,58.95,0.00,0.00,0.00,0,,,100,100,0,2,0,0,0,1,0,,,,,0.0,0.0,0.0,0.0,0.0,0.0,0
34.182563,-118.129090,6.23,7.22,0.00,19.35,6.23,6.23,6.77,19.38,11007,2022-06-07 23:29:56.930,2022-06-07 16:29:56.930,12,0,0,16.682,34.182616,-118.129083,0.00,0.00,0.00,0.30,0.30,-150.90,0,1,0,99,100,-7041,3465,16682,3021.50,10,WP,1,0,0,0,0,0,0,1654644596930,4168,4168,4162,4166,0,0,27,,,,,,,0,0,0,-3.00,3.00,-1509.00,0.00,0.00,-1674.00,14,19.00,0.00,58.97,0.00,0.00,0.00,0,,,100,100,0,2,0,0,0,1,0,,,,,0.0,0.0,0.0,0.0,0.0,0.0,0
34.182563,-118.129089,6.23,7.22,0.00,19.34,6.23,6.23,6.77,19.38,11107,2022-06-07 23:29:57.030,2022-06-07 16:29:57.030,12,0,0,16.682,34.182616,-118.129083,0.00,0.00,0.00,0.00,0.20,-143.40,0,1,0,99,100,-7041,3465,16682,3021.50,10,WP,1,0,0,0,0,0,0,1654644597030,4168,4168,4162,4166,0,0,27,,,,,,,0,0,0,-0.00,2.00,-1434.00,0.00,0.00,-1588.00,14,19.00,0.00,58.95,0.00,0.00,0.00,0,,,100,100,0,2,0,0,0,1,0,,,,,0.0,0.0,0.0,0.0,0.0,0.0,0
34.182563,-118.129089,6.23,7.22,0.00,19.33,6.23,6.23,6.77,19.38,11207,2022-06-07 23:29:57.130,2022-06-07 16:29:57.130,12,0,0,16.682,34.182616,-118.129083,0.00,0.00,0.00,-0.10,0.00,-135.90,0,1,0,99,100,-7041,3465,16682,3021.50,10,WP,1,0,0,0,0,0,0,1654644597130,4168,4168,4162,4166,0,0,27,,,,,,,0,0,0,1.00,0.00,-1359.00,0.00,0.00,-1506.00,14,19.00,0.00,58.93,0.00,0.00,0.00,0,,,100,100,0,2,0,0,0,1,0,,,,,0.0,0.0,0.0,0.0,0.0,0.0,0
34.182563,-118.129089,6.23,7.22,0.00,19.28,6.23,6.23,6.77,19.38,11307,2022-06-07 23:29:57.231,2022-06-07 16:29:57.231,12,0,0,16.682,34.182616,-118.129083,0.00,0.00,0.00,-0.20,-0.20,-128.40,0,1,0,99,100,-7041,3465,16682,3021.50,10,WP,1,0,0,0,0,0,0,1654644597230,4168,4168,4162,4166,0,0,27,,,,,,,0,0,0,2.00,-2.00,-1284.00,0.00,0.00,-1427.00,14,19.00,0.00,58.76,0.00,0.00,0.00,0,,,100,100,0,2,0,0,0,1,0,,,,,0.0,0.0,0.0,0.0,0.0,0.0,0
34.182563,-118.129089,6.23,7.22,0.00,19.26,6.23,6.23,6.77,19.38,11408,2022-06-07 23:29:57.332,2022-06-07 16:29:57.332,12,0,0,16.682,34.182616,-118.129083,0.00,0.00,0.00,-0.40,-0.20,-120.90,0,1,0,99,100,-7041,3465,16682,3021.50,10,WP,1,0,0,0,0,0,0,1654644597331,4168,4168,4162,4166,0,0,27,,,,,,,0,0,0,4.00,-2.00,-1209.00,0.00,0.00,-1348.00,14,19.00,0.00,58.71,0.00,0.00,0.00,0,,,100,100,0,2,0,0,0,1,0,,,,,0.0,0.0,0.0,0.0,0.0,0.0,0
34.182564,-118.129089,6.23,7.22,0.00,19.21,6.23,6.23,6.77,19.38,11510,2022-06-07 23:29:57.434,2022-06-07 16:29:57.434,12,0,0,16.682,34.182616,-118.129083,0.00,0.00,0.00,-0.40,-0.30,-113.20,0,1,0,99,100,-7041,3465,16682,3021.50,10,WP,1,0,0,0,0,0,0,1654644597433,4168,4168,4162,4166,0,0,27,,,,,,,0,0,0,4.00,-3.00,-1132.00,0.00,0.00,-1269.00,14,19.00,0.00,58.57,0.00,0.00,0.00,0,,,100,100,0,2,0,0,0,1,0,,,,,0.0,0.0,0.0,0.0,0.0,0.0,0
34.182564,-118.129089,6.23,7.22,0.00,19.19,6.23,6.23,6.77,19.38,11612,2022-06-07 23:29:57.536,2022-06-07 16:29:57.536,12,0,0,16.682,34.182616,-118.129083,0.00,0.00,0.00,-0.30,-0.50,-105.60,0,1,0,99,100,-7041,3465,16682,3021.50,10,WP,1,0,0,0,0,0,0,1654644597535,4168,4168,4162,4166,0,0,27,,,,,,,0,0,0,3.00,-5.00,-1056.00,0.00,0.00,-1192.00,14,19.00,0.00,58.49,0.00,0.00,0.00,0,,,100,100,0,2,0,0,0,1,0,,,,,0.0,0.0,0.0,0.0,0.0,0.0,0
34.182564,-118.129089,6.23,7.22,0.00,19.13,6.23,6.23,6.77,19.38,11707,2022-06-07 23:29:57.630,2022-06-07 16:29:57.630,12,0,0,16.682,34.182616,-118.129083,0.00,0.00,0.00,-0.30,-0.70,-98.10,0,1,0,99,100,-7041,3465,16682,3021.50,10,WP,1,0,0,0,0,0,0,1654644597630,4168,4168,4162,4166,0,0,27,,,,,,,0,0,0,3.00,-7.00,-981.00,0.00,0.00,-1115.00,14,19.00,0.00,58.31,0.00,0.00,0.00,0,,,100,100,0,2,0,0,0,1,0,,,,,0.0,0.0,0.0,0.0,0.0,0.0,0
34.182564,-118.129089,6.23,7.22,0.00,19.10,6.23,6.23,6.77,19.38,11808,2022-06-07 23:29:57.732,2022-06-07 16:29:57.732,12,0,0,16.682,34.182616,-118.129083,0.00,0.00,0.00,-0.20,-0.90,-90.60,0,1,0,99,100,-7041,3465,16682,3021.50,10,WP,1,0,0,0,0,0,0,1654644597731,4168,4168,4162,4166,0,0,27,,,,,,,0,0,0,2.00,-9.00,-906.00,0.00,0.00,-1039.00,14,19.00,0.00,58.21,0.00,0.00,0.00,0,,,100,100,0,2,0,0,0,1,0,,,,,0.0,0.0,0.0,0.0,0.0,0.0,0
34.182564,-118.129089,6.23,7.22,0.00,19.01,6.23,6.23,6.77,19.38,11908,2022-06-07 23:29:57.832,2022-06-07 16:29:57.832,12,0,0,16.682,34.182616,-118.129083,0.00,0.00,0.00,-0.10,-1.30,-83.10,0,1,0,99,100,-7041,3465,16682,3021.50,10,WP,1,0,0,0,0,0,0,1654644597831,4168,4168,4162,4166,0,0,27,,,,,,,0,0,0,1.00,-13.00,-831.00,0.00,0.00,-963.00,14,19.00,0.00,57.94,0.00,0.00,0.00,0,,,100,100,0,2,0,0,0,1,0,,,,,0.0,0.0,0.0,0.0,0.0,0.0,0
34.182564,-118.129089,6.23,7.22,0.00,18.97,6.23,6.23,6.77,19.38,12008,2022-06-07 23:29:57.931,2022-06-07 16:29:57.931,12,0,0,16.682,34.182616,-118.129083,0.00,0.00,0.00,0.10,-1.40,-75.60,0,1,0,99,100,-7041,3465,16682,3021.50,10,WP,1,0,0,0,0,0,0,1654644597931,4168,4168,4162,4166,0,0,27,,,,,,,0,0,0,-1.00,-14.00,-756.00,0.00,0.00,-887.00,14,19.00,0.00,57.83,0.00,0.00,0.00,0,,,100,100,0,2,0,0,0,1,0,,,,,0.0,0.0,0.0,0.0,0.0,0.0,0
34.182564,-118.129089,6.23,6.89,0.00,18.92,6.23,6.23,6.77,19.38,12109,2022-06-07 23:29:58.032,2022-06-07 16:29:58.032,12,0,0,16.682,34.182616,-118.129083,0.00,0.00,0.00,0.30,-1.40,-68.10,0,1,0,99,100,-7041,3465,16682,3021.50,10,WP,1,0,0,0,0,0,0,1654644598032,4168,4168,4162,4166,0,0,27,,,,,,,0,0,0,-3.00,-14.00,-681.00,0.00,0.00,-811.00,14,19.00,0.00,57.68,0.00,0.00,0.00,0,,,100,100,0,2,0,0,0,1,0,,,,,0.0,0.0,0.0,0.0,0.0,0.0,0
34.182564,-118.129089,6.23,7.22,0.00,18.89,6.23,6.23,6.77,19.38,12212,2022-06-07 23:29:58.136,2022-06-07 16:29:58.136,12,0,0,16.682,34.182616,-118.129083,0.00,0.00,0.00,0.60,-1.30,-60.60,0,1,0,99,100,-7041,3465,16682,3021.50,10,WP,1,0,0,0,0,0,0,1654644598135,4168,4168,4162,4166,0,0,27,,,,,,,0,0,0,-6.00,-13.00,-606.00,0.00,0.00,-736.00,14,19.00,0.00,57.57,0.00,0.00,0.00,0,,,100,100,0,2,0,0,0,1,0,,,,,0.0,0.0,0.0,0.0,0.0,0.0,0
34.182564,-118.129089,6.23,7.22,0.00,18.85,6.23,6.23,6.77,19.38,12307,2022-06-07 23:29:58.231,2022-06-07 16:29:58.231,12,0,0,16.682,34.182616,-118.129083,0.00,0.00,0.00,0.80,-1.20,-53.10,0,1,0,99,100,-7041,3465,16682,3021.50,10,WP,1,0,0,0,0,0,0,1654644598230,4168,4168,4162,4166,0,0,27,,,,,,,0,0,0,-8.00,-12.00,-531.00,0.00,0.00,-660.00,14,19.00,0.00,57.46,0.00,0.00,0.00,0,,,100,100,0,2,0,0,0,1,0,,,,,0.0,0.0,0.0,0.0,0.0,0.0,0
34.182565,-118.129088,6.23,6.89,0.00,18.81,6.23,6.23,6.77,19.38,12408,2022-06-07 23:29:58.331,2022-06-07 16:29:58.332,12,0,0,16.682,34.182616,-118.129083,0.00,0.00,0.00,1.00,-1.00,-45.70,0,1,0,99,100,-7041,3465,16682,3021.50,10,WP,1,0,0,0,0,0,0,1654644598331,4168,4168,4162,4166,0,0,27,,,,,,,0,0,0,-10.00,-10.00,-457.00,0.00,0.00,-586.00,14,19.00,0.00,57.35,0.00,0.00,0.00,0,,,100,100,0,2,0,0,0,1,0,,,,,0.0,0.0,0.0,0.0,0.0,0.0,0
34.182565,-118.129088,6.23,6.89,0.00,18.78,6.23,6.23,6.77,19.38,12508,2022-06-07 23:29:58.431,2022-06-07 16:29:58.431,12,0,0,16.682,34.182616,-118.129083,0.00,0.00,0.00,1.10,-1.00,-38.30,0,1,0,99,100,-7041,3465,16682,3021.50,10,WP,1,0,0,0,0,0,0,1654644598431,4168,4168,4162,4166,0,0,27,,,,,,,0,0,0,-11.00,-10.00,-383.00,0.00,0.00,-511.00,14,19.00,0.00,57.23,0.00,0.00,0.00,0,,,100,100,0,2,0,0,0,1,0,,,,,0.0,0.0,0.0,0.0,0.0,0.0,0
34.182565,-118.129088,6.23,6.89,0.00,18.74,6.23,6.23,6.77,19.38,12607,2022-06-07 23:29:58.531,2022-06-07 16:29:58.531,12,0,0,16.682,34.182616,-118.129083,0.00,0.00,0.00,1.30,-0.90,-31.00,0,1,0,99,100,-7041,3465,16682,3021.50,10,WP,1,0,0,0,0,0,0,1654644598530,4168,4168,4162,4166,0,0,27,,,,,,,0,0,0,-13.00,-9.00,-310.00,0.00,0.00,-437.00,14,19.00,0.00,57.13,0.00,0.00,0.00,0,,,100,100,0,2,0,0,0,1,0,,,,,0.0,0.0,0.0,0.0,0.0,0.0,0
34.182565,-118.129088,6.23,6.89,0.00,18.70,6.23,6.23,6.77,19.38,12708,2022-06-07 23:29:58.631,2022-06-07 16:29:58.631,12,0,0,16.659,34.182616,-118.129083,0.00,0.00,0.00,1.40,-0.70,-25.10,0,1,0,99,100,-7123,3461,16659,3021.50,10,WP,1,0,0,0,0,0,0,1654644598631,4168,4168,4162,4166,0,0,27,,,,,,,0,0,0,-14.00,-7.00,-251.00,0.00,0.00,-367.00,14,19.00,0.00,56.99,0.00,0.00,0.00,0,,,100,100,0,2,0,0,0,1,0,,,,,0.0,0.0,0.0,0.0,0.0,0.0,0
34.182565,-118.129088,6.23,7.22,0.00,18.67,6.23,6.23,6.77,19.38,12808,2022-06-07 23:29:58.732,2022-06-07 16:29:58.732,12,0,0,16.659,34.182616,-118.129083,0.00,0.00,0.00,1.40,-0.70,-20.30,0,1,0,99,100,-7123,3461,16659,3021.50,10,WP,1,0,0,0,0,0,0,1654644598731,4168,4168,4162,4166,0,0,27,,,,,,,0,0,0,-14.00,-7.00,-203.00,0.00,0.00,-309.00,14,19.00,0.00,56.90,0.00,0.00,0.00,0,,,100,100,0,2,0,0,0,1,0,,,,,0.0,0.0,0.0,0.0,0.0,0.0,0
34.182565,-118.129088,6.23,7.22,0.00,18.67,6.23,6.23,6.77,19.38,12909,2022-06-07 23:29:58.832,2022-06-07 16:29:58.832,12,0,0,16.659,34.182616,-118.129083,0.00,0.00,0.00,1.40,-0.70,-16.40,0,1,0,99,100,-7123,3461,16659,3021.50,10,WP,1,0,0,0,0,0,0,1654644598832,4168,4168,4162,4166,0,0,27,,,,,,,0,0,0,-14.00,-7.00,-164.00,0.00,0.00,-262.00,14,19.00,0.00,56.92,0.00,0.00,0.00,0,,,100,100,0,2,0,0,0,1,0,,,,,0.0,0.0,0.0,0.0,0.0,0.0,0
34.182565,-118.129088,6.23,6.89,0.00,18.65,6.23,6.23,6.77,19.38,13007,2022-06-07 23:29:58.931,2022-06-07 16:29:58.931,12,0,0,16.659,34.182616,-118.129083,0.00,0.00,0.00,1.40,-0.60,-13.20,0,1,0,99,100,-7123,3461,16659,3021.50,10,WP,1,0,0,0,0,0,0,1654644598930,4168,4168,4162,4166,0,0,27,,,,,,,0,0,0,-14.00,-6.00,-132.00,0.00,0.00,-224.00,14,19.00,0.00,56.84,0.00,0.00,0.00,0,,,100,100,0,2,0,0,0,1,0,,,,,0.0,0.0,0.0,0.0,0.0,0.0,0
34.182565,-118.129088,6.23,6.89,0.00,18.69,6.23,6.23,6.77,19.38,13107,2022-06-07 23:29:59.031,2022-06-07 16:29:59.031,12,0,0,16.659,34.182616,-118.129083,0.00,0.00,0.00,1.60,-0.70,-10.60,0,1,0,99,100,-7123,3461,16659,3021.50,10,WP,1,0,0,0,0,0,0,1654644599030,4168,4168,4162,4166,0,0,27,,,,,,,0,0,0,-16.00,-7.00,-106.00,0.00,0.00,-193.00,14,19.00,0.00,56.97,0.00,0.00,0.00,0,,,100,100,0,2,0,0,0,1,0,,,,,0.0,0.0,0.0,0.0,0.0,0.0,0
34.182565,-118.129088,6.23,6.89,0.00,18.68,6.23,6.23,6.77,19.38,13212,2022-06-07 23:29:59.135,2022-06-07 16:29:59.136,12,0,0,16.659,34.182616,-118.129083,0.00,0.00,0.00,1.60,-0.80,-8.50,0,1,0,99,100,-7123,3461,16659,3021.50,10,WP,1,0,0,0,0,0,0,1654644599135,4168,4168,4162,4166,0,0,27,,,,,,,0,0,0,-16.00,-8.00,-85.00,0.00,0.00,-168.00,14,19.00,0.00,56.94,0.00,0.00,0.00,0,,,100,100,0,2,0,0,0,1,0,,,,,0.0,0.0,0.0,0.0,0.0,0.0,0
34.182565,-118.129088,6.23,7.22,0.00,18.69,6.23,6.23,6.77,19.38,13308,2022-06-07 23:29:59.231,2022-06-07 16:29:59.231,12,0,0,16.659,34.182616,-118.129083,0.00,0.00,0.00,1.40,-1.00,-6.80,0,1,0,99,100,-7123,3461,16659,3021.50,10,WP,1,0,0,0,0,0,0,1654644599231,4168,4168,4162,4166,0,0,27,,,,,,,0,0,0,-14.00,-10.00,-68.00,0.00,0.00,-147.00,14,19.00,0.00,56.97,0.00,0.00,0.00,0,,,100,100,0,2,0,0,0,1,0,,,,,0.0,0.0,0.0,0.0,0.0,0.0,0
34.182565,-118.129088,6.23,7.22,0.00,18.69,6.23,6.23,6.77,19.38,13409,2022-06-07 23:29:59.332,2022-06-07 16:29:59.332,12,0,0,16.659,34.182616,-118.129083,0.00,0.00,0.00,1.30,-1.30,-5.40,0,1,0,99,100,-7123,3461,16659,3021.50,10,WP,1,0,0,0,0,0,0,1654644599332,4168,4168,4162,4166,0,0,27,,,,,,,0,0,0,-13.00,-13.00,-54.00,0.00,0.00,-130.00,14,19.00,0.00,56.97,0.00,0.00,0.00,0,,,100,100,0,2,0,0,0,1,0,,,,,0.0,0.0,0.0,0.0,0.0,0.0,0
34.182565,-118.129088,6.23,6.89,0.00,18.68,6.23,6.23,6.77,19.38,13508,2022-06-07 23:29:59.432,2022-06-07 16:29:59.432,12,0,0,16.659,34.182616,-118.129083,0.00,0.00,0.00,0.80,-1.40,-4.50,0,1,0,99,100,-7123,3461,16659,3021.50,10,WP,1,0,0,0,0,0,0,1654644599431,4168,4168,4162,4166,0,0,27,,,,,,,0,0,0,-8.00,-14.00,-45.00,0.00,0.00,-116.00,14,19.00,0.00,56.93,0.00,0.00,0.00,0,,,100,100,0,2,0,0,0,1,0,,,,,0.0,0.0,0.0,0.0,0.0,0.0,0
