latitude,longitude,altitude(m),ultrasonicHeight(m),speed(mps),distance(m),max_altitude(m),max_ascent(m),max_speed(mps),max_distance(m),time(millisecond),datetime(utc),datetime(local),satellites,pressure(Pa),temperature(F),voltage(v),home_latitude,home_longitude,velocityX(mps),velocityY(mps),velocityZ(mps),pitch(deg),roll(deg),yaw(deg),powerlevel,isflying,istakingphoto,remainPowerPercent,remainLifePercent,currentCurrent,currentElectricity,currentVoltage,batteryTemperature,dischargeCount,flightmode,isMotorsOn,isTakingVideo,Rc_elevator,Rc_aileron,Rc_throttle,Rc_rudder,Rc_gyro,timestamp,Battery_Cell1,Battery_Cell2,Battery_Cell3,Battery_Cell4,Battery_Cell5,Battery_Cell6,Dronetype,AppVersion,Planename,FlyControllerSerialNumber,RemoteSerialNumber,BatterySerialNumber,CENTER_BATTERY.productDate,CENTER_BATTERY.serialNo,CENTER_BATTERY.fullCapacity,CENTER_BATTERY.productDateRaw,pitchRaw,rollRaw,yawRaw,gimbalPitchRaw,gimbalRollRaw,gimbalYawRaw,flyState,altitudeRaw,speedRaw,distanceRaw,velocityXRaw,velocityYRaw,velocityZRaw,data_reuse,App_Tip,App_Warning,downlinkSignalQuality,uplinkSignalQuality,transmissionChannel,rcModeSwitch,rcHome,rcPause,rcTransform,rcJoystickMode,appMode,FlyControllerSerialNumber_legacy,RemoteSerialNumber_legacy,BatterySerialNumber_legacy,Battery2SerialNumber,frontAvoidDist,backAvoidDist,rightAvoidDist,leftAvoidDist,upAvoidDist,downAvoidDist,isBrakingToAvoid
33.737635,-118.104802,0.40,0.70,0.55,0.28,0.40,0.40,0.55,0.28,2,2022-06-09 00:00:17.906,2022-06-08 17:00:17.906,16,0,0,16.882,33.737633,-118.104804,0.20,0.10,-0.50,-5.30,-2.20,-124.40,0,1,0,99,100,-4998,3495,16882,3011.50,11,TakeOff,1,0,0,0,192,0,0,1654732817905,4244,4245,4241,4235,0,0,27,Litchi_iOS_2.14.0,Brian-MAVIC 2,163DFCK001S13F,1DUCFB800104PR,0P2AFBV5340045,,0,3535,0,53.00,-22.00,-1244.00,-11.00,0.00,-1252.00,11,4.00,5.48,2.81,2.00,1.00,-5.00,0,,,100,100,0,1,0,0,0,0,6,(null),(null),(null),(null),0.0,2.6,0.0,0.0,0.0,0.0,0
33.737636,-118.104802,0.40,0.80,0.55,0.32,0.40,0.40,0.55,0.32,100,2022-06-09 00:00:18.004,2022-06-08 17:00:18.004,16,0,0,16.882,33.737633,-118.104804,0.20,0.10,-0.50,-5.30,-1.80,-124.30,0,1,0,99,100,-4998,3495,16882,3011.50,11,TakeOff,1,0,0,0,3,0,0,1654732818003,4244,4245,4241,4235,0,0,27,,,,,,,0,0,0,53.00,-18.00,-1243.00,-11.00,0.00,-1252.00,11,4.00,5.48,3.24,2.00,1.00,-5.00,0,,,100,100,0,1,0,0,0,0,6,,,,,0.0,2.6,0.0,0.0,0.0,0.0,0
33.737636,-118.104802,0.50,0.80,0.64,0.35,0.50,0.50,0.64,0.35,200,2022-06-09 00:00:18.104,2022-06-08 17:00:18.104,16,0,0,16.882,33.737633,-118.104804,0.20,0.10,-0.60,-5.00,-1.50,-124.30,0,1,0,99,100,-4998,3495,16882,3011.50,11,TakeOff,1,0,0,0,0,0,0,1654732818103,4244,4245,4241,4235,0,0,27,,,,,,,0,0,0,50.00,-15.00,-1243.00,-11.00,0.00,-1252.00,11,5.00,6.40,3.53,2.00,1.00,-6.00,0,,,100,100,0,1,0,0,0,0,6,,,,,0.0,2.6,0.0,0.0,0.0,0.0,0
33.737636,-118.104801,0.60,0.90,0.55,0.38,0.60,0.60,0.64,0.38,300,2022-06-09 00:00:18.203,2022-06-08 17:00:18.203,16,0,0,16.882,33.737633,-118.104804,0.20,0.10,-0.50,-4.70,-2.20,-124.50,0,1,0,99,100,-4998,3495,16882,3011.50,11,TakeOff,1,0,0,0,25,0,0,1654732818203,4244,4245,4241,4235,0,0,27,,,,,,,0,0,0,47.00,-22.00,-1245.00,-11.00,0.00,-1252.00,11,6.00,5.48,3.76,2.00,1.00,-5.00,0,,,100,100,0,1,0,0,0,0,6,,,,,0.0,2.6,0.0,0.0,0.0,0.0,0
33.737636,-118.104801,0.60,0.90,0.55,0.40,0.60,0.60,0.64,0.40,399,2022-06-09 00:00:18.303,2022-06-08 17:00:18.303,16,0,0,16.882,33.737633,-118.104804,0.20,0.10,-0.50,-4.60,-2.60,-124.60,0,1,0,99,100,-4998,3495,16882,3011.50,11,TakeOff,1,0,0,0,25,0,0,1654732818302,4244,4245,4241,4235,0,0,27,,,,,,,0,0,0,46.00,-26.00,-1246.00,-11.00,0.00,-1251.00,11,6.00,5.48,4.02,2.00,1.00,-5.00,0,,,100,100,0,1,0,0,0,0,6,,,,,0.0,2.6,0.0,0.0,0.0,0.0,0
33.737636,-118.104801,0.70,1.00,0.55,0.44,0.70,0.70,0.64,0.44,500,2022-06-09 00:00:18.403,2022-06-08 17:00:18.403,16,0,0,16.882,33.737633,-118.104804,0.20,0.10,-0.50,-4.50,-2.50,-124.60,0,1,0,99,100,-4998,3495,16882,3011.50,11,TakeOff,1,0,0,0,106,0,0,1654732818403,4244,4245,4241,4235,0,0,27,,,,,,,0,0,0,45.00,-25.00,-1246.00,-11.00,0.00,-1251.00,11,7.00,5.48,4.42,2.00,1.00,-5.00,0,,,100,100,0,1,0,0,0,0,6,,,,,0.0,2.6,0.0,0.0,0.0,0.0,0
33.737637,-118.104801,0.70,1.00,0.55,0.47,0.70,0.70,0.64,0.47,600,2022-06-09 00:00:18.504,2022-06-08 17:00:18.504,16,0,0,16.882,33.737633,-118.104804,0.20,0.10,-0.50,-4.60,-2.60,-124.50,0,1,0,99,100,-4998,3495,16882,3011.50,11,TakeOff,1,0,0,0,0,0,0,1654732818503,4244,4245,4241,4235,0,0,27,,,,,,,0,0,0,46.00,-26.00,-1245.00,-11.00,0.00,-1251.00,11,7.00,5.48,4.69,2.00,1.00,-5.00,0,,,100,100,0,1,0,0,0,0,6,,,,,0.0,2.6,0.0,0.0,0.0,0.0,0
33.737637,-118.104801,0.80,1.10,0.52,0.49,0.80,0.80,0.64,0.49,700,2022-06-09 00:00:18.604,2022-06-08 17:00:18.604,16,0,0,16.882,33.737633,-118.104804,0.10,0.10,-0.50,-4.80,-2.60,-124.40,0,1,0,99,100,-4998,3495,16882,3011.50,11,Sport,1,0,0,-112,0,0,0,1654732818603,4244,4245,4241,4235,0,0,27,,,,,,,0,0,0,48.00,-26.00,-1244.00,-11.00,0.00,-1251.00,31,8.00,5.20,4.91,1.00,1.00,-5.00,0,,,100,100,0,1,0,0,0,0,6,,,,,0.0,2.6,0.0,0.0,0.0,0.0,0
33.737637,-118.104800,0.80,1.10,0.42,0.52,0.80,0.80,0.64,0.52,801,2022-06-09 00:00:18.704,2022-06-08 17:00:18.704,16,0,0,16.882,33.737633,-118.104804,0.10,0.10,-0.40,-4.90,-2.50,-124.50,0,1,0,99,100,-4998,3495,16882,3011.50,11,Sport,1,0,0,-643,0,0,0,1654732818704,4244,4245,4241,4235,0,0,27,,,,,,,0,0,0,49.00,-25.00,-1245.00,-11.00,0.00,-1251.00,31,8.00,4.24,5.16,1.00,1.00,-4.00,0,,,100,100,0,1,0,0,0,0,6,,,,,0.0,2.6,0.0,0.0,0.0,0.0,0
33.737637,-118.104800,0.90,1.20,0.24,0.52,0.90,0.90,0.64,0.52,900,2022-06-09 00:00:18.804,2022-06-08 17:00:18.804,16,0,0,16.882,33.737633,-118.104804,0.10,0.10,-0.20,-4.90,-11.60,-124.00,0,1,0,99,100,-4998,3495,16882,3011.50,11,Sport,1,0,0,-643,0,0,0,1654732818803,4244,4245,4241,4235,0,0,27,,,,,,,0,0,0,49.00,-116.00,-1240.00,-11.00,0.00,-1251.00,31,9.00,2.45,5.17,1.00,1.00,-2.00,0,,,100,100,0,1,0,0,0,0,6,,,,,0.0,2.6,0.0,0.0,0.0,0.0,0
33.737637,-118.104800,0.90,1.20,0.22,0.54,0.90,0.90,0.64,0.54,1000,2022-06-09 00:00:18.904,2022-06-08 17:00:18.904,16,0,0,16.882,33.737633,-118.104804,0.00,0.20,-0.10,-4.30,-27.90,-123.80,0,1,0,99,100,-4998,3495,16882,3011.50,11,Sport,1,0,0,0,0,0,0,1654732818903,4244,4245,4241,4235,0,0,27,,,,,,,0,0,0,43.00,-279.00,-1238.00,-11.00,0.00,-1251.00,31,9.00,2.24,5.38,0.00,2.00,-1.00,0,,,100,100,0,1,0,0,0,0,6,,,,,0.0,2.6,0.0,0.0,0.0,0.0,0
33.737637,-118.104800,0.90,1.20,0.58,0.56,0.90,0.90,0.64,0.56,1100,2022-06-09 00:00:19.004,2022-06-08 17:00:19.004,16,0,0,16.882,33.737633,-118.104804,-0.30,0.50,0.00,-4.90,-20.00,-124.20,0,1,0,99,100,-4998,3495,16882,3011.50,11,Sport,1,0,0,0,0,0,0,1654732819003,4244,4245,4241,4235,0,0,27,,,,,,,0,0,0,49.00,-200.00,-1242.00,-11.00,0.00,-1251.00,31,9.00,5.83,5.62,-3.00,5.00,0.00,0,,,100,100,0,1,0,0,0,0,6,,,,,0.0,2.3,0.0,0.0,0.0,0.0,0
33.737636,-118.104799,0.90,1.20,0.78,0.58,0.90,0.90,0.78,0.58,1201,2022-06-09 00:00:19.104,2022-06-08 17:00:19.105,16,0,0,16.882,33.737633,-118.104804,-0.50,0.60,0.00,-5.20,-3.50,-124.40,0,1,0,99,100,-4998,3495,16882,3011.50,11,Sport,1,0,0,0,0,0,0,1654732819104,4244,4245,4241,4235,0,0,27,,,,,,,0,0,0,52.00,-35.00,-1244.00,-11.00,0.00,-1251.00,31,9.00,7.81,5.82,-5.00,6.00,0.00,0,,,100,100,0,1,0,0,0,0,6,,,,,0.0,2.3,0.0,0.0,0.0,0.0,0
33.737636,-118.104798,0.90,1.20,0.78,0.62,0.90,0.90,0.78,0.62,1300,2022-06-09 00:00:19.204,2022-06-08 17:00:19.204,16,0,0,16.882,33.737633,-118.104804,-0.50,0.60,0.00,-5.20,4.00,-124.70,0,1,0,99,100,-4998,3495,16882,3011.50,11,Sport,1,0,0,0,0,0,0,1654732819203,4244,4245,4241,4235,0,0,27,,,,,,,0,0,0,52.00,40.00,-1247.00,-11.00,0.00,-1251.00,31,9.00,7.81,6.19,-5.00,6.00,0.00,0,,,100,100,0,1,0,0,0,0,6,,,,,0.0,2.3,0.0,0.0,0.0,0.0,0
33.737635,-118.104797,0.90,1.20,0.64,0.66,0.90,0.90,0.78,0.66,1401,2022-06-09 00:00:19.305,2022-06-08 17:00:19.305,16,0,0,16.882,33.737633,-118.104804,-0.40,0.50,0.00,-4.90,6.40,-124.70,0,1,0,99,100,-4998,3495,16882,3011.50,11,Sport,1,0,0,0,0,0,0,1654732819304,4244,4245,4241,4235,0,0,27,,,,,,,0,0,0,49.00,64.00,-1247.00,-11.00,0.00,-1251.00,31,9.00,6.40,6.61,-4.00,5.00,0.00,0,,,100,100,0,1,0,0,0,0,6,,,,,0.0,2.3,0.0,0.0,0.0,0.0,0
33.737635,-118.104797,0.90,1.20,0.50,0.64,0.90,0.90,0.78,0.66,1501,2022-06-09 00:00:19.405,2022-06-08 17:00:19.405,16,0,0,16.801,33.737633,-118.104804,-0.30,0.40,0.00,-4.60,5.50,-124.90,0,1,0,99,100,-6773,3492,16801,3011.50,11,Sport,1,0,0,0,0,0,0,1654732819404,4244,4245,4241,4235,0,0,27,,,,,,,0,0,0,46.00,55.00,-1249.00,-11.00,0.00,-1251.00,31,9.00,5.00,6.43,-3.00,4.00,0.00,0,,,100,100,0,1,0,0,0,0,6,,,,,0.0,2.3,0.0,0.0,0.0,0.0,0
33.737634,-118.104797,0.90,1.20,0.45,0.68,0.90,0.90,0.78,0.68,1600,2022-06-09 00:00:19.504,2022-06-08 17:00:19.504,16,0,0,16.801,33.737633,-118.104804,-0.20,0.40,0.00,-4.50,4.60,-125.00,0,1,0,99,100,-6773,3492,16801,3011.50,11,Sport,1,0,0,0,0,0,0,1654732819503,4244,4245,4241,4235,0,0,27,,,,,,,0,0,0,45.00,46.00,-1250.00,-11.00,0.00,-1251.00,31,9.00,4.47,6.82,-2.00,4.00,0.00,0,,,100,100,0,1,0,0,0,0,6,,,,,0.0,2.3,0.0,0.0,0.0,0.0,0
33.737634,-118.104797,0.90,1.20,0.36,0.69,0.90,0.90,0.78,0.69,1701,2022-06-09 00:00:19.604,2022-06-08 17:00:19.604,16,0,0,16.801,33.737633,-118.104804,-0.20,0.30,0.00,-4.70,3.80,-125.00,0,1,0,99,100,-6773,3492,16801,3011.50,11,Sport,1,0,0,0,277,0,0,1654732819604,4244,4245,4241,4235,0,0,27,,,,,,,0,0,0,47.00,38.00,-1250.00,-11.00,0.00,-1251.00,31,9.00,3.61,6.88,-2.00,3.00,0.00,0,,,100,100,0,1,0,0,0,0,6,,,,,0.0,2.3,0.0,0.0,0.0,0.0,0
33.737633,-118.104796,0.90,1.20,0.22,0.72,0.90,0.90,0.78,0.72,1801,2022-06-09 00:00:19.704,2022-06-08 17:00:19.704,16,0,0,16.801,33.737633,-118.104804,-0.10,0.20,0.00,-4.60,2.90,-124.90,0,1,0,99,100,-6773,3492,16801,3011.50,11,Sport,1,0,0,0,277,0,0,1654732819704,4244,4245,4241,4235,0,0,27,,,,,,,0,0,0,46.00,29.00,-1249.00,-11.00,0.00,-1251.00,31,9.00,2.24,7.17,-1.00,2.00,0.00,0,,,100,100,0,1,0,0,0,0,6,,,,,0.0,2.3,0.0,0.0,0.0,0.0,0
33.737633,-118.104796,0.90,1.20,0.28,0.75,0.90,0.90,0.78,0.75,1901,2022-06-09 00:00:19.805,2022-06-08 17:00:19.805,16,0,0,16.801,33.737633,-118.104804,0.00,0.20,-0.20,-3.80,1.60,-124.90,0,1,0,99,100,-6773,3492,16801,3011.50,11,Sport,1,0,0,0,0,0,0,1654732819804,4244,4245,4241,4235,0,0,27,,,,,,,0,0,0,38.00,16.00,-1249.00,-11.00,0.00,-1251.00,31,9.00,2.83,7.45,0.00,2.00,-2.00,0,,,100,100,0,1,0,0,0,0,6,,,,,0.0,2.3,0.0,0.0,0.0,0.0,0
33.737633,-118.104796,0.90,1.30,0.32,0.76,0.90,0.90,0.78,0.76,2001,2022-06-09 00:00:19.904,2022-06-08 17:00:19.904,16,0,0,16.801,33.737633,-118.104804,0.00,0.10,-0.30,-4.60,0.80,-124.70,0,1,0,99,100,-6773,3492,16801,3011.50,11,Sport,1,0,0,0,0,0,0,1654732819904,4244,4245,4241,4235,0,0,27,,,,,,,0,0,0,46.00,8.00,-1247.00,-11.00,0.00,-1251.00,31,9.00,3.16,7.64,0.00,1.00,-3.00,0,,,100,100,0,1,0,0,0,0,6,,,,,0.0,2.3,0.0,0.0,0.0,0.0,0
33.737633,-118.104796,0.90,1.30,0.14,0.77,0.90,0.90,0.78,0.77,2101,2022-06-09 00:00:20.005,2022-06-08 17:00:20.005,16,0,0,16.801,33.737633,-118.104804,0.00,0.10,-0.10,-5.00,0.20,-124.60,0,1,0,99,100,-6773,3492,16801,3011.50,11,Sport,1,0,0,0,0,0,0,1654732820004,4244,4245,4241,4235,0,0,27,,,,,,,0,0,0,50.00,2.00,-1246.00,-11.00,0.00,-1251.00,31,9.00,1.41,7.75,0.00,1.00,-1.00,0,,,100,100,0,1,0,0,0,0,6,,,,,0.0,2.3,0.0,0.0,0.0,0.0,0
33.737633,-118.104795,0.90,1.30,0.10,0.79,0.90,0.90,0.78,0.79,2202,2022-06-09 00:00:20.105,2022-06-08 17:00:20.105,16,0,0,16.801,33.737633,-118.104804,0.00,0.10,0.00,-4.60,0.00,-124.20,0,1,0,99,100,-6773,3492,16801,3011.50,11,Sport,1,0,319,0,0,0,0,1654732820105,4244,4245,4241,4235,0,0,27,,,,,,,0,0,0,46.00,0.00,-1242.00,-11.00,0.00,-1251.00,31,9.00,1.00,7.88,0.00,1.00,0.00,0,,,100,100,0,1,0,0,0,0,6,,,,,0.0,2.3,0.0,0.0,0.0,0.0,0
33.737633,-118.104795,1.00,1.30,0.10,0.81,1.00,1.00,0.78,0.81,2302,2022-06-09 00:00:20.205,2022-06-08 17:00:20.205,16,0,0,16.801,33.737633,-118.104804,0.00,0.10,0.00,-6.60,-0.30,-124.00,0,1,0,99,100,-6773,3492,16801,3011.50,11,Sport,1,0,51,0,0,0,0,1654732820205,4244,4245,4241,4235,0,0,27,,,,,,,0,0,0,66.00,-3.00,-1240.00,-11.00,0.00,-1251.00,31,10.00,1.00,8.06,0.00,1.00,0.00,0,,,100,100,0,1,0,0,0,0,6,,,,,0.0,2.3,0.0,0.0,0.0,0.0,0
33.737633,-118.104795,1.00,1.30,0.00,0.81,1.00,1.00,0.78,0.81,2401,2022-06-09 00:00:20.305,2022-06-08 17:00:20.305,16,0,0,16.801,33.737633,-118.104804,0.00,0.00,0.00,-12.70,-0.60,-123.80,0,1,0,99,100,-6773,3492,16801,3011.50,11,Sport,1,0,51,0,0,0,0,1654732820304,4244,4245,4241,4235,0,0,27,,,,,,,0,0,0,127.00,-6.00,-1238.00,-11.00,0.00,-1251.00,31,10.00,0.00,8.14,0.00,0.00,0.00,0,,,100,100,0,1,0,0,0,0,6,,,,,0.0,2.3,0.0,0.0,0.0,0.0,0
33.737633,-118.104795,1.00,1.30,0.00,0.83,1.00,1.00,0.78,0.83,2502,2022-06-09 00:00:20.405,2022-06-08 17:00:20.405,16,0,0,16.801,33.737633,-118.104804,0.00,0.00,0.00,-8.00,-0.60,-123.80,0,1,0,99,100,-6773,3492,16801,3011.50,11,Sport,1,0,151,0,0,0,0,1654732820405,4244,4245,4241,4235,0,0,27,,,,,,,0,0,0,80.00,-6.00,-1238.00,-11.00,0.00,-1251.00,31,10.00,0.00,8.25,0.00,0.00,0.00,0,,,100,100,0,1,0,0,0,0,6,,,,,0.0,2.3,0.0,0.0,0.0,0.0,0
33.737633,-118.104795,1.00,1.30,0.00,0.82,1.00,1.00,0.78,0.83,2602,2022-06-09 00:00:20.505,2022-06-08 17:00:20.505,16,0,0,16.801,33.737633,-118.104804,0.00,0.00,0.00,-5.30,-0.80,-123.90,0,1,0,99,100,-6773,3492,16801,3011.50,11,Sport,1,0,151,0,0,0,0,1654732820505,4244,4245,4241,4235,0,0,27,,,,,,,0,0,0,53.00,-8.00,-1239.00,-11.00,0.00,-1251.00,31,10.00,0.00,8.20,0.00,0.00,0.00,0,,,100,100,0,1,0,0,0,0,6,,,,,0.0,2.3,0.0,0.0,0.0,0.0,0
33.737633,-118.104795,1.00,1.30,0.00,0.83,1.00,1.00,0.78,0.83,2702,2022-06-09 00:00:20.605,2022-06-08 17:00:20.605,16,0,0,16.801,33.737633,-118.104804,0.00,0.00,0.00,-12.40,-1.70,-123.90,0,1,0,99,100,-6773,3492,16801,3011.50,11,Sport,1,0,184,0,0,0,0,1654732820605,4244,4245,4241,4235,0,0,27,,,,,,,0,0,0,124.00,-17.00,-1239.00,-11.00,0.00,-1251.00,31,10.00,0.00,8.35,0.00,0.00,0.00,0,,,100,100,0,1,0,0,0,0,6,,,,,0.0,2.3,0.0,0.0,0.0,0.0,0
33.737633,-118.104795,1.00,1.30,0.10,0.82,1.00,1.00,0.78,0.83,2802,2022-06-09 00:00:20.705,2022-06-08 17:00:20.705,16,0,0,16.801,33.737633,-118.104804,0.00,-0.10,0.00,-21.70,-1.80,-123.60,0,1,0,99,100,-6773,3492,16801,3011.50,11,Sport,1,0,0,0,0,0,0,1654732820705,4244,4245,4241,4235,0,0,27,,,,,,,0,0,0,217.00,-18.00,-1236.00,-11.00,0.00,-1251.00,31,10.00,1.00,8.24,0.00,-1.00,0.00,0,,,100,100,0,1,0,0,0,0,6,,,,,0.0,2.3,0.0,0.0,0.0,0.0,0
33.737633,-118.104795,1.00,1.30,0.36,0.79,1.00,1.00,0.78,0.83,2901,2022-06-09 00:00:20.805,2022-06-08 17:00:20.805,16,0,0,16.801,33.737633,-118.104804,-0.20,-0.30,0.00,-16.50,-1.40,-123.70,0,1,0,99,100,-6773,3492,16801,3011.50,11,Sport,1,0,141,0,0,0,0,1654732820804,4244,4245,4241,4235,0,0,27,,,,,,,0,0,0,165.00,-14.00,-1237.00,-11.00,0.00,-1251.00,31,10.00,3.61,7.94,-2.00,-3.00,0.00,0,,,100,100,0,1,0,0,0,0,6,,,,,0.0,2.3,0.0,0.0,0.0,0.0,0
33.737632,-118.104796,1.00,1.30,0.58,0.75,1.00,1.00,0.78,0.83,3001,2022-06-09 00:00:20.905,2022-06-08 17:00:20.905,16,0,0,16.801,33.737633,-118.104804,-0.30,-0.50,0.00,-6.20,-1.30,-123.90,0,1,0,99,100,-6773,3492,16801,3011.50,11,Sport,1,0,308,0,0,0,0,1654732820904,4244,4245,4241,4235,0,0,27,,,,,,,0,0,0,62.00,-13.00,-1239.00,-11.00,0.00,-1251.00,31,10.00,5.83,7.49,-3.00,-5.00,0.00,0,,,100,100,0,1,0,0,0,0,6,,,,,0.0,2.3,0.0,0.0,0.0,0.0,0
33.737632,-118.104796,1.00,1.30,0.58,0.73,1.00,1.00,0.78,0.83,3102,2022-06-09 00:00:21.005,2022-06-08 17:00:21.005,16,0,0,16.801,33.737633,-118.104804,-0.30,-0.50,0.00,-9.60,-1.10,-123.80,0,1,0,99,100,-6773,3492,16801,3011.50,11,Sport,1,0,308,0,0,0,0,1654732821005,4244,4245,4241,4235,0,0,27,,,,,,,0,0,0,96.00,-11.00,-1238.00,-11.00,0.00,-1251.00,31,10.00,5.83,7.29,-3.00,-5.00,0.00,0,,,100,100,0,1,0,0,0,0,6,,,,,0.0,2.3,0.0,0.0,0.0,0.0,0
33.737632,-118.104797,1.00,1.30,0.58,0.69,1.00,1.00,0.78,0.83,3202,2022-06-09 00:00:21.105,2022-06-08 17:00:21.105,16,0,0,16.801,33.737633,-118.104804,-0.30,-0.50,0.00,-7.70,-1.40,-123.70,0,1,0,99,100,-6773,3492,16801,3011.50,11,Sport,1,0,0,0,0,0,0,1654732821105,4244,4245,4241,4235,0,0,27,,,,,,,0,0,0,77.00,-14.00,-1237.00,-11.00,0.00,-1251.00,31,10.00,5.83,6.87,-3.00,-5.00,0.00,0,,,100,100,0,1,0,0,0,0,6,,,,,0.0,2.3,0.0,0.0,0.0,0.0,0
33.737632,-118.104798,1.00,1.30,0.58,0.62,1.00,1.00,0.78,0.83,3302,2022-06-09 00:00:21.206,2022-06-08 17:00:21.206,16,0,0,16.801,33.737633,-118.104804,-0.30,-0.50,0.00,-1.60,-1.10,-124.00,0,1,0,99,100,-6773,3492,16801,3011.50,11,Sport,1,0,0,0,0,0,0,1654732821205,4244,4245,4241,4235,0,0,27,,,,,,,0,0,0,16.00,-11.00,-1240.00,-11.00,0.00,-1251.00,31,10.00,5.83,6.21,-3.00,-5.00,0.00,0,,,100,100,0,1,0,0,0,0,6,,,,,0.0,2.3,0.0,0.0,0.0,0.0,0
33.737631,-118.104798,1.00,1.30,0.45,0.58,1.00,1.00,0.78,0.83,3402,2022-06-09 00:00:21.305,2022-06-08 17:00:21.305,16,0,0,16.801,33.737633,-118.104804,-0.20,-0.40,0.00,1.20,-1.70,-124.20,0,1,0,99,100,-6773,3492,16801,3011.50,11,Sport,1,0,0,0,0,0,0,1654732821305,4244,4245,4241,4235,0,0,27,,,,,,,0,0,0,-12.00,-17.00,-1242.00,-11.00,0.00,-1251.00,31,10.00,4.47,5.83,-2.00,-4.00,0.00,0,,,100,100,0,1,0,0,0,0,6,,,,,0.0,2.3,0.0,0.0,0.0,0.0,0
33.737631,-118.104799,1.00,1.30,0.36,0.53,1.00,1.00,0.78,0.83,3501,2022-06-09 00:00:21.405,2022-06-08 17:00:21.405,16,0,0,16.639,33.737633,-118.104804,-0.20,-0.30,0.00,2.70,-1.20,-124.20,0,1,0,99,100,-7007,3488,16639,3011.50,11,Sport,1,0,0,0,279,0,0,1654732821404,4244,4245,4241,4235,0,0,27,,,,,,,0,0,0,-27.00,-12.00,-1242.00,-11.00,0.00,-1251.00,31,10.00,3.61,5.33,-2.00,-3.00,0.00,0,,,100,100,0,1,0,0,0,0,6,,,,,0.0,2.3,0.0,0.0,0.0,0.0,0
33.737631,-118.104799,1.00,1.30,0.22,0.51,1.00,1.00,0.78,0.83,3602,2022-06-09 00:00:21.505,2022-06-08 17:00:21.505,16,0,0,16.639,33.737633,-118.104804,-0.10,-0.20,0.00,3.00,-0.50,-124.20,0,1,0,99,100,-7007,3488,16639,3011.50,11,Sport,1,0,0,0,89,0,0,1654732821505,4244,4245,4241,4235,0,0,27,,,,,,,0,0,0,-30.00,-5.00,-1242.00,-11.00,0.00,-1251.00,31,10.00,2.24,5.12,-1.00,-2.00,0.00,0,,,100,100,0,1,0,0,0,0,6,,,,,0.0,2.3,0.0,0.0,0.0,0.0,0
33.737631,-118.104799,1.00,1.30,0.32,0.48,1.00,1.00,0.78,0.83,3701,2022-06-09 00:00:21.605,2022-06-08 17:00:21.605,16,0,0,16.639,33.737633,-118.104804,0.00,-0.10,-0.30,0.90,-0.80,-124.20,0,1,0,99,100,-7007,3488,16639,3011.50,11,Sport,1,0,0,0,89,0,0,1654732821604,4244,4245,4241,4235,0,0,27,,,,,,,0,0,0,-9.00,-8.00,-1242.00,-11.00,0.00,-1251.00,31,10.00,3.16,4.82,0.00,-1.00,-3.00,0,,,100,100,0,1,0,0,0,0,6,,,,,0.0,2.3,0.0,0.0,0.0,0.0,0
33.737631,-118.104799,1.00,1.40,0.32,0.47,1.00,1.00,0.78,0.83,3803,2022-06-09 00:00:21.706,2022-06-08 17:00:21.706,16,0,0,16.639,33.737633,-118.104804,0.00,-0.10,-0.30,-3.60,-1.40,-124.10,0,1,0,99,100,-7007,3488,16639,3011.50,11,Sport,1,0,0,0,0,0,0,1654732821706,4244,4245,4241,4235,0,0,27,,,,,,,0,0,0,36.00,-14.00,-1241.00,-11.00,0.00,-1251.00,31,10.00,3.16,4.70,0.00,-1.00,-3.00,0,,,100,100,0,1,0,0,0,0,6,,,,,0.0,2.3,0.0,0.0,0.0,0.0,0
33.737631,-118.104800,1.10,1.40,0.10,0.44,1.10,1.10,0.78,0.83,3902,2022-06-09 00:00:21.805,2022-06-08 17:00:21.805,16,0,0,16.639,33.737633,-118.104804,0.00,0.00,-0.10,-4.60,-1.50,-123.90,0,1,0,99,100,-7007,3488,16639,3011.50,11,Sport,1,0,0,0,0,0,0,1654732821805,4244,4245,4241,4235,0,0,27,,,,,,,0,0,0,46.00,-15.00,-1239.00,-11.00,0.00,-1251.00,31,11.00,1.00,4.43,0.00,0.00,-1.00,0,,,100,100,0,1,0,0,0,0,6,,,,,0.0,2.3,0.0,0.0,0.0,0.0,0
33.737632,-118.104800,1.10,1.40,0.00,0.43,1.10,1.10,0.78,0.83,4002,2022-06-09 00:00:21.905,2022-06-08 17:00:21.905,16,0,0,16.639,33.737633,-118.104804,0.00,0.00,0.00,-3.90,-1.70,-123.60,0,1,0,99,100,-7007,3488,16639,3011.50,11,Sport,1,0,0,0,0,0,0,1654732821905,4244,4245,4241,4235,0,0,27,,,,,,,0,0,0,39.00,-17.00,-1236.00,-11.00,0.00,-1251.00,31,11.00,0.00,4.31,0.00,0.00,0.00,0,,,100,100,0,1,0,0,0,0,6,,,,,0.0,2.3,0.0,0.0,0.0,0.0,0
33.737631,-118.104800,1.10,1.40,0.00,0.43,1.10,1.10,0.78,0.83,4103,2022-06-09 00:00:22.006,2022-06-08 17:00:22.006,16,0,0,16.639,33.737633,-118.104804,0.00,0.00,0.00,-3.70,-1.80,-123.30,0,1,0,99,100,-7007,3488,16639,3011.50,11,Sport,1,0,0,0,0,0,0,1654732822006,4244,4245,4241,4235,0,0,27,,,,,,,0,0,0,37.00,-18.00,-1233.00,-11.00,0.00,-1251.00,31,11.00,0.00,4.32,0.00,0.00,0.00,0,,,100,100,0,1,0,0,0,0,6,,,,,0.0,2.3,0.0,0.0,0.0,0.0,0
33.737632,-118.104800,1.10,1.40,0.00,0.42,1.10,1.10,0.78,0.83,4203,2022-06-09 00:00:22.106,2022-06-08 17:00:22.106,16,0,0,16.639,33.737633,-118.104804,0.00,0.00,0.00,-4.50,-2.00,-123.10,0,1,0,99,100,-7007,3488,16639,3011.50,11,Sport,1,0,94,0,0,0,0,1654732822106,4244,4245,4241,4235,0,0,27,,,,,,,0,0,0,45.00,-20.00,-1231.00,-11.00,0.00,-1251.00,31,11.00,0.00,4.25,0.00,0.00,0.00,0,,,100,100,0,1,0,0,0,0,6,,,,,0.0,2.3,0.0,0.0,0.0,0.0,0
33.737632,-118.104800,1.10,1.40,0.00,0.42,1.10,1.10,0.78,0.83,4303,2022-06-09 00:00:22.207,2022-06-08 17:00:22.207,16,0,0,16.639,33.737633,-118.104804,0.00,0.00,0.00,-9.50,-2.00,-122.90,0,1,0,99,100,-7007,3488,16639,3011.50,11,Sport,1,0,94,0,0,0,0,1654732822206,4244,4245,4241,4235,0,0,27,,,,,,,0,0,0,95.00,-20.00,-1229.00,-11.00,0.00,-1251.00,31,11.00,0.00,4.19,0.00,0.00,0.00,0,,,100,100,0,1,0,0,0,0,6,,,,,0.0,2.3,0.0,0.0,0.0,0.0,0
33.737632,-118.104800,1.10,1.40,0.00,0.41,1.10,1.10,0.78,0.83,4403,2022-06-09 00:00:22.306,2022-06-08 17:00:22.306,16,0,0,16.639,33.737633,-118.104804,0.00,0.00,0.00,-6.50,-1.30,-122.80,0,1,0,99,100,-7007,3488,16639,3011.50,11,Sport,1,0,0,0,0,0,0,1654732822306,4244,4245,4241,4235,0,0,27,,,,,,,0,0,0,65.00,-13.00,-1228.00,-11.00,0.00,-1251.00,31,11.00,0.00,4.14,0.00,0.00,0.00,0,,,100,100,0,1,0,0,0,0,6,,,,,0.0,2.3,0.0,0.0,0.0,0.0,0
33.737632,-118.104800,1.10,1.40,0.00,0.42,1.10,1.10,0.78,0.83,4503,2022-06-09 00:00:22.407,2022-06-08 17:00:22.407,16,0,0,16.639,33.737633,-118.104804,0.00,0.00,0.00,-5.10,-1.50,-122.80,0,1,0,99,100,-7007,3488,16639,3011.50,11,Sport,1,0,0,0,0,0,0,1654732822406,4244,4245,4241,4235,0,0,27,,,,,,,0,0,0,51.00,-15.00,-1228.00,-11.00,0.00,-1251.00,31,11.00,0.00,4.17,0.00,0.00,0.00,0,,,100,100,0,1,0,0,0,0,6,,,,,0.0,2.3,0.0,0.0,0.0,0.0,0
33.737632,-118.104800,1.10,1.40,0.00,0.41,1.10,1.10,0.78,0.83,4602,2022-06-09 00:00:22.506,2022-06-08 17:00:22.506,16,0,0,16.639,33.737633,-118.104804,0.00,0.00,0.00,-4.80,-1.90,-122.90,0,1,0,99,100,-7007,3488,16639,3011.50,11,Sport,1,0,0,0,0,0,0,1654732822505,4244,4245,4241,4235,0,0,27,,,,,,,0,0,0,48.00,-19.00,-1229.00,-11.00,0.00,-1251.00,31,11.00,0.00,4.11,0.00,0.00,0.00,0,,,100,100,0,1,0,0,0,0,6,,,,,0.0,2.4,0.0,0.0,0.0,0.0,0
33.737632,-118.104800,1.10,1.40,0.00,0.42,1.10,1.10,0.78,0.83,4704,2022-06-09 00:00:22.607,2022-06-08 17:00:22.607,16,0,0,16.639,33.737633,-118.104804,0.00,0.00,0.00,-4.80,-1.70,-122.90,0,1,0,99,100,-7007,3488,16639,3011.50,11,Sport,1,0,0,0,154,0,0,1654732822607,4244,4245,4241,4235,0,0,27,,,,,,,0,0,0,48.00,-17.00,-1229.00,-11.00,0.00,-1251.00,31,11.00,0.00,4.24,0.00,0.00,0.00,0,,,100,100,0,1,0,0,0,0,6,,,,,0.0,2.4,0.0,0.0,0.0,0.0,0
33.737632,-118.104800,1.10,1.40,0.10,0.42,1.10,1.10,0.78,0.83,4804,2022-06-09 00:00:22.707,2022-06-08 17:00:22.707,16,0,0,16.639,33.737633,-118.104804,0.10,0.00,0.00,-4.70,-2.00,-123.00,0,1,0,99,100,-7007,3488,16639,3011.50,11,Sport,1,0,0,0,321,0,0,1654732822707,4244,4245,4241,4235,0,0,27,,,,,,,0,0,0,47.00,-20.00,-1230.00,-11.00,0.00,-1251.00,31,11.00,1.00,4.22,1.00,0.00,0.00,0,,,100,100,0,1,0,0,0,0,6,,,,,0.0,2.3,0.0,0.0,0.0,0.0,0
33.737632,-118.104800,1.10,1.40,0.14,0.42,1.10,1.10,0.78,0.83,4903,2022-06-09 00:00:22.806,2022-06-08 17:00:22.806,16,0,0,16.639,33.737633,-118.104804,0.10,0.00,-0.10,-3.90,-1.90,-123.00,0,1,0,99,100,-7007,3488,16639,3011.50,11,Sport,1,0,0,0,0,0,0,1654732822806,4244,4245,4241,4235,0,0,27,,,,,,,0,0,0,39.00,-19.00,-1230.00,-11.00,0.00,-1251.00,31,11.00,1.41,4.20,1.00,0.00,-1.00,0,,,100,100,0,1,0,0,0,0,6,,,,,0.0,2.3,0.0,0.0,0.0,0.0,0
33.737632,-118.104800,1.10,1.40,0.41,0.42,1.10,1.10,0.78,0.83,5003,2022-06-09 00:00:22.906,2022-06-08 17:00:22.906,16,0,0,16.639,33.737633,-118.104804,0.10,0.00,-0.40,-4.60,-2.10,-123.00,0,1,0,99,100,-7007,3488,16639,3011.50,11,Sport,1,0,0,0,0,0,0,1654732822906,4244,4245,4241,4235,0,0,27,,,,,,,0,0,0,46.00,-21.00,-1230.00,-11.00,0.00,-1251.00,31,11.00,4.12,4.22,1.00,0.00,-4.00,0,,,100,100,0,1,0,0,0,0,6,,,,,0.0,2.3,0.0,0.0,0.0,0.0,0
33.737632,-118.104799,1.10,1.40,0.24,0.44,1.10,1.10,0.78,0.83,5102,2022-06-09 00:00:23.006,2022-06-08 17:00:23.006,16,0,0,16.639,33.737633,-118.104804,0.10,0.10,-0.20,-6.90,-2.00,-122.90,0,1,0,99,100,-7007,3488,16639,3011.50,11,Sport,1,0,0,0,0,0,0,1654732823005,4244,4245,4241,4235,0,0,27,,,,,,,0,0,0,69.00,-20.00,-1229.00,-11.00,0.00,-1251.00,31,11.00,2.45,4.41,1.00,1.00,-2.00,0,,,100,100,0,1,0,0,0,0,6,,,,,0.0,2.3,0.0,0.0,0.0,0.0,0
33.737632,-118.104799,1.20,1.50,0.17,0.45,1.20,1.20,0.78,0.83,5203,2022-06-09 00:00:23.107,2022-06-08 17:00:23.107,16,0,0,16.639,33.737633,-118.104804,0.10,0.10,-0.10,-7.10,-2.00,-122.90,0,1,0,99,100,-7007,3488,16639,3011.50,11,Sport,1,0,0,0,0,0,0,1654732823106,4244,4245,4241,4235,0,0,27,,,,,,,0,0,0,71.00,-20.00,-1229.00,-11.00,0.00,-1251.00,31,12.00,1.73,4.50,1.00,1.00,-1.00,0,,,100,100,0,1,0,0,0,0,6,,,,,0.0,2.3,0.0,0.0,0.0,0.0,0
33.737633,-118.104799,1.20,1.50,0.10,0.47,1.20,1.20,0.78,0.83,5303,2022-06-09 00:00:23.207,2022-06-08 17:00:23.207,16,0,0,16.639,33.737633,-118.104804,0.00,0.10,0.00,-6.50,-1.60,-122.80,0,1,0,99,100,-7007,3488,16639,3011.50,11,Sport,1,0,0,0,0,0,0,1654732823206,4244,4245,4241,4235,0,0,27,,,,,,,0,0,0,65.00,-16.00,-1228.00,-11.00,0.00,-1251.00,31,12.00,1.00,4.69,0.00,1.00,0.00,0,,,100,100,0,1,0,0,0,0,6,,,,,0.0,2.3,0.0,0.0,0.0,0.0,0
33.737633,-118.104799,1.20,1.50,0.10,0.48,1.20,1.20,0.78,0.83,5404,2022-06-09 00:00:23.307,2022-06-08 17:00:23.307,16,0,0,16.639,33.737633,-118.104804,0.00,0.10,0.00,-6.30,-1.40,-123.00,0,1,0,99,100,-7007,3488,16639,3011.50,11,Sport,1,0,0,0,0,0,0,1654732823307,4244,4245,4241,4235,0,0,27,,,,,,,0,0,0,63.00,-14.00,-1230.00,-11.00,0.00,-1251.00,31,12.00,1.00,4.80,0.00,1.00,0.00,0,,,100,100,0,1,0,0,0,0,6,,,,,0.0,2.3,0.0,0.0,0.0,0.0,0
33.737633,-118.104799,1.20,1.50,0.10,0.51,1.20,1.20,0.78,0.83,5503,2022-06-09 00:00:23.406,2022-06-08 17:00:23.406,16,0,0,16.743,33.737633,-118.104804,0.00,0.10,0.00,-6.70,-1.30,-123.00,0,1,0,99,100,-6581,3486,16743,3011.50,11,Sport,1,0,230,0,0,0,0,1654732823406,4244,4245,4241,4235,0,0,27,,,,,,,0,0,0,67.00,-13.00,-1230.00,-11.00,0.00,-1251.00,31,12.00,1.00,5.11,0.00,1.00,0.00,0,,,100,100,0,1,0,0,0,0,6,,,,,0.0,2.3,0.0,0.0,0.0,0.0,0
33.737633,-118.104798,1.20,1.50,0.00,0.52,1.20,1.20,0.78,0.83,5603,2022-06-09 00:00:23.506,2022-06-08 17:00:23.506,16,0,0,16.743,33.737633,-118.104804,0.00,0.00,0.00,-13.20,-1.10,-122.90,0,1,0,99,100,-6581,3486,16743,3011.50,11,Sport,1,0,282,0,0,0,0,1654732823506,4244,4245,4241,4235,0,0,27,,,,,,,0,0,0,132.00,-11.00,-1229.00,-11.00,0.00,-1251.00,31,12.00,0.00,5.24,0.00,0.00,0.00,0,,,100,100,0,1,0,0,0,0,6,,,,,0.0,2.3,0.0,0.0,0.0,0.0,0
33.737633,-118.104798,1.20,1.50,0.00,0.52,1.20,1.20,0.78,0.83,5704,2022-06-09 00:00:23.607,2022-06-08 17:00:23.607,16,0,0,16.743,33.737633,-118.104804,0.00,0.00,0.00,-11.40,-0.80,-122.90,0,1,0,99,100,-6581,3486,16743,3011.50,11,Sport,1,0,0,0,0,0,0,1654732823607,4244,4245,4241,4235,0,0,27,,,,,,,0,0,0,114.00,-8.00,-1229.00,-11.00,0.00,-1251.00,31,12.00,0.00,5.15,0.00,0.00,0.00,0,,,100,100,0,1,0,0,0,0,6,,,,,0.0,2.3,0.0,0.0,0.0,0.0,0
33.737633,-118.104798,1.20,1.40,0.00,0.51,1.20,1.20,0.78,0.83,5803,2022-06-09 00:00:23.707,2022-06-08 17:00:23.707,16,0,0,16.743,33.737633,-118.104804,0.00,0.00,0.00,-7.10,-1.40,-123.00,0,1,0,99,100,-6581,3486,16743,3011.50,11,Sport,1,0,0,0,0,0,0,1654732823706,4244,4245,4241,4235,0,0,27,,,,,,,0,0,0,71.00,-14.00,-1230.00,-11.00,0.00,-1251.00,31,12.00,0.00,5.12,0.00,0.00,0.00,0,,,100,100,0,1,0,0,0,0,6,,,,,0.0,2.3,0.0,0.0,0.0,0.0,0
33.737633,-118.104799,1.20,1.40,0.00,0.51,1.20,1.20,0.78,0.83,5903,2022-06-09 00:00:23.806,2022-06-08 17:00:23.806,16,0,0,16.743,33.737633,-118.104804,0.00,0.00,0.00,-5.30,-1.50,-123.00,0,1,0,99,100,-6581,3486,16743,3011.50,11,Sport,1,0,204,0,0,0,0,1654732823806,4244,4245,4241,4235,0,0,27,,,,,,,0,0,0,53.00,-15.00,-1230.00,-11.00,0.00,-1251.00,31,12.00,0.00,5.11,0.00,0.00,0.00,0,,,100,100,0,1,0,0,0,0,6,,,,,0.0,2.3,0.0,0.0,0.0,0.0,0
33.737633,-118.104799,1.10,1.40,0.00,0.51,1.20,1.20,0.78,0.83,6004,2022-06-09 00:00:23.907,2022-06-08 17:00:23.907,16,0,0,16.743,33.737633,-118.104804,0.00,0.00,0.00,-13.70,-0.90,-122.70,0,1,0,99,100,-6581,3486,16743,3011.50,11,Sport,1,0,398,0,0,0,0,1654732823907,4244,4245,4241,4235,0,0,27,,,,,,,0,0,0,137.00,-9.00,-1227.00,-11.00,0.00,-1251.00,31,11.00,0.00,5.08,0.00,0.00,0.00,0,,,100,100,0,1,0,0,0,0,6,,,,,0.0,2.3,0.0,0.0,0.0,0.0,0
33.737633,-118.104799,1.10,1.40,0.14,0.49,1.20,1.20,0.78,0.83,6104,2022-06-09 00:00:24.007,2022-06-08 17:00:24.007,16,0,0,16.743,33.737633,-118.104804,-0.10,-0.10,0.00,-12.40,-0.40,-122.80,0,1,0,99,100,-6581,3486,16743,3011.50,11,Sport,1,0,0,0,0,0,0,1654732824007,4244,4245,4241,4235,0,0,27,,,,,,,0,0,0,124.00,-4.00,-1228.00,-11.00,0.00,-1251.00,31,11.00,1.41,4.94,-1.00,-1.00,0.00,0,,,100,100,0,1,0,0,0,0,6,,,,,0.0,2.0,0.0,0.0,0.0,0.0,0
33.737632,-118.104799,1.10,1.40,0.28,0.48,1.20,1.20,0.78,0.83,6204,2022-06-09 00:00:24.107,2022-06-08 17:00:24.107,16,0,0,16.743,33.737633,-118.104804,-0.20,-0.20,0.00,-6.10,-0.10,-123.00,0,1,0,99,100,-6581,3486,16743,3011.50,11,Sport,1,0,0,0,0,0,0,1654732824107,4244,4245,4241,4235,0,0,27,,,,,,,0,0,0,61.00,-1.00,-1230.00,-11.00,0.00,-1251.00,31,11.00,2.83,4.78,-2.00,-2.00,0.00,0,,,100,100,0,1,0,0,0,0,6,,,,,0.0,2.0,0.0,0.0,0.0,0.0,0
33.737632,-118.104799,1.10,1.40,0.28,0.45,1.20,1.20,0.78,0.83,6303,2022-06-09 00:00:24.207,2022-06-08 17:00:24.207,16,0,0,16.743,33.737633,-118.104804,-0.20,-0.20,0.00,-2.50,0.00,-123.00,0,1,0,99,100,-6581,3486,16743,3011.50,11,Sport,1,0,156,0,0,0,0,1654732824206,4244,4245,4241,4235,0,0,27,,,,,,,0,0,0,25.00,0.00,-1230.00,-11.00,0.00,-1251.00,31,11.00,2.83,4.47,-2.00,-2.00,0.00,0,,,100,100,0,1,0,0,0,0,6,,,,,0.0,1.9,0.0,0.0,0.0,0.0,0
33.737632,-118.104800,1.10,1.40,0.22,0.43,1.20,1.20,0.78,0.83,6403,2022-06-09 00:00:24.307,2022-06-08 17:00:24.307,16,0,0,16.743,33.737633,-118.104804,-0.10,-0.20,0.00,-5.00,0.00,-122.70,0,1,0,99,100,-6581,3486,16743,3011.50,11,Sport,1,0,0,0,0,0,0,1654732824306,4244,4245,4241,4235,0,0,27,,,,,,,0,0,0,50.00,0.00,-1227.00,-11.00,0.00,-1251.00,31,11.00,2.24,4.33,-1.00,-2.00,0.00,0,,,100,100,0,1,0,0,0,0,6,,,,,0.0,1.9,0.0,0.0,0.0,0.0,0
33.737632,-118.104800,1.10,1.40,0.14,0.41,1.20,1.20,0.78,0.83,6504,2022-06-09 00:00:24.407,2022-06-08 17:00:24.407,16,0,0,16.743,33.737633,-118.104804,-0.10,-0.10,0.00,-4.00,0.00,-122.70,0,1,0,99,100,-6581,3486,16743,3011.50,11,Sport,1,0,0,0,0,0,0,1654732824407,4244,4245,4241,4235,0,0,27,,,,,,,0,0,0,40.00,0.00,-1227.00,-11.00,0.00,-1251.00,31,11.00,1.41,4.12,-1.00,-1.00,0.00,0,,,100,100,0,1,0,0,0,0,6,,,,,0.0,1.9,0.0,0.0,0.0,0.0,0
33.737632,-118.104800,1.10,1.40,0.14,0.40,1.20,1.20,0.78,0.83,6604,2022-06-09 00:00:24.507,2022-06-08 17:00:24.507,16,0,0,16.743,33.737633,-118.104804,-0.10,-0.10,0.00,-3.00,-0.20,-122.80,0,1,0,99,100,-6581,3486,16743,3011.50,11,Sport,1,0,0,0,0,0,0,1654732824507,4244,4245,4241,4235,0,0,27,,,,,,,0,0,0,30.00,-2.00,-1228.00,-11.00,0.00,-1251.00,31,11.00,1.41,4.01,-1.00,-1.00,0.00,0,,,100,100,0,1,0,0,0,0,6,,,,,0.0,1.9,0.0,0.0,0.0,0.0,0
33.737632,-118.104800,1.10,1.40,0.10,0.37,1.20,1.20,0.78,0.83,6704,2022-06-09 00:00:24.607,2022-06-08 17:00:24.607,16,0,0,16.743,33.737633,-118.104804,0.00,-0.10,0.00,-2.50,-0.60,-122.80,0,1,0,99,100,-6581,3486,16743,3011.50,11,Sport,1,0,0,0,0,0,0,1654732824607,4244,4245,4241,4235,0,0,27,,,,,,,0,0,0,25.00,-6.00,-1228.00,-11.00,0.00,-1251.00,31,11.00,1.00,3.74,0.00,-1.00,0.00,0,,,100,100,0,1,0,0,0,0,6,,,,,0.0,1.9,0.0,0.0,0.0,0.0,0
33.737632,-118.104800,1.10,1.40,0.00,0.37,1.20,1.20,0.78,0.83,6804,2022-06-09 00:00:24.708,2022-06-08 17:00:24.708,16,0,0,16.743,33.737633,-118.104804,0.00,0.00,0.00,-2.80,-0.70,-122.70,0,1,0,99,100,-6581,3486,16743,3011.50,11,Sport,1,0,0,0,0,0,0,1654732824707,4244,4245,4241,4235,0,0,27,,,,,,,0,0,0,28.00,-7.00,-1227.00,-11.00,0.00,-1251.00,31,11.00,0.00,3.66,0.00,0.00,0.00,0,,,100,100,0,1,0,0,0,0,6,,,,,0.0,1.9,0.0,0.0,0.0,0.0,0
33.737632,-118.104800,1.10,1.40,0.00,0.36,1.20,1.20,0.78,0.83,6904,2022-06-09 00:00:24.807,2022-06-08 17:00:24.808,16,0,0,16.743,33.737633,-118.104804,0.00,0.00,0.00,-3.50,-0.40,-122.70,0,1,0,99,100,-6581,3486,16743,3011.50,11,Sport,1,0,0,0,0,0,0,1654732824807,4244,4245,4241,4235,0,0,27,,,,,,,0,0,0,35.00,-4.00,-1227.00,-11.00,0.00,-1251.00,31,11.00,0.00,3.62,0.00,0.00,0.00,0,,,100,100,0,1,0,0,0,0,6,,,,,0.0,1.9,0.0,0.0,0.0,0.0,0
33.737632,-118.104800,1.10,1.40,0.00,0.36,1.20,1.20,0.78,0.83,7004,2022-06-09 00:00:24.908,2022-06-08 17:00:24.908,16,0,0,16.743,33.737633,-118.104804,0.00,0.00,0.00,-4.80,-0.40,-122.70,0,1,0,99,100,-6581,3486,16743,3011.50,11,Sport,1,0,200,0,0,0,0,1654732824907,4244,4245,4241,4235,0,0,27,,,,,,,0,0,0,48.00,-4.00,-1227.00,-11.00,0.00,-1251.00,31,11.00,0.00,3.62,0.00,0.00,0.00,0,,,100,100,0,1,0,0,0,0,6,,,,,0.0,1.9,0.0,0.0,0.0,0.0,0
33.737632,-118.104800,1.10,1.40,0.00,0.36,1.20,1.20,0.78,0.83,7103,2022-06-09 00:00:25.007,2022-06-08 17:00:25.007,16,0,0,16.743,33.737633,-118.104804,0.00,0.00,0.00,-9.20,-0.10,-122.70,0,1,0,99,100,-6581,3486,16743,3011.50,11,Sport,1,0,3,0,0,0,0,1654732825006,4244,4245,4241,4235,0,0,27,,,,,,,0,0,0,92.00,-1.00,-1227.00,-11.00,0.00,-1251.00,31,11.00,0.00,3.60,0.00,0.00,0.00,0,,,100,100,0,1,0,0,0,0,6,,,,,0.0,0.0,0.0,0.0,0.0,0.0,0
33.737632,-118.104800,1.10,1.40,0.00,0.36,1.20,1.20,0.78,0.83,7205,2022-06-09 00:00:25.109,2022-06-08 17:00:25.109,16,0,0,16.743,33.737633,-118.104804,0.00,0.00,0.00,-6.80,0.00,-122.70,0,1,0,99,100,-6581,3486,16743,3011.50,11,Sport,1,0,0,0,0,0,0,1654732825108,4244,4245,4241,4235,0,0,27,,,,,,,0,0,0,68.00,0.00,-1227.00,-11.00,0.00,-1251.00,31,11.00,0.00,3.60,0.00,0.00,0.00,0,,,100,100,0,1,0,0,0,0,6,,,,,0.0,0.0,0.0,0.0,0.0,0.0,0
33.737632,-118.104800,1.10,1.40,0.00,0.37,1.20,1.20,0.78,0.83,7304,2022-06-09 00:00:25.208,2022-06-08 17:00:25.208,16,0,0,16.743,33.737633,-118.104804,0.00,0.00,0.00,-5.50,0.10,-122.70,0,1,0,99,100,-6581,3486,16743,3011.50,11,Sport,1,0,0,0,0,0,0,1654732825207,4244,4245,4241,4235,0,0,27,,,,,,,0,0,0,55.00,1.00,-1227.00,-11.00,0.00,-1251.00,31,11.00,0.00,3.68,0.00,0.00,0.00,0,,,100,100,0,1,0,0,0,0,6,,,,,0.0,0.0,0.0,0.0,0.0,0.0,0
33.737632,-118.104800,1.10,1.40,0.00,0.37,1.20,1.20,0.78,0.83,7404,2022-06-09 00:00:25.308,2022-06-08 17:00:25.308,16,0,0,16.743,33.737633,-118.104804,0.00,0.00,0.00,-5.10,0.10,-122.70,0,1,0,99,100,-6581,3486,16743,3011.50,11,Sport,1,0,0,0,0,0,0,1654732825307,4244,4245,4241,4235,0,0,27,,,,,,,0,0,0,51.00,1.00,-1227.00,-11.00,0.00,-1251.00,31,11.00,0.00,3.70,0.00,0.00,0.00,0,,,100,100,0,1,0,0,0,0,6,,,,,0.0,0.0,0.0,0.0,0.0,0.0,0
33.737632,-118.104800,1.10,1.40,0.00,0.38,1.20,1.20,0.78,0.83,7506,2022-06-09 00:00:25.409,2022-06-08 17:00:25.409,16,0,0,16.613,33.737633,-118.104804,0.00,0.00,0.00,-4.90,0.10,-122.70,0,1,0,99,100,-7273,3480,16613,3011.50,11,Sport,1,0,0,0,0,0,0,1654732825409,4244,4245,4241,4235,0,0,27,,,,,,,0,0,0,49.00,1.00,-1227.00,-11.00,0.00,-1251.00,31,11.00,0.00,3.80,0.00,0.00,0.00,0,,,100,100,0,1,0,0,0,0,6,,,,,0.0,0.0,0.0,0.0,0.0,0.0,0
33.737632,-118.104800,1.10,1.40,0.00,0.39,1.20,1.20,0.78,0.83,7605,2022-06-09 00:00:25.508,2022-06-08 17:00:25.508,16,0,0,16.613,33.737633,-118.104804,0.00,0.00,0.00,-5.50,0.10,-122.80,0,1,0,99,100,-7273,3480,16613,3011.50,11,Sport,1,0,169,0,0,0,0,1654732825508,4244,4245,4241,4235,0,0,27,,,,,,,0,0,0,55.00,1.00,-1228.00,-11.00,0.00,-1251.00,31,11.00,0.00,3.85,0.00,0.00,0.00,0,,,100,100,0,1,0,0,0,0,6,,,,,0.0,0.0,0.0,0.0,0.0,0.0,0
33.737632,-118.104800,1.10,1.40,0.00,0.40,1.20,1.20,0.78,0.83,7705,2022-06-09 00:00:25.609,2022-06-08 17:00:25.609,16,0,0,16.613,33.737633,-118.104804,0.00,0.00,0.00,-9.30,0.10,-122.80,0,1,0,99,100,-7273,3480,16613,3011.50,11,Sport,1,0,157,0,0,0,0,1654732825608,4244,4245,4241,4235,0,0,27,,,,,,,0,0,0,93.00,1.00,-1228.00,-11.00,0.00,-1251.00,31,11.00,0.00,4.03,0.00,0.00,0.00,0,,,100,100,0,1,0,0,0,0,6,,,,,0.0,0.0,0.0,0.0,0.0,0.0,0
33.737632,-118.104800,1.10,1.30,0.00,0.41,1.20,1.20,0.78,0.83,7806,2022-06-09 00:00:25.709,2022-06-08 17:00:25.709,16,0,0,16.613,33.737633,-118.104804,0.00,0.00,0.00,-7.10,0.00,-122.80,0,1,0,99,100,-7273,3480,16613,3011.50,11,Sport,1,0,0,0,0,0,0,1654732825709,4244,4245,4241,4235,0,0,27,,,,,,,0,0,0,71.00,0.00,-1228.00,-11.00,0.00,-1251.00,31,11.00,0.00,4.06,0.00,0.00,0.00,0,,,100,100,0,1,0,0,0,0,6,,,,,0.0,0.0,0.0,0.0,0.0,0.0,0
33.737632,-118.104800,1.10,1.40,0.00,0.42,1.20,1.20,0.78,0.83,7904,2022-06-09 00:00:25.808,2022-06-08 17:00:25.808,16,0,0,16.613,33.737633,-118.104804,0.00,0.00,0.00,-5.60,0.00,-122.80,0,1,0,99,100,-7273,3480,16613,3011.50,11,Sport,1,0,0,0,0,0,0,1654732825807,4244,4245,4241,4235,0,0,27,,,,,,,0,0,0,56.00,0.00,-1228.00,-11.00,0.00,-1251.00,31,11.00,0.00,4.17,0.00,0.00,0.00,0,,,100,100,0,1,0,0,0,0,6,,,,,0.0,0.0,0.0,0.0,0.0,0.0,0
33.737632,-118.104800,1.10,1.40,0.00,0.42,1.20,1.20,0.78,0.83,8005,2022-06-09 00:00:25.909,2022-06-08 17:00:25.909,16,0,0,16.613,33.737633,-118.104804,0.00,0.00,0.00,-5.00,-0.30,-122.90,0,1,0,99,100,-7273,3480,16613,3011.50,11,Sport,1,0,0,0,0,0,0,1654732825908,4244,4245,4241,4235,0,0,27,,,,,,,0,0,0,50.00,-3.00,-1229.00,-11.00,0.00,-1251.00,31,11.00,0.00,4.19,0.00,0.00,0.00,0,,,100,100,0,1,0,0,0,0,6,,,,,0.0,0.0,0.0,0.0,0.0,0.0,0
33.737632,-118.104800,1.10,1.40,0.00,0.43,1.20,1.20,0.78,0.83,8105,2022-06-09 00:00:26.009,2022-06-08 17:00:26.009,16,0,0,16.613,33.737633,-118.104804,0.00,0.00,0.00,-5.80,-0.20,-122.80,0,1,0,99,100,-7273,3480,16613,3011.50,11,Sport,1,0,188,0,0,0,0,1654732826008,4244,4245,4241,4235,0,0,27,,,,,,,0,0,0,58.00,-2.00,-1228.00,-11.00,0.00,-1251.00,31,11.00,0.00,4.30,0.00,0.00,0.00,0,,,100,100,0,1,0,0,0,0,6,,,,,0.0,0.0,0.0,0.0,0.0,0.0,0
33.737632,-118.104800,1.10,1.30,0.00,0.44,1.20,1.20,0.78,0.83,8206,2022-06-09 00:00:26.109,2022-06-08 17:00:26.109,16,0,0,16.613,33.737633,-118.104804,0.00,0.00,0.00,-13.90,0.00,-122.80,0,1,0,99,100,-7273,3480,16613,3011.50,11,Sport,1,0,338,0,0,0,0,1654732826109,4244,4245,4241,4235,0,0,27,,,,,,,0,0,0,139.00,0.00,-1228.00,-11.00,0.00,-1251.00,31,11.00,0.00,4.35,0.00,0.00,0.00,0,,,100,100,0,1,0,0,0,0,6,,,,,0.0,0.0,0.0,0.0,0.0,0.0,0
33.737632,-118.104800,1.10,1.30,0.00,0.42,1.20,1.20,0.78,0.83,8305,2022-06-09 00:00:26.209,2022-06-08 17:00:26.209,16,0,0,16.613,33.737633,-118.104804,0.00,0.00,0.00,-15.40,-0.10,-122.80,0,1,0,99,100,-7273,3480,16613,3011.50,11,Sport,1,0,0,0,0,0,0,1654732826208,4244,4245,4241,4235,0,0,27,,,,,,,0,0,0,154.00,-1.00,-1228.00,-11.00,0.00,-1251.00,31,11.00,0.00,4.24,0.00,0.00,0.00,0,,,100,100,0,1,0,0,0,0,6,,,,,0.0,0.0,0.0,0.0,0.0,0.0,0
33.737632,-118.104800,1.10,1.30,0.22,0.41,1.20,1.20,0.78,0.83,8405,2022-06-09 00:00:26.308,2022-06-08 17:00:26.309,16,0,0,16.613,33.737633,-118.104804,-0.10,-0.20,0.00,-7.90,-0.40,-122.90,0,1,0,99,100,-7273,3480,16613,3011.50,11,Sport,1,0,0,0,0,0,0,1654732826308,4244,4245,4241,4235,0,0,27,,,,,,,0,0,0,79.00,-4.00,-1229.00,-11.00,0.00,-1251.00,31,11.00,2.24,4.14,-1.00,-2.00,0.00,0,,,100,100,0,1,0,0,0,0,6,,,,,0.0,0.0,0.0,0.0,0.0,0.0,0
33.737632,-118.104800,1.10,1.40,0.22,0.42,1.20,1.20,0.78,0.83,8505,2022-06-09 00:00:26.408,2022-06-08 17:00:26.408,16,0,0,16.613,33.737633,-118.104804,-0.10,-0.20,0.00,-4.10,-0.40,-122.90,0,1,0,99,100,-7273,3480,16613,3011.50,11,Sport,1,0,0,0,0,0,0,1654732826408,4244,4245,4241,4235,0,0,27,,,,,,,0,0,0,41.00,-4.00,-1229.00,-11.00,0.00,-1251.00,31,11.00,2.24,4.16,-1.00,-2.00,0.00,0,,,100,100,0,1,0,0,0,0,6,,,,,0.0,0.0,0.0,0.0,0.0,0.0,0
33.737631,-118.104800,1.10,1.40,0.14,0.41,1.20,1.20,0.78,0.83,8605,2022-06-09 00:00:26.508,2022-06-08 17:00:26.508,16,0,0,16.613,33.737633,-118.104804,-0.10,-0.10,0.00,-2.80,-0.20,-122.80,0,1,0,99,100,-7273,3480,16613,3011.50,11,Sport,1,0,0,0,0,0,0,1654732826508,4244,4245,4241,4235,0,0,27,,,,,,,0,0,0,28.00,-2.00,-1228.00,-11.00,0.00,-1251.00,31,11.00,1.41,4.08,-1.00,-1.00,0.00,0,,,100,100,0,1,0,0,0,0,6,,,,,0.0,0.0,0.0,0.0,0.0,0.0,0
33.737632,-118.104800,1.10,1.30,0.10,0.40,1.20,1.20,0.78,0.83,8705,2022-06-09 00:00:26.608,2022-06-08 17:00:26.608,16,0,0,16.613,33.737633,-118.104804,0.00,-0.10,0.00,-2.80,-0.30,-122.80,0,1,0,99,100,-7273,3480,16613,3011.50,11,Sport,1,0,0,0,0,0,0,1654732826608,4244,4245,4241,4235,0,0,27,,,,,,,0,0,0,28.00,-3.00,-1228.00,-11.00,0.00,-1251.00,31,11.00,1.00,4.01,0.00,-1.00,0.00,0,,,100,100,0,1,0,0,0,0,6,,,,,0.0,0.0,0.0,0.0,0.0,0.0,0
33.737632,-118.104800,1.10,1.30,0.00,0.40,1.20,1.20,0.78,0.83,8806,2022-06-09 00:00:26.710,2022-06-08 17:00:26.710,16,0,0,16.613,33.737633,-118.104804,0.00,0.00,0.00,-3.10,-0.50,-122.70,0,1,0,99,100,-7273,3480,16613,3011.50,11,Sport,1,0,0,0,0,0,0,1654732826709,4244,4245,4241,4235,0,0,27,,,,,,,0,0,0,31.00,-5.00,-1227.00,-11.00,0.00,-1251.00,31,11.00,0.00,3.96,0.00,0.00,0.00,0,,,100,100,0,1,0,0,0,0,6,,,,,0.0,0.0,0.0,0.0,0.0,0.0,0
33.737632,-118.104801,1.10,1.30,0.00,0.38,1.20,1.20,0.78,0.83,8905,2022-06-09 00:00:26.808,2022-06-08 17:00:26.808,16,0,0,16.613,33.737633,-118.104804,0.00,0.00,0.00,-4.00,-0.40,-122.60,0,1,0,99,100,-7273,3480,16613,3011.50,11,Sport,1,0,133,0,0,0,0,1654732826808,4244,4245,4241,4235,0,0,27,,,,,,,0,0,0,40.00,-4.00,-1226.00,-11.00,0.00,-1251.00,31,11.00,0.00,3.76,0.00,0.00,0.00,0,,,100,100,0,1,0,0,0,0,6,,,,,0.0,0.0,0.0,0.0,0.0,0.0,0
33.737632,-118.104801,1.10,1.30,0.00,0.37,1.20,1.20,0.78,0.83,9005,2022-06-09 00:00:26.908,2022-06-08 17:00:26.908,16,0,0,16.613,33.737633,-118.104804,0.00,0.00,0.00,-6.30,-0.40,-122.60,0,1,0,99,100,-7273,3480,16613,3011.50,11,Sport,1,0,55,0,0,0,0,1654732826908,4244,4245,4241,4235,0,0,27,,,,,,,0,0,0,63.00,-4.00,-1226.00,-11.00,0.00,-1251.00,31,11.00,0.00,3.73,0.00,0.00,0.00,0,,,100,100,0,1,0,0,0,0,6,,,,,0.0,0.0,0.0,0.0,0.0,0.0,0
33.737632,-118.104801,1.10,1.30,0.00,0.36,1.20,1.20,0.78,0.83,9106,2022-06-09 00:00:27.010,2022-06-08 17:00:27.010,16,0,0,16.613,33.737633,-118.104804,0.00,0.00,0.00,-4.60,-0.80,-122.60,0,1,0,99,100,-7273,3480,16613,3011.50,11,Sport,1,0,0,0,0,0,0,1654732827009,4244,4245,4241,4235,0,0,27,,,,,,,0,0,0,46.00,-8.00,-1226.00,-11.00,0.00,-1251.00,31,11.00,0.00,3.64,0.00,0.00,0.00,0,,,100,100,0,1,0,0,0,0,6,,,,,0.0,0.0,0.0,0.0,0.0,0.0,0
33.737632,-118.104801,1.10,1.30,0.00,0.36,1.20,1.20,0.78,0.83,9206,2022-06-09 00:00:27.109,2022-06-08 17:00:27.109,16,0,0,16.613,33.737633,-118.104804,0.00,0.00,0.00,-3.80,-0.70,-122.70,0,1,0,99,100,-7273,3480,16613,3011.50,11,Sport,1,0,0,0,0,0,0,1654732827109,4244,4245,4241,4235,0,0,27,,,,,,,0,0,0,38.00,-7.00,-1227.00,-11.00,0.00,-1251.00,31,11.00,0.00,3.60,0.00,0.00,0.00,0,,,100,100,0,1,0,0,0,0,6,,,,,0.0,0.0,0.0,0.0,0.0,0.0,0
33.737632,-118.104801,1.10,1.30,0.00,0.36,1.20,1.20,0.78,0.83,9305,2022-06-09 00:00:27.209,2022-06-08 17:00:27.209,16,0,0,16.613,33.737633,-118.104804,0.00,0.00,0.00,-3.20,-0.70,-122.70,0,1,0,99,100,-7273,3480,16613,3011.50,11,Sport,1,0,99,0,0,0,0,1654732827208,4244,4245,4241,4235,0,0,27,,,,,,,0,0,0,32.00,-7.00,-1227.00,-11.00,0.00,-1251.00,31,11.00,0.00,3.57,0.00,0.00,0.00,0,,,100,100,0,1,0,0,0,0,6,,,,,0.0,0.0,0.0,0.0,0.0,0.0,0
33.737632,-118.104801,1.10,1.30,0.00,0.35,1.20,1.20,0.78,0.83,9406,2022-06-09 00:00:27.310,2022-06-08 17:00:27.310,16,0,0,16.613,33.737633,-118.104804,0.00,0.00,0.00,-8.30,-0.70,-122.70,0,1,0,99,100,-7273,3480,16613,3011.50,11,Sport,1,0,281,0,0,0,0,1654732827309,4244,4245,4241,4235,0,0,27,,,,,,,0,0,0,83.00,-7.00,-1227.00,-11.00,0.00,-1251.00,31,11.00,0.00,3.54,0.00,0.00,0.00,0,,,100,100,0,1,0,0,0,0,6,,,,,0.0,0.0,0.0,0.0,0.0,0.0,0
33.737632,-118.104801,1.10,1.30,0.00,0.35,1.20,1.20,0.78,0.83,9505,2022-06-09 00:00:27.409,2022-06-08 17:00:27.409,16,0,0,16.685,33.737633,-118.104804,0.00,0.00,0.00,-10.00,-0.60,-122.60,0,1,0,99,100,-7064,3477,16685,3011.50,11,Sport,1,0,0,0,0,0,0,1654732827408,4244,4245,4241,4235,0,0,27,,,,,,,0,0,0,100.00,-6.00,-1226.00,-11.00,0.00,-1251.00,31,11.00,0.00,3.51,0.00,0.00,0.00,0,,,100,100,0,1,0,0,0,0,6,,,,,0.0,0.0,0.0,0.0,0.0,0.0,0
33.737632,-118.104801,1.10,1.30,0.10,0.34,1.20,1.20,0.78,0.83,9606,2022-06-09 00:00:27.509,2022-06-08 17:00:27.509,16,0,0,16.685,33.737633,-118.104804,0.00,-0.10,0.00,-5.90,-0.70,-122.70,0,1,0,99,100,-7064,3477,16685,3011.50,11,Sport,1,0,0,0,0,0,0,1654732827509,4244,4245,4241,4235,0,0,27,,,,,,,0,0,0,59.00,-7.00,-1227.00,-11.00,0.00,-1251.00,31,11.00,1.00,3.44,0.00,-1.00,0.00,0,,,100,100,0,1,0,0,0,0,6,,,,,0.0,0.0,0.0,0.0,0.0,0.0,0
33.737632,-118.104801,1.10,1.30,0.10,0.34,1.20,1.20,0.78,0.83,9707,2022-06-09 00:00:27.610,2022-06-08 17:00:27.610,16,0,0,16.685,33.737633,-118.104804,0.00,-0.10,0.00,-4.40,-0.60,-122.70,0,1,0,99,100,-7064,3477,16685,3011.50,11,Sport,1,0,91,0,0,0,0,1654732827610,4244,4245,4241,4235,0,0,27,,,,,,,0,0,0,44.00,-6.00,-1227.00,-11.00,0.00,-1251.00,31,11.00,1.00,3.35,0.00,-1.00,0.00,0,,,100,100,0,1,0,0,0,0,6,,,,,0.0,0.0,0.0,0.0,0.0,0.0,0
33.737631,-118.104801,1.10,1.30,0.00,0.33,1.20,1.20,0.78,0.83,9806,2022-06-09 00:00:27.710,2022-06-08 17:00:27.710,16,0,0,16.685,33.737633,-118.104804,0.00,0.00,0.00,-5.10,-0.60,-122.70,0,1,0,99,100,-7064,3477,16685,3011.50,11,Sport,1,0,0,0,0,0,0,1654732827709,4244,4245,4241,4235,0,0,27,,,,,,,0,0,0,51.00,-6.00,-1227.00,-11.00,0.00,-1251.00,31,11.00,0.00,3.29,0.00,0.00,0.00,0,,,100,100,0,1,0,0,0,0,6,,,,,0.0,0.0,0.0,0.0,0.0,0.0,0
33.737631,-118.104801,1.10,1.30,0.00,0.34,1.20,1.20,0.78,0.83,9906,2022-06-09 00:00:27.809,2022-06-08 17:00:27.809,16,0,0,16.685,33.737633,-118.104804,0.00,0.00,0.00,-4.20,-0.70,-122.70,0,1,0,99,100,-7064,3477,16685,3011.50,11,Sport,1,0,0,0,0,0,0,1654732827809,4244,4245,4241,4235,0,0,27,,,,,,,0,0,0,42.00,-7.00,-1227.00,-11.00,0.00,-1251.00,31,11.00,0.00,3.39,0.00,0.00,0.00,0,,,100,100,0,1,0,0,0,0,6,,,,,0.0,0.0,0.0,0.0,0.0,0.0,0
33.737631,-118.104801,1.10,1.20,0.00,0.34,1.20,1.20,0.78,0.83,10006,2022-06-09 00:00:27.910,2022-06-08 17:00:27.910,16,0,0,16.685,33.737633,-118.104804,0.00,0.00,0.00,-3.80,-0.50,-122.80,0,1,0,99,100,-7064,3477,16685,3011.50,11,Sport,1,0,0,0,0,0,0,1654732827909,4244,4245,4241,4235,0,0,27,,,,,,,0,0,0,38.00,-5.00,-1228.00,-11.00,0.00,-1251.00,31,11.00,0.00,3.36,0.00,0.00,0.00,0,,,100,100,0,1,0,0,0,0,6,,,,,0.0,0.0,0.0,0.0,0.0,0.0,0
33.737631,-118.104801,1.10,1.20,0.00,0.33,1.20,1.20,0.78,0.83,10106,2022-06-09 00:00:28.009,2022-06-08 17:00:28.009,16,0,0,16.685,33.737633,-118.104804,0.00,0.00,0.00,-4.00,-0.40,-122.80,0,1,0,99,100,-7064,3477,16685,3011.50,11,Sport,1,0,56,0,0,0,0,1654732828009,4244,4245,4241,4235,0,0,27,,,,,,,0,0,0,40.00,-4.00,-1228.00,-11.00,0.00,-1251.00,31,11.00,0.00,3.27,0.00,0.00,0.00,0,,,100,100,0,1,0,0,0,0,6,,,,,0.0,0.0,0.0,0.0,0.0,0.0,0
33.737631,-118.104801,1.10,1.20,0.00,0.32,1.20,1.20,0.78,0.83,10207,2022-06-09 00:00:28.110,2022-06-08 17:00:28.110,16,0,0,16.685,33.737633,-118.104804,0.00,0.00,0.00,-7.30,-0.80,-122.70,0,1,0,99,100,-7064,3477,16685,3011.50,11,Sport,1,0,213,0,0,0,0,1654732828110,4179,4178,4166,4158,0,0,27,,,,,,,0,0,0,73.00,-8.00,-1227.00,-11.00,0.00,-1251.00,31,11.00,0.00,3.24,0.00,0.00,0.00,0,,,100,100,0,1,0,0,0,0,6,,,,,0.0,0.0,0.0,0.0,0.0,0.0,0
33.737631,-118.104801,1.10,1.20,0.00,0.33,1.20,1.20,0.78,0.83,10306,2022-06-09 00:00:28.210,2022-06-08 17:00:28.210,16,0,0,16.685,33.737633,-118.104804,0.00,0.00,0.00,-6.70,-1.00,-122.70,0,1,0,99,100,-7064,3477,16685,3011.50,11,Sport,1,0,0,0,0,0,0,1654732828209,4179,4178,4166,4158,0,0,27,,,,,,,0,0,0,67.00,-10.00,-1227.00,-11.00,0.00,-1251.00,31,11.00,0.00,3.31,0.00,0.00,0.00,0,,,100,100,0,1,0,0,0,0,6,,,,,0.0,0.0,0.0,0.0,0.0,0.0,0
33.737631,-118.104801,1.10,1.30,0.00,0.33,1.20,1.20,0.78,0.83,10407,2022-06-09 00:00:28.310,2022-06-08 17:00:28.310,16,0,0,16.685,33.737633,-118.104804,0.00,0.00,0.00,-4.80,-0.80,-122.70,0,1,0,99,100,-7064,3477,16685,3011.50,11,Sport,1,0,0,0,0,0,0,1654732828310,4179,4178,4166,4158,0,0,27,,,,,,,0,0,0,48.00,-8.00,-1227.00,-11.00,0.00,-1251.00,31,11.00,0.00,3.29,0.00,0.00,0.00,0,,,100,100,0,1,0,0,0,0,6,,,,,0.0,0.0,0.0,0.0,0.0,0.0,0
33.737631,-118.104801,1.10,1.20,0.00,0.33,1.20,1.20,0.78,0.83,10506,2022-06-09 00:00:28.410,2022-06-08 17:00:28.410,16,0,0,16.685,33.737633,-118.104804,0.00,0.00,0.00,-3.80,-0.50,-122.70,0,1,0,99,100,-7064,3477,16685,3011.50,11,Sport,1,0,0,0,84,0,0,1654732828409,4179,4178,4166,4158,0,0,27,,,,,,,0,0,0,38.00,-5.00,-1227.00,-11.00,0.00,-1251.00,31,11.00,0.00,3.35,0.00,0.00,0.00,0,,,100,100,0,1,0,0,0,0,6,,,,,0.0,0.0,0.0,0.0,0.0,0.0,0
33.737631,-118.104801,1.10,1.20,0.10,0.34,1.20,1.20,0.78,0.83,10606,2022-06-09 00:00:28.510,2022-06-08 17:00:28.510,16,0,0,16.685,33.737633,-118.104804,0.00,0.00,-0.10,-3.10,-0.30,-122.60,0,1,0,99,100,-7064,3477,16685,3011.50,11,Sport,1,0,0,0,313,0,0,1654732828509,4179,4178,4166,4158,0,0,27,,,,,,,0,0,0,31.00,-3.00,-1226.00,-11.00,0.00,-1251.00,31,11.00,1.00,3.37,0.00,0.00,-1.00,0,,,100,100,0,1,0,0,0,0,6,,,,,0.0,0.0,0.0,0.0,0.0,0.0,0
33.737631,-118.104801,1.10,1.20,0.30,0.35,1.20,1.20,0.78,0.83,10706,2022-06-09 00:00:28.610,2022-06-08 17:00:28.610,16,0,0,16.685,33.737633,-118.104804,0.00,0.00,-0.30,-3.70,0.00,-122.70,0,1,0,99,100,-7064,3477,16685,3011.50,11,Sport,1,0,0,0,0,0,0,1654732828609,4179,4178,4166,4158,0,0,27,,,,,,,0,0,0,37.00,0.00,-1227.00,-11.00,0.00,-1251.00,31,11.00,3.00,3.46,0.00,0.00,-3.00,0,,,100,100,0,1,0,0,0,0,6,,,,,0.0,0.0,0.0,0.0,0.0,0.0,0
33.737631,-118.104801,1.10,1.20,0.20,0.35,1.20,1.20,0.78,0.83,10806,2022-06-09 00:00:28.709,2022-06-08 17:00:28.709,16,0,0,16.685,33.737633,-118.104804,0.00,0.00,-0.20,-5.20,0.30,-122.70,0,1,0,99,100,-7064,3477,16685,3011.50,11,Sport,1,0,0,0,0,0,0,1654732828709,4179,4178,4166,4158,0,0,27,,,,,,,0,0,0,52.00,3.00,-1227.00,-11.00,0.00,-1251.00,31,11.00,2.00,3.51,0.00,0.00,-2.00,0,,,100,100,0,1,0,0,0,0,6,,,,,0.0,0.0,0.0,0.0,0.0,0.0,0
33.737631,-118.104801,1.10,1.30,0.00,0.34,1.20,1.20,0.78,0.83,10906,2022-06-09 00:00:28.810,2022-06-08 17:00:28.810,16,0,0,16.685,33.737633,-118.104804,0.00,0.00,0.00,-5.20,0.00,-122.70,0,1,0,99,100,-7064,3477,16685,3011.50,11,Sport,1,0,0,0,0,0,0,1654732828809,4179,4178,4166,4158,0,0,27,,,,,,,0,0,0,52.00,0.00,-1227.00,-11.00,0.00,-1251.00,31,11.00,0.00,3.41,0.00,0.00,0.00,0,,,100,100,0,1,0,0,0,0,6,,,,,0.0,0.0,0.0,0.0,0.0,0.0,0
33.737631,-118.104801,1.10,1.30,0.00,0.34,1.20,1.20,0.78,0.83,11007,2022-06-09 00:00:28.910,2022-06-08 17:00:28.910,16,0,0,16.685,33.737633,-118.104804,0.00,0.00,0.00,-4.80,-0.20,-122.70,0,1,0,99,100,-7064,3477,16685,3011.50,11,Sport,1,0,0,0,0,0,0,1654732828910,4179,4178,4166,4158,0,0,27,,,,,,,0,0,0,48.00,-2.00,-1227.00,-11.00,0.00,-1251.00,31,11.00,0.00,3.43,0.00,0.00,0.00,0,,,100,100,0,1,0,0,0,0,6,,,,,0.0,0.0,0.0,0.0,0.0,0.0,0
33.737631,-118.104801,1.10,1.30,0.00,0.36,1.20,1.20,0.78,0.83,11106,2022-06-09 00:00:29.010,2022-06-08 17:00:29.010,16,0,0,16.685,33.737633,-118.104804,0.00,0.00,0.00,-5.00,-0.10,-122.70,0,1,0,99,100,-7064,3477,16685,3011.50,11,Sport,1,0,0,0,134,0,0,1654732829009,4179,4178,4166,4158,0,0,27,,,,,,,0,0,0,50.00,-1.00,-1227.00,-11.00,0.00,-1251.00,31,11.00,0.00,3.56,0.00,0.00,0.00,0,,,100,100,0,1,0,0,0,0,6,,,,,0.0,0.0,0.0,0.0,0.0,0.0,0
33.737631,-118.104801,1.10,1.30,0.10,0.36,1.20,1.20,0.78,0.83,11206,2022-06-09 00:00:29.110,2022-06-08 17:00:29.110,16,0,0,16.685,33.737633,-118.104804,0.00,0.00,-0.10,-4.70,-0.40,-122.70,0,1,0,99,100,-7064,3477,16685,3011.50,11,Sport,1,0,0,0,73,0,0,1654732829109,4179,4178,4166,4158,0,0,27,,,,,,,0,0,0,47.00,-4.00,-1227.00,-11.00,0.00,-1251.00,31,11.00,1.00,3.57,0.00,0.00,-1.00,0,,,100,100,0,1,0,0,0,0,6,,,,,0.0,0.0,0.0,0.0,0.0,0.0,0
33.737631,-118.104801,1.20,1.40,0.10,0.37,1.20,1.20,0.78,0.83,11306,2022-06-09 00:00:29.210,2022-06-08 17:00:29.210,16,0,0,16.685,33.737633,-118.104804,0.00,0.00,-0.10,-5.30,-0.70,-122.70,0,1,0,99,100,-7064,3477,16685,3011.50,11,Sport,1,0,0,0,0,0,0,1654732829209,4179,4178,4166,4158,0,0,27,,,,,,,0,0,0,53.00,-7.00,-1227.00,-11.00,0.00,-1251.00,31,12.00,1.00,3.66,0.00,0.00,-1.00,0,,,100,100,0,1,0,0,0,0,6,,,,,0.0,0.0,0.0,0.0,0.0,0.0,0
33.737631,-118.104801,1.20,1.40,0.00,0.37,1.20,1.20,0.78,0.83,11406,2022-06-09 00:00:29.310,2022-06-08 17:00:29.310,16,0,0,16.685,33.737633,-118.104804,0.00,0.00,0.00,-5.70,-1.30,-122.80,0,1,0,99,100,-7064,3477,16685,3011.50,11,Sport,1,0,0,0,0,0,0,1654732829309,4179,4178,4166,4158,0,0,27,,,,,,,0,0,0,57.00,-13.00,-1228.00,-11.00,0.00,-1251.00,31,12.00,0.00,3.65,0.00,0.00,0.00,0,,,100,100,0,1,0,0,0,0,6,,,,,0.0,0.0,0.0,0.0,0.0,0.0,0
33.737631,-118.104801,1.20,1.40,0.00,0.36,1.20,1.20,0.78,0.83,11507,2022-06-09 00:00:29.410,2022-06-08 17:00:29.410,16,0,0,16.694,33.737633,-118.104804,0.00,0.00,0.00,-5.20,-1.70,-122.70,0,1,0,99,100,-6792,3473,16694,3011.50,11,Sport,1,0,0,0,267,0,0,1654732829410,4179,4178,4166,4158,0,0,27,,,,,,,0,0,0,52.00,-17.00,-1227.00,-11.00,0.00,-1251.00,31,12.00,0.00,3.56,0.00,0.00,0.00,0,,,100,100,0,1,0,0,0,0,6,,,,,0.0,0.0,0.0,0.0,0.0,0.0,0
33.737631,-118.104801,1.20,1.40,0.30,0.36,1.20,1.20,0.78,0.83,11606,2022-06-09 00:00:29.510,2022-06-08 17:00:29.510,16,0,0,16.694,33.737633,-118.104804,0.00,0.00,-0.30,-4.50,-1.40,-122.70,0,1,0,99,100,-6792,3473,16694,3011.50,11,Sport,1,0,0,0,0,0,0,1654732829509,4179,4178,4166,4158,0,0,27,,,,,,,0,0,0,45.00,-14.00,-1227.00,-11.00,0.00,-1251.00,31,12.00,3.00,3.55,0.00,0.00,-3.00,0,,,100,100,0,1,0,0,0,0,6,,,,,0.0,0.0,0.0,0.0,0.0,0.0,0
33.737632,-118.104801,1.20,1.40,0.20,0.35,1.20,1.20,0.78,0.83,11706,2022-06-09 00:00:29.610,2022-06-08 17:00:29.610,16,0,0,16.694,33.737633,-118.104804,0.00,0.00,-0.20,-5.70,-1.20,-122.60,0,1,0,99,100,-6792,3473,16694,3011.50,11,Sport,1,0,0,0,0,0,0,1654732829609,4179,4178,4166,4158,0,0,27,,,,,,,0,0,0,57.00,-12.00,-1226.00,-11.00,0.00,-1251.00,31,12.00,2.00,3.49,0.00,0.00,-2.00,0,,,100,100,0,1,0,0,0,0,6,,,,,0.0,0.0,0.0,0.0,0.0,0.0,0
33.737632,-118.104801,1.20,1.40,0.00,0.35,1.20,1.20,0.78,0.83,11807,2022-06-09 00:00:29.711,2022-06-08 17:00:29.711,16,0,0,16.694,33.737633,-118.104804,0.00,0.00,0.00,-6.20,-1.10,-122.50,0,1,0,99,100,-6792,3473,16694,3011.50,11,Sport,1,0,0,0,163,0,0,1654732829710,4179,4178,4166,4158,0,0,27,,,,,,,0,0,0,62.00,-11.00,-1225.00,-11.00,0.00,-1251.00,31,12.00,0.00,3.50,0.00,0.00,0.00,0,,,100,100,0,1,0,0,0,0,6,,,,,0.0,0.0,0.0,0.0,0.0,0.0,0
33.737632,-118.104801,1.20,1.50,0.10,0.36,1.20,1.20,0.78,0.83,11906,2022-06-09 00:00:29.810,2022-06-08 17:00:29.810,16,0,0,16.694,33.737633,-118.104804,0.00,0.00,-0.10,-6.00,-1.30,-122.50,0,1,0,99,100,-6792,3473,16694,3011.50,11,Sport,1,0,0,0,0,0,0,1654732829809,4179,4178,4166,4158,0,0,27,,,,,,,0,0,0,60.00,-13.00,-1225.00,-11.00,0.00,-1251.00,31,12.00,1.00,3.56,0.00,0.00,-1.00,0,,,100,100,0,1,0,0,0,0,6,,,,,0.0,0.0,0.0,0.0,0.0,0.0,0
33.737632,-118.104801,1.20,1.50,0.00,0.36,1.20,1.20,0.78,0.83,12006,2022-06-09 00:00:29.910,2022-06-08 17:00:29.910,16,0,0,16.694,33.737633,-118.104804,0.00,0.00,0.00,-5.80,-1.60,-122.50,0,1,0,99,100,-6792,3473,16694,3011.50,11,Sport,1,0,0,0,0,0,0,1654732829909,4179,4178,4166,4158,0,0,27,,,,,,,0,0,0,58.00,-16.00,-1225.00,-11.00,0.00,-1251.00,31,12.00,0.00,3.56,0.00,0.00,0.00,0,,,100,100,0,1,0,0,0,0,6,,,,,0.0,0.0,0.0,0.0,0.0,0.0,0
33.737632,-118.104801,1.20,1.50,0.00,0.36,1.20,1.20,0.78,0.83,12107,2022-06-09 00:00:30.011,2022-06-08 17:00:30.011,16,0,0,16.694,33.737633,-118.104804,0.00,0.00,0.00,-5.60,-1.60,-122.50,0,1,0,99,100,-6792,3473,16694,3011.50,11,Sport,1,0,0,0,0,0,0,1654732830010,4179,4178,4166,4158,0,0,27,,,,,,,0,0,0,56.00,-16.00,-1225.00,-11.00,0.00,-1251.00,31,12.00,0.00,3.56,0.00,0.00,0.00,0,,,100,100,0,1,0,0,0,0,6,,,,,0.0,0.0,0.0,0.0,0.0,0.0,0
33.737632,-118.104801,1.20,1.50,0.00,0.36,1.20,1.20,0.78,0.83,12207,2022-06-09 00:00:30.111,2022-06-08 17:00:30.111,16,0,0,16.694,33.737633,-118.104804,0.00,0.00,0.00,-4.80,-1.50,-122.50,0,1,0,99,100,-6792,3473,16694,3011.50,11,Sport,1,0,0,0,0,0,0,1654732830110,4179,4178,4166,4158,0,0,27,,,,,,,0,0,0,48.00,-15.00,-1225.00,-11.00,0.00,-1251.00,31,12.00,0.00,3.57,0.00,0.00,0.00,0,,,100,100,0,1,0,0,0,0,6,,,,,0.0,0.0,0.0,0.0,0.0,0.0,0
33.737632,-118.104801,1.20,1.50,0.00,0.36,1.20,1.20,0.78,0.83,12308,2022-06-09 00:00:30.211,2022-06-08 17:00:30.212,16,0,0,16.694,33.737633,-118.104804,0.00,0.00,0.00,-4.60,-1.90,-122.70,0,1,0,99,100,-6792,3473,16694,3011.50,11,Sport,1,0,0,0,0,0,0,1654732830211,4179,4178,4166,4158,0,0,27,,,,,,,0,0,0,46.00,-19.00,-1227.00,-11.00,0.00,-1251.00,31,12.00,0.00,3.60,0.00,0.00,0.00,0,,,100,100,0,1,0,0,0,0,6,,,,,0.0,0.0,0.0,0.0,0.0,0.0,0
33.737632,-118.104800,1.20,1.50,0.00,0.36,1.20,1.20,0.78,0.83,12407,2022-06-09 00:00:30.311,2022-06-08 17:00:30.311,16,0,0,16.694,33.737633,-118.104804,0.00,0.00,0.00,-5.00,-1.50,-122.80,0,1,0,99,100,-6792,3473,16694,3011.50,11,Sport,1,0,0,0,0,0,0,1654732830310,4179,4178,4166,4158,0,0,27,,,,,,,0,0,0,50.00,-15.00,-1228.00,-11.00,0.00,-1251.00,31,12.00,0.00,3.62,0.00,0.00,0.00,0,,,100,100,0,1,0,0,0,0,6,,,,,0.0,0.0,0.0,0.0,0.0,0.0,0
33.737632,-118.104801,1.20,1.50,0.00,0.35,1.20,1.20,0.78,0.83,12508,2022-06-09 00:00:30.411,2022-06-08 17:00:30.411,16,0,0,16.694,33.737633,-118.104804,0.00,0.00,0.00,-4.70,-1.60,-122.80,0,1,0,99,100,-6792,3473,16694,3011.50,11,Sport,1,0,0,0,0,0,0,1654732830411,4179,4178,4166,4158,0,0,27,,,,,,,0,0,0,47.00,-16.00,-1228.00,-11.00,0.00,-1251.00,31,12.00,0.00,3.53,0.00,0.00,0.00,0,,,100,100,0,1,0,0,0,0,6,,,,,0.0,0.0,0.0,0.0,0.0,0.0,0
33.737632,-118.104801,1.20,1.50,0.00,0.36,1.20,1.20,0.78,0.83,12608,2022-06-09 00:00:30.512,2022-06-08 17:00:30.512,16,0,0,16.694,33.737633,-118.104804,0.00,0.00,0.00,-4.50,-1.70,-122.80,0,1,0,99,100,-6792,3473,16694,3011.50,11,Sport,1,0,0,0,0,0,0,1654732830511,4179,4178,4166,4158,0,0,27,,,,,,,0,0,0,45.00,-17.00,-1228.00,-11.00,0.00,-1251.00,31,12.00,0.00,3.56,0.00,0.00,0.00,0,,,100,100,0,1,0,0,0,0,6,,,,,0.0,0.0,0.0,0.0,0.0,0.0,0
33.737632,-118.104800,1.20,1.50,0.00,0.37,1.20,1.20,0.78,0.83,12708,2022-06-09 00:00:30.611,2022-06-08 17:00:30.611,16,0,0,16.694,33.737633,-118.104804,0.00,0.00,0.00,-4.60,-1.20,-122.90,0,1,0,99,100,-6792,3473,16694,3011.50,11,Sport,1,0,0,0,0,-592,0,1654732830611,4179,4178,4166,4158,0,0,27,,,,,,,0,0,0,46.00,-12.00,-1229.00,-11.00,0.00,-1251.00,31,12.00,0.00,3.71,0.00,0.00,0.00,0,,,100,100,0,1,0,0,0,0,6,,,,,0.0,0.0,0.0,0.0,0.0,0.0,0
33.737632,-118.104800,1.20,1.40,0.00,0.38,1.20,1.20,0.78,0.83,12809,2022-06-09 00:00:30.712,2022-06-08 17:00:30.712,16,0,0,16.694,33.737633,-118.104804,0.00,0.00,0.00,-5.30,0.30,-127.60,0,1,0,99,100,-6792,3473,16694,3011.50,11,Sport,1,0,0,0,0,-592,0,1654732830712,4179,4178,4166,4158,0,0,27,,,,,,,0,0,0,53.00,3.00,-1276.00,-11.00,0.00,-1264.00,31,12.00,0.00,3.78,0.00,0.00,0.00,0,,,100,100,0,1,0,0,0,0,6,,,,,0.0,0.0,0.0,0.0,0.0,0.0,0
33.737632,-118.104800,1.20,1.50,0.00,0.38,1.20,1.20,0.78,0.83,12909,2022-06-09 00:00:30.812,2022-06-08 17:00:30.812,16,0,0,16.694,33.737633,-118.104804,0.00,0.00,0.00,-4.70,1.20,-136.50,0,1,0,99,100,-6792,3473,16694,3011.50,11,Sport,1,0,0,0,0,-188,0,1654732830812,4179,4178,4166,4158,0,0,27,,,,,,,0,0,0,47.00,12.00,-1365.00,-11.00,0.00,-1368.00,31,12.00,0.00,3.77,0.00,0.00,0.00,0,,,100,100,0,1,0,0,0,0,6,,,,,0.0,0.0,0.0,0.0,0.0,0.0,0
33.737632,-118.104800,1.20,1.50,0.00,0.38,1.20,1.20,0.78,0.83,13008,2022-06-09 00:00:30.911,2022-06-08 17:00:30.911,16,0,0,16.694,33.737633,-118.104804,0.00,0.00,0.00,-5.50,0.30,-138.70,0,1,0,99,100,-6792,3473,16694,3011.50,11,Sport,1,0,0,0,0,12,0,1654732830911,4179,4178,4166,4158,0,0,27,,,,,,,0,0,0,55.00,3.00,-1387.00,-11.00,0.00,-1427.00,31,12.00,0.00,3.81,0.00,0.00,0.00,0,,,100,100,0,1,0,0,0,0,6,,,,,0.0,0.0,0.0,0.0,0.0,0.0,0
33.737632,-118.104800,1.20,1.50,0.00,0.37,1.20,1.20,0.78,0.83,13108,2022-06-09 00:00:31.012,2022-06-08 17:00:31.012,16,0,0,16.694,33.737633,-118.104804,0.00,0.00,0.00,-5.50,-0.20,-133.00,0,1,0,99,100,-6792,3473,16694,3011.50,11,Sport,1,0,0,0,0,660,0,1654732831011,4179,4178,4166,4158,0,0,27,,,,,,,0,0,0,55.00,-2.00,-1330.00,-11.00,0.00,-1410.00,31,12.00,0.00,3.68,0.00,0.00,0.00,0,,,100,100,0,1,0,0,0,0,6,,,,,0.0,0.0,0.0,0.0,0.0,0.0,0
33.737632,-118.104800,1.20,1.50,0.00,0.37,1.20,1.20,0.78,0.83,13208,2022-06-09 00:00:31.111,2022-06-08 17:00:31.111,16,0,0,16.694,33.737633,-118.104804,0.00,0.00,0.00,-5.10,-0.80,-120.40,0,1,0,99,100,-6792,3473,16694,3011.50,11,Sport,1,0,0,0,0,599,0,1654732831111,4179,4178,4166,4158,0,0,27,,,,,,,0,0,0,51.00,-8.00,-1204.00,-11.00,0.00,-1278.00,31,12.00,0.00,3.74,0.00,0.00,0.00,0,,,100,100,0,1,0,0,0,0,6,,,,,0.0,0.0,0.0,0.0,0.0,0.0,0
33.737632,-118.104800,1.20,1.50,0.00,0.40,1.20,1.20,0.78,0.83,13308,2022-06-09 00:00:31.212,2022-06-08 17:00:31.212,16,0,0,16.694,33.737633,-118.104804,0.00,0.00,0.00,-5.50,0.10,-112.30,0,1,0,99,100,-6792,3473,16694,3011.50,11,Sport,1,0,0,0,0,31,0,1654732831211,4179,4178,4166,4158,0,0,27,,,,,,,0,0,0,55.00,1.00,-1123.00,-11.00,0.00,-1145.00,31,12.00,0.00,3.97,0.00,0.00,0.00,0,,,100,100,0,1,0,0,0,0,6,,,,,0.0,0.0,0.0,0.0,0.0,0.0,0
