latitude,longitude,altitude(m),ultrasonicHeight(m),speed(mps),distance(m),max_altitude(m),max_ascent(m),max_speed(mps),max_distance(m),time(millisecond),datetime(utc),datetime(local),satellites,pressure(Pa),temperature(F),voltage(v),home_latitude,home_longitude,velocityX(mps),velocityY(mps),velocityZ(mps),pitch(deg),roll(deg),yaw(deg),powerlevel,isflying,istakingphoto,remainPowerPercent,remainLifePercent,currentCurrent,currentElectricity,currentVoltage,batteryTemperature,dischargeCount,flightmode,isMotorsOn,isTakingVideo,Rc_elevator,Rc_aileron,Rc_throttle,Rc_rudder,Rc_gyro,timestamp,Battery_Cell1,Battery_Cell2,Battery_Cell3,Battery_Cell4,Battery_Cell5,Battery_Cell6,Dronetype,AppVersion,Planename,FlyControllerSerialNumber,RemoteSerialNumber,BatterySerialNumber,CENTER_BATTERY.productDate,CENTER_BATTERY.serialNo,CENTER_BATTERY.fullCapacity,CENTER_BATTERY.productDateRaw,pitchRaw,rollRaw,yawRaw,gimbalPitchRaw,gimbalRollRaw,gimbalYawRaw,flyState,altitudeRaw,speedRaw,distanceRaw,velocityXRaw,velocityYRaw,velocityZRaw,data_reuse,App_Tip,App_Warning,downlinkSignalQuality,uplinkSignalQuality,transmissionChannel,rcModeSwitch,rcHome,rcPause,rcTransform,rcJoystickMode,appMode,FlyControllerSerialNumber_legacy,RemoteSerialNumber_legacy,BatterySerialNumber_legacy,Battery2SerialNumber,frontAvoidDist,backAvoidDist,rightAvoidDist,leftAvoidDist,upAvoidDist,downAvoidDist,isBrakingToAvoid
34.182585,-118.129103,0.30,0.40,0.40,0.14,0.30,0.30,0.40,0.14,2,2022-06-08 14:41:55.545,2022-06-08 07:41:55.545,16,0,0,16.042,34.182586,-118.129104,0.00,0.00,-0.40,1.90,-0.10,166.50,0,1,0,75,100,-4949,2752,16042,3051.50,1,TakeOff,1,0,0,0,0,0,0,1654699315544,4066,4063,4061,4058,0,0,27,Litchi_iOS_2.14.0,Brian-MAVIC 2,163DFCK001S13F,1DUCFB800104PR,0P2AG1J53400UY,,0,3693,0,-19.00,-1.00,1665.00,0.00,0.00,1526.00,11,3.00,4.00,1.36,0.00,0.00,-4.00,0,,,100,100,0,2,0,0,0,1,0,(null),(null),(null),(null),0.0,0.0,0.0,0.0,0.0,0.0,0
34.182585,-118.129103,0.30,0.40,0.40,0.15,0.30,0.30,0.40,0.15,101,2022-06-08 14:41:55.644,2022-06-08 07:41:55.644,16,0,0,16.042,34.182586,-118.129104,0.00,0.00,-0.40,1.60,-0.20,166.50,0,1,0,75,100,-4949,2752,16042,3051.50,1,TakeOff,1,0,0,0,0,0,0,1654699315643,4066,4063,4061,4058,0,0,27,,,,,,,0,0,0,-16.00,-2.00,1665.00,0.00,0.00,1526.00,11,3.00,4.00,1.46,0.00,0.00,-4.00,0,,,100,100,0,2,0,0,0,1,0,,,,,0.0,0.0,0.0,0.0,0.0,0.0,0
34.182585,-118.129104,0.40,0.40,0.40,0.15,0.40,0.40,0.40,0.15,201,2022-06-08 14:41:55.743,2022-06-08 07:41:55.743,16,0,0,16.042,34.182586,-118.129104,0.00,0.00,-0.40,1.40,-0.20,166.50,0,1,0,75,100,-4949,2752,16042,3051.50,1,TakeOff,1,0,0,0,0,0,0,1654699315743,4066,4063,4061,4058,0,0,27,,,,,,,0,0,0,-14.00,-2.00,1665.00,0.00,0.00,1526.00,11,4.00,4.00,1.50,0.00,0.00,-4.00,0,,,100,100,0,2,0,0,0,1,0,,,,,0.0,0.0,0.0,0.0,0.0,0.0,0
34.182585,-118.129103,0.40,0.50,0.40,0.14,0.40,0.40,0.40,0.15,300,2022-06-08 14:41:55.843,2022-06-08 07:41:55.843,16,0,0,16.042,34.182586,-118.129104,0.00,0.00,-0.40,1.30,-0.10,166.50,0,1,0,75,100,-4949,2752,16042,3051.50,1,TakeOff,1,0,0,0,0,0,0,1654699315842,4066,4063,4061,4058,0,0,27,,,,,,,0,0,0,-13.00,-1.00,1665.00,0.00,0.00,1526.00,11,4.00,4.00,1.43,0.00,0.00,-4.00,0,,,100,100,0,2,0,0,0,1,0,,,,,0.0,0.0,0.0,0.0,0.0,0.0,0
34.182585,-118.129103,0.50,0.50,0.40,0.14,0.50,0.50,0.40,0.15,400,2022-06-08 14:41:55.942,2022-06-08 07:41:55.942,16,0,0,16.042,34.182586,-118.129104,0.00,0.00,-0.40,1.10,0.00,166.50,0,1,0,75,100,-4949,2752,16042,3051.50,1,TakeOff,1,0,0,0,0,0,0,1654699315942,4066,4063,4061,4058,0,0,27,,,,,,,0,0,0,-11.00,0.00,1665.00,0.00,0.00,1526.00,11,5.00,4.00,1.43,0.00,0.00,-4.00,0,,,100,100,0,2,0,0,0,1,0,,,,,0.0,0.0,0.0,0.0,0.0,0.0,0
34.182585,-118.129104,0.50,0.60,0.40,0.16,0.50,0.50,0.40,0.16,501,2022-06-08 14:41:56.043,2022-06-08 07:41:56.043,17,0,0,16.042,34.182586,-118.129104,0.00,0.00,-0.40,1.00,-0.20,166.40,0,1,0,75,100,-4949,2752,16042,3051.50,1,TakeOff,1,0,0,0,0,0,0,1654699316043,4066,4063,4061,4058,0,0,27,,,,,,,0,0,0,-10.00,-2.00,1664.00,0.00,0.00,1526.00,11,5.00,4.00,1.58,0.00,0.00,-4.00,0,,,100,100,0,2,0,0,0,1,0,,,,,0.0,0.0,0.0,0.0,0.0,0.0,0
34.182585,-118.129104,0.60,0.60,0.50,0.16,0.60,0.60,0.50,0.16,602,2022-06-08 14:41:56.144,2022-06-08 07:41:56.144,17,0,0,16.042,34.182586,-118.129104,0.00,0.00,-0.50,1.00,-0.40,166.40,0,1,0,75,100,-4949,2752,16042,3051.50,1,TakeOff,1,0,0,0,0,0,0,1654699316144,4066,4063,4061,4058,0,0,27,,,,,,,0,0,0,-10.00,-4.00,1664.00,0.00,0.00,1526.00,11,6.00,5.00,1.58,0.00,0.00,-5.00,0,,,100,100,0,2,0,0,0,1,0,,,,,0.0,0.0,0.0,0.0,0.0,0.0,0
34.182585,-118.129104,0.60,0.70,0.50,0.15,0.60,0.60,0.50,0.16,700,2022-06-08 14:41:56.243,2022-06-08 07:41:56.243,17,0,0,16.042,34.182586,-118.129104,0.00,0.00,-0.50,1.00,-0.60,166.30,0,1,0,75,100,-4949,2752,16042,3051.50,1,TakeOff,1,0,0,0,0,0,0,1654699316242,4066,4063,4061,4058,0,0,27,,,,,,,0,0,0,-10.00,-6.00,1663.00,0.00,0.00,1526.00,11,6.00,5.00,1.48,0.00,0.00,-5.00,0,,,100,100,0,2,0,0,0,1,0,,,,,0.0,0.0,0.0,0.0,0.0,0.0,0
34.182585,-118.129104,0.70,0.70,0.50,0.15,0.70,0.70,0.50,0.16,801,2022-06-08 14:41:56.343,2022-06-08 07:41:56.343,17,0,0,16.042,34.182586,-118.129104,0.00,0.00,-0.50,0.80,-0.60,166.30,0,1,0,75,100,-4949,2752,16042,3051.50,1,TakeOff,1,0,0,0,0,0,0,1654699316343,4066,4063,4061,4058,0,0,27,,,,,,,0,0,0,-8.00,-6.00,1663.00,0.00,0.00,1526.00,11,7.00,5.00,1.47,0.00,0.00,-5.00,0,,,100,100,0,2,0,0,0,1,0,,,,,0.0,0.0,0.0,0.0,0.0,0.0,0
34.182585,-118.129104,0.70,0.80,0.50,0.16,0.70,0.70,0.50,0.16,852,2022-06-08 14:41:56.395,2022-06-08 07:41:56.395,16,0,0,16.042,34.182586,-118.129104,0.00,0.00,-0.50,0.70,-0.50,166.30,0,1,0,75,100,-4949,2752,16042,3051.50,1,TakeOff,1,0,0,0,0,0,0,1654699316394,4066,4063,4061,4058,0,0,27,,,,,,,0,0,0,-7.00,-5.00,1663.00,0.00,0.00,1526.00,11,7.00,5.00,1.62,0.00,0.00,-5.00,0,,,100,100,0,2,0,0,0,1,0,,,,,0.0,0.0,0.0,0.0,0.0,0.0,0
34.182585,-118.129104,0.80,0.80,0.50,0.16,0.80,0.80,0.50,0.16,1003,2022-06-08 14:41:56.545,2022-06-08 07:41:56.545,16,0,0,16.042,34.182586,-118.129104,0.00,0.00,-0.50,0.80,-0.40,166.30,0,1,0,75,100,-4949,2752,16042,3051.50,1,TakeOff,1,0,0,0,0,0,0,1654699316545,4066,4063,4061,4058,0,0,27,,,,,,,0,0,0,-8.00,-4.00,1663.00,0.00,0.00,1526.00,11,8.00,5.00,1.61,0.00,0.00,-5.00,0,,,100,100,0,2,0,0,0,1,0,,,,,0.0,0.0,0.0,0.0,0.0,0.0,0
34.182585,-118.129104,0.80,0.90,0.50,0.16,0.80,0.80,0.50,0.16,1100,2022-06-08 14:41:56.643,2022-06-08 07:41:56.643,17,0,0,15.845,34.182586,-118.129104,0.00,0.00,-0.50,0.80,-0.30,166.30,0,1,0,75,100,-7713,2749,15845,3051.50,1,TakeOff,1,0,0,0,0,0,0,1654699316642,4066,4063,4061,4058,0,0,27,,,,,,,0,0,0,-8.00,-3.00,1663.00,0.00,0.00,1526.00,11,8.00,5.00,1.58,0.00,0.00,-5.00,0,,,100,100,0,2,0,0,0,1,0,,,,,0.0,0.0,0.0,0.0,0.0,0.0,0
34.182585,-118.129104,0.90,0.90,0.50,0.16,0.90,0.90,0.50,0.16,1201,2022-06-08 14:41:56.744,2022-06-08 07:41:56.744,17,0,0,15.845,34.182586,-118.129104,0.00,0.00,-0.50,0.80,-0.30,166.30,0,1,0,75,100,-7713,2749,15845,3051.50,1,TakeOff,1,0,0,0,0,0,0,1654699316743,4066,4063,4061,4058,0,0,27,,,,,,,0,0,0,-8.00,-3.00,1663.00,0.00,0.00,1525.00,11,9.00,5.00,1.58,0.00,0.00,-5.00,0,,,100,100,0,2,0,0,0,1,0,,,,,0.0,0.0,0.0,0.0,0.0,0.0,0
34.182585,-118.129104,0.90,1.00,0.50,0.16,0.90,0.90,0.50,0.16,1301,2022-06-08 14:41:56.844,2022-06-08 07:41:56.844,17,0,0,15.845,34.182586,-118.129104,0.00,0.00,-0.50,0.80,-0.40,166.30,0,1,0,75,100,-7713,2749,15845,3051.50,1,TakeOff,1,0,0,0,0,0,0,1654699316843,4066,4063,4061,4058,0,0,27,,,,,,,0,0,0,-8.00,-4.00,1663.00,0.00,0.00,1525.00,11,9.00,5.00,1.59,0.00,0.00,-5.00,0,,,100,100,0,2,0,0,0,1,0,,,,,0.0,0.0,0.0,0.0,0.0,0.0,0
34.182585,-118.129104,1.00,1.00,0.50,0.16,1.00,1.00,0.50,0.16,1401,2022-06-08 14:41:56.944,2022-06-08 07:41:56.944,17,0,0,15.845,34.182586,-118.129104,0.00,0.00,-0.50,1.00,-0.40,166.30,0,1,0,75,100,-7713,2749,15845,3051.50,1,TakeOff,1,0,0,0,0,0,0,1654699316943,4066,4063,4061,4058,0,0,27,,,,,,,0,0,0,-10.00,-4.00,1663.00,0.00,0.00,1525.00,11,10.00,5.00,1.60,0.00,0.00,-5.00,0,,,100,100,0,2,0,0,0,1,0,,,,,0.0,0.0,0.0,0.0,0.0,0.0,0
34.182585,-118.129104,1.00,1.10,0.40,0.14,1.00,1.00,0.50,0.16,1502,2022-06-08 14:41:57.045,2022-06-08 07:41:57.045,17,0,0,15.845,34.182586,-118.129104,0.00,0.00,-0.40,1.00,-0.40,166.30,0,1,0,75,100,-7713,2749,15845,3051.50,1,WP,1,0,0,0,0,0,0,1654699317044,4066,4063,4061,4058,0,0,27,,,,,,,0,0,0,-10.00,-4.00,1663.00,0.00,0.00,1525.00,14,10.00,4.00,1.44,0.00,0.00,-4.00,0,,,100,100,0,2,0,0,0,1,0,,,,,0.0,0.0,0.0,0.0,0.0,0.0,0
34.182585,-118.129104,1.10,1.10,0.40,0.14,1.10,1.10,0.50,0.16,1604,2022-06-08 14:41:57.147,2022-06-08 07:41:57.147,17,0,0,15.845,34.182586,-118.129104,0.00,0.00,-0.40,0.60,-0.20,166.20,0,1,0,75,100,-7713,2749,15845,3051.50,1,WP,1,0,0,0,0,0,0,1654699317146,4066,4063,4061,4058,0,0,27,,,,,,,0,0,0,-6.00,-2.00,1662.00,0.00,0.00,1525.00,14,11.00,4.00,1.43,0.00,0.00,-4.00,0,,,100,100,0,2,0,0,0,1,0,,,,,0.0,0.0,0.0,0.0,0.0,0.0,0
34.182585,-118.129104,1.10,1.20,0.40,0.16,1.10,1.10,0.50,0.16,1701,2022-06-08 14:41:57.244,2022-06-08 07:41:57.244,17,0,0,15.845,34.182586,-118.129104,0.00,0.00,-0.40,0.70,-0.10,166.10,0,1,0,75,100,-7713,2749,15845,3051.50,1,WP,1,0,0,0,0,0,0,1654699317243,4066,4063,4061,4058,0,0,27,,,,,,,0,0,0,-7.00,-1.00,1661.00,0.00,0.00,1525.00,14,11.00,4.00,1.61,0.00,0.00,-4.00,0,,,100,100,0,2,0,0,0,1,0,,,,,0.0,0.0,0.0,0.0,0.0,0.0,0
34.182585,-118.129104,1.20,1.20,0.40,0.16,1.20,1.20,0.50,0.16,1804,2022-06-08 14:41:57.346,2022-06-08 07:41:57.346,17,0,0,15.845,34.182586,-118.129104,0.00,0.00,-0.40,0.80,-0.20,166.00,0,1,0,75,100,-7713,2749,15845,3051.50,1,WP,1,0,0,0,0,0,0,1654699317346,4066,4063,4061,4058,0,0,27,,,,,,,0,0,0,-8.00,-2.00,1660.00,0.00,0.00,1525.00,14,12.00,4.00,1.63,0.00,0.00,-4.00,0,,,100,100,0,2,0,0,0,1,0,,,,,0.0,0.0,0.0,0.0,0.0,0.0,0
34.182585,-118.129104,1.20,1.30,0.40,0.16,1.20,1.20,0.50,0.16,1902,2022-06-08 14:41:57.445,2022-06-08 07:41:57.445,17,0,0,15.845,34.182586,-118.129104,0.00,0.00,-0.40,1.00,-0.70,166.00,0,1,0,75,100,-7713,2749,15845,3051.50,1,WP,1,0,0,0,0,0,0,1654699317444,4066,4063,4061,4058,0,0,27,,,,,,,0,0,0,-10.00,-7.00,1660.00,0.00,0.00,1525.00,14,12.00,4.00,1.64,0.00,0.00,-4.00,0,,,100,100,0,2,0,0,0,1,0,,,,,0.0,0.0,0.0,0.0,0.0,0.0,0
34.182585,-118.129104,1.20,1.30,0.40,0.17,1.20,1.20,0.50,0.17,2002,2022-06-08 14:41:57.544,2022-06-08 07:41:57.544,17,0,0,15.845,34.182586,-118.129104,0.00,0.00,-0.40,1.00,-1.00,165.90,0,1,0,75,100,-7713,2749,15845,3051.50,1,WP,1,0,0,0,0,0,0,1654699317544,4066,4063,4061,4058,0,0,27,,,,,,,0,0,0,-10.00,-10.00,1659.00,0.00,0.00,1525.00,14,12.00,4.00,1.67,0.00,0.00,-4.00,0,,,100,100,0,2,0,0,0,1,0,,,,,0.0,0.0,0.0,0.0,0.0,0.0,0
34.182585,-118.129104,1.30,1.40,0.40,0.18,1.30,1.30,0.50,0.18,2101,2022-06-08 14:41:57.643,2022-06-08 07:41:57.643,17,0,0,15.845,34.182586,-118.129104,0.00,0.00,-0.40,1.10,-1.10,165.90,0,1,0,75,100,-7713,2749,15845,3051.50,1,WP,1,0,0,0,0,0,0,1654699317643,4066,4063,4061,4058,0,0,27,,,,,,,0,0,0,-11.00,-11.00,1659.00,0.00,0.00,1525.00,14,13.00,4.00,1.80,0.00,0.00,-4.00,0,,,100,100,0,2,0,0,0,1,0,,,,,0.0,0.0,0.0,0.0,0.0,0.0,0
34.182585,-118.129104,1.30,1.40,0.40,0.18,1.30,1.30,0.50,0.18,2156,2022-06-08 14:41:57.698,2022-06-08 07:41:57.698,17,0,0,15.845,34.182586,-118.129104,0.00,0.00,-0.40,1.40,-1.00,165.90,0,1,0,75,100,-7713,2749,15845,3051.50,1,WP,1,0,0,0,0,0,0,1654699317698,4066,4063,4061,4058,0,0,27,,,,,,,0,0,0,-14.00,-10.00,1659.00,0.00,0.00,1525.00,14,13.00,4.00,1.82,0.00,0.00,-4.00,0,,,100,100,0,2,0,0,0,1,0,,,,,0.0,0.0,0.0,0.0,0.0,0.0,0
34.182585,-118.129104,1.40,1.50,0.40,0.19,1.40,1.40,0.50,0.19,2303,2022-06-08 14:41:57.846,2022-06-08 07:41:57.846,17,0,0,15.845,34.182586,-118.129104,0.00,0.00,-0.40,1.40,-1.00,165.90,0,1,0,75,100,-7713,2749,15845,3051.50,1,WP,1,0,0,0,0,0,0,1654699317845,4066,4063,4061,4058,0,0,27,,,,,,,0,0,0,-14.00,-10.00,1659.00,0.00,0.00,1525.00,14,14.00,4.00,1.92,0.00,0.00,-4.00,0,,,100,100,0,2,0,0,0,1,0,,,,,0.0,0.0,0.0,0.0,0.0,0.0,0
34.182585,-118.129104,1.40,1.50,0.40,0.19,1.40,1.40,0.50,0.19,2355,2022-06-08 14:41:57.898,2022-06-08 07:41:57.898,17,0,0,15.845,34.182586,-118.129104,0.00,0.00,-0.40,1.30,-1.10,166.00,0,1,0,75,100,-7713,2749,15845,3051.50,1,WP,1,0,0,0,0,0,0,1654699317897,4066,4063,4061,4058,0,0,27,,,,,,,0,0,0,-13.00,-11.00,1660.00,0.00,0.00,1525.00,14,14.00,4.00,1.93,0.00,0.00,-4.00,0,,,100,100,0,2,0,0,0,1,0,,,,,0.0,0.0,0.0,0.0,0.0,0.0,0
34.182584,-118.129104,1.50,1.60,0.40,0.22,1.50,1.50,0.50,0.22,2503,2022-06-08 14:41:58.046,2022-06-08 07:41:58.046,17,0,0,15.845,34.182586,-118.129104,0.00,0.00,-0.40,1.40,-1.10,166.00,0,1,0,75,100,-7713,2749,15845,3051.50,1,WP,1,0,0,0,0,0,0,1654699318045,4066,4063,4061,4058,0,0,27,,,,,,,0,0,0,-14.00,-11.00,1660.00,0.00,0.00,1525.00,14,15.00,4.00,2.16,0.00,0.00,-4.00,0,,,100,100,0,2,0,0,0,1,0,,,,,0.0,0.0,0.0,0.0,0.0,0.0,0
34.182584,-118.129104,1.50,1.60,0.40,0.22,1.50,1.50,0.50,0.22,2605,2022-06-08 14:41:58.148,2022-06-08 07:41:58.148,17,0,0,15.845,34.182586,-118.129104,0.00,0.00,-0.40,1.70,-1.00,166.00,0,1,0,75,100,-7713,2749,15845,3051.50,1,WP,1,0,0,0,0,0,0,1654699318147,4066,4063,4061,4058,0,0,27,,,,,,,0,0,0,-17.00,-10.00,1660.00,0.00,0.00,1525.00,14,15.00,4.00,2.18,0.00,0.00,-4.00,0,,,100,100,0,2,0,0,0,1,0,,,,,0.0,0.0,0.0,0.0,0.0,0.0,0
34.182584,-118.129104,1.60,1.70,0.40,0.22,1.60,1.60,0.50,0.22,2654,2022-06-08 14:41:58.197,2022-06-08 07:41:58.197,17,0,0,15.845,34.182586,-118.129104,0.00,0.00,-0.40,1.60,-0.90,166.00,0,1,0,75,100,-7713,2749,15845,3051.50,1,WP,1,0,0,0,0,0,0,1654699318196,4066,4063,4061,4058,0,0,27,,,,,,,0,0,0,-16.00,-9.00,1660.00,0.00,0.00,1525.00,14,16.00,4.00,2.23,0.00,0.00,-4.00,0,,,100,100,0,2,0,0,0,1,0,,,,,0.0,0.0,0.0,0.0,0.0,0.0,0
34.182584,-118.129104,1.60,1.70,0.40,0.22,1.60,1.60,0.50,0.22,2755,2022-06-08 14:41:58.297,2022-06-08 07:41:58.297,17,0,0,15.845,34.182586,-118.129104,0.00,0.00,-0.40,1.60,-0.70,166.00,0,1,0,75,100,-7713,2749,15845,3051.50,1,WP,1,0,0,0,0,0,0,1654699318297,4066,4063,4061,4058,0,0,27,,,,,,,0,0,0,-16.00,-7.00,1660.00,0.00,0.00,1525.00,14,16.00,4.00,2.23,0.00,0.00,-4.00,0,,,100,100,0,2,0,0,0,1,0,,,,,0.0,0.0,0.0,0.0,0.0,0.0,0
34.182584,-118.129104,1.70,1.70,0.40,0.23,1.70,1.70,0.50,0.23,2854,2022-06-08 14:41:58.397,2022-06-08 07:41:58.397,17,0,0,15.845,34.182586,-118.129104,0.00,0.00,-0.40,1.50,-0.90,166.00,0,1,0,75,100,-7713,2749,15845,3051.50,1,WP,1,0,0,0,0,0,0,1654699318396,4066,4063,4061,4058,0,0,27,,,,,,,0,0,0,-15.00,-9.00,1660.00,0.00,0.00,1525.00,14,17.00,4.00,2.31,0.00,0.00,-4.00,0,,,100,100,0,2,0,0,0,1,0,,,,,0.0,0.0,0.0,0.0,0.0,0.0,0
34.182584,-118.129104,1.70,1.80,0.40,0.23,1.70,1.70,0.50,0.23,2955,2022-06-08 14:41:58.497,2022-06-08 07:41:58.497,17,0,0,15.845,34.182586,-118.129104,0.00,0.00,-0.40,-0.10,-0.20,165.90,0,1,0,75,100,-7713,2749,15845,3051.50,1,WP,1,0,0,0,0,0,0,1654699318497,4066,4063,4061,4058,0,0,27,,,,,,,0,0,0,1.00,-2.00,1659.00,0.00,0.00,1525.00,14,17.00,4.00,2.31,0.00,0.00,-4.00,0,,,100,100,0,2,0,0,0,1,0,,,,,0.0,0.0,0.0,0.0,0.0,0.0,0
34.182584,-118.129104,1.70,1.80,0.30,0.21,1.70,1.70,0.50,0.23,3104,2022-06-08 14:41:58.647,2022-06-08 07:41:58.647,17,0,0,15.818,34.182586,-118.129104,0.00,0.00,-0.30,-0.30,-0.10,165.50,0,1,0,75,100,-7718,2744,15818,3051.50,1,WP,1,0,0,0,0,0,0,1654699318646,4066,4063,4061,4058,0,0,27,,,,,,,0,0,0,3.00,-1.00,1655.00,0.00,0.00,1525.00,14,17.00,3.00,2.09,0.00,0.00,-3.00,0,,,100,100,0,2,0,0,0,1,0,,,,,0.0,0.0,0.0,0.0,0.0,0.0,0
34.182584,-118.129104,1.80,1.90,0.20,0.21,1.80,1.80,0.50,0.23,3205,2022-06-08 14:41:58.747,2022-06-08 07:41:58.747,17,0,0,15.818,34.182586,-118.129104,0.00,0.00,-0.20,0.20,-0.30,164.40,0,1,0,75,100,-7718,2744,15818,3051.50,1,WP,1,0,0,0,0,0,0,1654699318747,4066,4063,4061,4058,0,0,27,,,,,,,0,0,0,-2.00,-3.00,1644.00,0.00,0.00,1525.00,14,18.00,2.00,2.10,0.00,0.00,-2.00,0,,,100,100,0,2,0,0,0,1,0,,,,,0.0,0.0,0.0,0.0,0.0,0.0,0
34.182584,-118.129104,1.80,1.90,0.10,0.22,1.80,1.80,0.50,0.23,3305,2022-06-08 14:41:58.847,2022-06-08 07:41:58.847,17,0,0,15.818,34.182586,-118.129104,0.00,0.00,-0.10,0.60,-0.50,162.80,0,1,0,75,100,-7718,2744,15818,3051.50,1,WP,1,0,0,0,0,0,0,1654699318847,4066,4063,4061,4058,0,0,27,,,,,,,0,0,0,-6.00,-5.00,1628.00,0.00,0.00,1523.00,14,18.00,1.00,2.19,0.00,0.00,-1.00,0,,,100,100,0,2,0,0,0,1,0,,,,,0.0,0.0,0.0,0.0,0.0,0.0,0
34.182584,-118.129104,1.80,1.90,0.10,0.22,1.80,1.80,0.50,0.23,3406,2022-06-08 14:41:58.948,2022-06-08 07:41:58.948,17,0,0,15.818,34.182586,-118.129104,0.00,0.00,-0.10,0.80,-0.50,160.60,0,1,0,75,100,-7718,2744,15818,3051.50,1,WP,1,0,0,0,0,0,0,1654699318948,4066,4063,4061,4058,0,0,27,,,,,,,0,0,0,-8.00,-5.00,1606.00,0.00,0.00,1517.00,14,18.00,1.00,2.23,0.00,0.00,-1.00,0,,,100,100,0,2,0,0,0,1,0,,,,,0.0,0.0,0.0,0.0,0.0,0.0,0
34.182585,-118.129104,1.80,1.90,0.10,0.20,1.80,1.80,0.50,0.23,3457,2022-06-08 14:41:58.999,2022-06-08 07:41:58.999,17,0,0,15.818,34.182586,-118.129104,0.00,0.00,-0.10,0.90,-0.60,158.70,0,1,0,75,100,-7718,2744,15818,3051.50,1,WP,1,0,0,0,0,0,0,1654699318999,4066,4063,4061,4058,0,0,27,,,,,,,0,0,0,-9.00,-6.00,1587.00,0.00,0.00,1503.00,14,18.00,1.00,1.99,0.00,0.00,-1.00,0,,,100,100,0,2,0,0,0,1,0,,,,,0.0,0.0,0.0,0.0,0.0,0.0,0
34.182584,-118.129104,1.80,1.90,0.00,0.20,1.80,1.80,0.50,0.23,3608,2022-06-08 14:41:59.150,2022-06-08 07:41:59.150,17,0,0,15.818,34.182586,-118.129104,0.00,0.00,0.00,0.90,-0.60,157.50,0,1,0,75,100,-7718,2744,15818,3051.50,1,WP,1,0,0,0,0,0,0,1654699319150,4066,4063,4061,4058,0,0,27,,,,,,,0,0,0,-9.00,-6.00,1575.00,0.00,0.00,1484.00,14,18.00,0.00,2.02,0.00,0.00,0.00,0,,,100,100,0,2,0,0,0,1,0,,,,,0.0,0.0,0.0,0.0,0.0,0.0,0
34.182584,-118.129104,1.80,1.90,0.00,0.20,1.80,1.80,0.50,0.23,3707,2022-06-08 14:41:59.249,2022-06-08 07:41:59.250,17,0,0,15.818,34.182586,-118.129104,0.00,0.00,0.00,0.90,-0.60,156.60,0,1,0,75,100,-7718,2744,15818,3051.50,1,WP,1,0,0,0,0,0,0,1654699319249,4066,4063,4061,4058,0,0,27,,,,,,,0,0,0,-9.00,-6.00,1566.00,0.00,0.00,1468.00,14,18.00,0.00,2.03,0.00,0.00,0.00,0,,,100,100,0,2,0,0,0,1,0,,,,,0.0,0.0,0.0,0.0,0.0,0.0,0
34.182584,-118.129104,1.80,1.90,0.00,0.21,1.80,1.80,0.50,0.23,3812,2022-06-08 14:41:59.355,2022-06-08 07:41:59.355,17,0,0,15.818,34.182586,-118.129104,0.00,0.00,0.00,1.00,-0.70,156.00,0,1,0,75,100,-7718,2744,15818,3051.50,1,WP,1,0,0,0,0,0,0,1654699319354,4066,4063,4061,4058,0,0,27,,,,,,,0,0,0,-10.00,-7.00,1560.00,0.00,0.00,1457.00,14,18.00,0.00,2.07,0.00,0.00,0.00,0,,,100,100,0,2,0,0,0,1,0,,,,,0.0,0.0,0.0,0.0,0.0,0.0,0
34.182584,-118.129104,1.80,1.90,0.00,0.21,1.80,1.80,0.50,0.23,3862,2022-06-08 14:41:59.404,2022-06-08 07:41:59.404,17,0,0,15.818,34.182586,-118.129104,0.00,0.00,0.00,1.10,-0.70,155.80,0,1,0,75,100,-7718,2744,15818,3051.50,1,WP,1,0,0,0,0,0,0,1654699319404,4066,4063,4061,4058,0,0,27,,,,,,,0,0,0,-11.00,-7.00,1558.00,0.00,0.00,1449.00,14,18.00,0.00,2.06,0.00,0.00,0.00,0,,,100,100,0,2,0,0,0,1,0,,,,,0.0,0.0,0.0,0.0,0.0,0.0,0
34.182584,-118.129104,1.90,1.90,0.00,0.21,1.90,1.90,0.50,0.23,3963,2022-06-08 14:41:59.505,2022-06-08 07:41:59.505,17,0,0,15.818,34.182586,-118.129104,0.00,0.00,0.00,1.20,-0.70,155.10,0,1,0,75,100,-7718,2744,15818,3051.50,1,WP,1,0,0,0,0,0,0,1654699319505,4066,4063,4061,4058,0,0,27,,,,,,,0,0,0,-12.00,-7.00,1551.00,0.00,0.00,1444.00,14,19.00,0.00,2.08,0.00,0.00,0.00,0,,,100,100,0,2,0,0,0,1,0,,,,,0.0,0.0,0.0,0.0,0.0,0.0,0
34.182584,-118.129104,1.90,2.00,0.00,0.22,1.90,1.90,0.50,0.23,4061,2022-06-08 14:41:59.604,2022-06-08 07:41:59.604,16,0,0,15.818,34.182586,-118.129104,0.00,0.00,0.00,1.30,-0.80,154.50,0,1,0,75,100,-7718,2744,15818,3051.50,1,WP,1,0,0,0,0,0,0,1654699319603,4066,4063,4061,4058,0,0,27,,,,,,,0,0,0,-13.00,-8.00,1545.00,0.00,0.00,1439.00,14,19.00,0.00,2.23,0.00,0.00,0.00,0,,,100,100,0,2,0,0,0,1,0,,,,,0.0,0.0,0.0,0.0,0.0,0.0,0
34.182584,-118.129104,1.90,2.00,0.00,0.23,1.90,1.90,0.50,0.23,4205,2022-06-08 14:41:59.748,2022-06-08 07:41:59.748,16,0,0,15.818,34.182586,-118.129104,0.00,0.00,0.00,-0.30,-0.80,154.50,0,1,0,75,100,-7718,2744,15818,3051.50,1,WP,1,0,0,0,0,0,0,1654699319747,4066,4063,4061,4058,0,0,27,,,,,,,0,0,0,3.00,-8.00,1545.00,0.00,0.00,1434.00,14,19.00,0.00,2.26,0.00,0.00,0.00,0,,,100,100,0,2,0,0,0,1,0,,,,,0.0,0.0,0.0,0.0,0.0,0.0,0
34.182584,-118.129104,1.90,2.00,0.00,0.24,1.90,1.90,0.50,0.24,4306,2022-06-08 14:41:59.848,2022-06-08 07:41:59.848,16,0,0,15.818,34.182586,-118.129104,0.00,0.00,0.00,-3.10,-1.00,154.50,0,1,0,75,100,-7718,2744,15818,3051.50,1,WP,1,0,0,0,0,0,0,1654699319848,4066,4063,4061,4058,0,0,27,,,,,,,0,0,0,31.00,-10.00,1545.00,0.00,0.00,1429.00,14,19.00,0.00,2.36,0.00,0.00,0.00,0,,,100,100,0,2,0,0,0,1,0,,,,,0.0,0.0,0.0,0.0,0.0,0.0,0
34.182584,-118.129104,1.90,2.00,0.10,0.25,1.90,1.90,0.50,0.25,4407,2022-06-08 14:41:59.949,2022-06-08 07:41:59.949,16,0,0,15.818,34.182586,-118.129104,-0.10,0.00,0.00,-5.80,-1.00,154.50,0,1,0,75,100,-7718,2744,15818,3051.50,1,WP,1,0,0,0,0,0,0,1654699319949,4066,4063,4061,4058,0,0,27,,,,,,,0,0,0,58.00,-10.00,1545.00,0.00,0.00,1426.00,14,19.00,1.00,2.46,-1.00,0.00,0.00,0,,,100,100,0,2,0,0,0,1,0,,,,,0.0,0.0,0.0,0.0,0.0,0.0,0
34.182584,-118.129104,1.90,2.00,0.22,0.27,1.90,1.90,0.50,0.27,4506,2022-06-08 14:42:00.048,2022-06-08 07:42:00.049,16,0,0,15.818,34.182586,-118.129104,-0.20,0.10,0.00,-7.80,-1.10,154.60,0,1,0,75,100,-7718,2744,15818,3051.50,1,WP,1,0,0,0,0,0,0,1654699320048,4066,4063,4061,4058,0,0,27,,,,,,,0,0,0,78.00,-11.00,1546.00,0.00,0.00,1424.00,14,19.00,2.24,2.72,-2.00,1.00,0.00,0,,,100,100,0,2,0,0,0,1,0,,,,,0.0,0.0,0.0,0.0,0.0,0.0,0
34.182584,-118.129104,1.90,2.00,0.32,0.30,1.90,1.90,0.50,0.30,4607,2022-06-08 14:42:00.150,2022-06-08 07:42:00.150,16,0,0,15.818,34.182586,-118.129104,-0.30,0.10,0.00,-9.10,-1.20,154.60,0,1,0,75,100,-7718,2744,15818,3051.50,1,WP,1,0,0,0,0,0,0,1654699320149,4066,4063,4061,4058,0,0,27,,,,,,,0,0,0,91.00,-12.00,1546.00,0.00,0.00,1422.00,14,19.00,3.16,3.03,-3.00,1.00,0.00,0,,,100,100,0,2,0,0,0,1,0,,,,,0.0,0.0,0.0,0.0,0.0,0.0,0
34.182583,-118.129104,1.90,2.00,0.54,0.36,1.90,1.90,0.54,0.36,4705,2022-06-08 14:42:00.248,2022-06-08 07:42:00.248,16,0,0,15.818,34.182586,-118.129104,-0.50,0.20,0.00,-9.90,-1.30,154.60,0,1,0,75,100,-7718,2744,15818,3051.50,1,WP,1,0,0,0,0,0,0,1654699320247,4066,4063,4061,4058,0,0,27,,,,,,,0,0,0,99.00,-13.00,1546.00,0.00,0.00,1420.00,14,19.00,5.39,3.59,-5.00,2.00,0.00,0,,,100,100,0,2,0,0,0,1,0,,,,,0.0,0.0,0.0,0.0,0.0,0.0,0
34.182582,-118.129104,1.90,2.00,0.67,0.42,1.90,1.90,0.67,0.42,4805,2022-06-08 14:42:00.348,2022-06-08 07:42:00.348,16,0,0,15.818,34.182586,-118.129104,-0.60,0.30,0.00,-10.30,-1.30,154.60,0,1,0,75,100,-7718,2744,15818,3051.50,1,WP,1,0,0,0,0,0,0,1654699320347,4066,4063,4061,4058,0,0,27,,,,,,,0,0,0,103.00,-13.00,1546.00,0.00,0.00,1419.00,14,19.00,6.71,4.23,-6.00,3.00,0.00,0,,,100,100,0,2,0,0,0,1,0,,,,,0.0,0.0,0.0,0.0,0.0,0.0,0
34.182582,-118.129103,1.90,2.00,0.89,0.50,1.90,1.90,0.89,0.50,4906,2022-06-08 14:42:00.448,2022-06-08 07:42:00.448,16,0,0,15.818,34.182586,-118.129104,-0.80,0.40,0.00,-10.10,-1.40,154.60,0,1,0,75,100,-7718,2744,15818,3051.50,1,WP,1,0,0,0,0,0,0,1654699320448,4066,4063,4061,4058,0,0,27,,,,,,,0,0,0,101.00,-14.00,1546.00,0.00,0.00,1418.00,14,19.00,8.94,4.97,-8.00,4.00,0.00,0,,,100,100,0,2,0,0,0,1,0,,,,,0.0,0.0,0.0,0.0,0.0,0.0,0
34.182581,-118.129103,1.90,2.00,1.12,0.60,1.90,1.90,1.12,0.60,5005,2022-06-08 14:42:00.548,2022-06-08 07:42:00.548,16,0,0,15.818,34.182586,-118.129104,-1.00,0.50,0.00,-7.70,-1.40,154.60,0,1,0,75,100,-7718,2744,15818,3051.50,1,WP,1,0,0,0,0,0,0,1654699320547,4066,4063,4061,4058,0,0,27,,,,,,,0,0,0,77.00,-14.00,1546.00,0.00,0.00,1417.00,14,19.00,11.18,5.98,-10.00,5.00,0.00,0,,,100,100,0,2,0,0,0,1,0,,,,,0.0,0.0,0.0,0.0,0.0,0.0,0
34.182580,-118.129103,1.90,2.00,1.21,0.73,1.90,1.90,1.21,0.73,5105,2022-06-08 14:42:00.648,2022-06-08 07:42:00.648,16,0,0,15.800,34.182586,-118.129104,-1.10,0.50,0.00,-4.70,-1.30,154.50,0,1,0,75,100,-7470,2740,15800,3051.50,1,WP,1,0,0,0,0,0,0,1654699320647,4066,4063,4061,4058,0,0,27,,,,,,,0,0,0,47.00,-13.00,1545.00,0.00,0.00,1417.00,14,19.00,12.08,7.33,-11.00,5.00,0.00,0,,,100,100,0,2,0,0,0,1,0,,,,,0.0,0.0,0.0,0.0,0.0,0.0,0
34.182579,-118.129102,1.90,2.00,1.25,0.86,1.90,1.90,1.25,0.86,5156,2022-06-08 14:42:00.698,2022-06-08 07:42:00.698,16,0,0,15.800,34.182586,-118.129104,-1.10,0.60,0.00,-2.10,-1.90,154.50,0,1,0,75,100,-7470,2740,15800,3051.50,1,WP,1,0,0,0,0,0,0,1654699320698,4066,4063,4061,4058,0,0,27,,,,,,,0,0,0,21.00,-19.00,1545.00,0.00,0.00,1416.00,14,19.00,12.53,8.59,-11.00,6.00,0.00,0,,,100,100,0,2,0,0,0,1,0,,,,,0.0,0.0,0.0,0.0,0.0,0.0,0
34.182577,-118.129102,1.90,2.00,1.34,1.00,1.90,1.90,1.34,1.00,5259,2022-06-08 14:42:00.801,2022-06-08 07:42:00.801,16,0,0,15.800,34.182586,-118.129104,-1.20,0.60,0.00,-0.20,-2.00,154.50,0,1,0,75,100,-7470,2740,15800,3051.50,1,WP,1,0,0,0,0,0,0,1654699320801,4066,4063,4061,4058,0,0,27,,,,,,,0,0,0,2.00,-20.00,1545.00,0.00,0.00,1415.00,14,19.00,13.42,10.05,-12.00,6.00,0.00,0,,,100,100,0,2,0,0,0,1,0,,,,,0.0,0.0,0.0,0.0,0.0,0.0,0
34.182576,-118.129101,1.90,2.00,1.34,1.14,1.90,1.90,1.34,1.14,5359,2022-06-08 14:42:00.901,2022-06-08 07:42:00.901,16,0,0,15.800,34.182586,-118.129104,-1.20,0.60,0.00,0.90,-2.80,154.40,0,1,0,75,100,-7470,2740,15800,3051.50,1,WP,1,0,0,0,0,0,0,1654699320901,4066,4063,4061,4058,0,0,27,,,,,,,0,0,0,-9.00,-28.00,1544.00,0.00,0.00,1415.00,14,19.00,13.42,11.39,-12.00,6.00,0.00,0,,,100,100,0,2,0,0,0,1,0,,,,,0.0,0.0,0.0,0.0,0.0,0.0,0
34.182575,-118.129101,1.90,2.00,1.34,1.27,1.90,1.90,1.34,1.27,5462,2022-06-08 14:42:01.004,2022-06-08 07:42:01.005,16,0,0,15.800,34.182586,-118.129104,-1.20,0.60,0.00,1.90,-2.80,154.40,0,1,0,75,100,-7470,2740,15800,3051.50,1,WP,1,0,0,0,0,0,0,1654699321004,4066,4063,4061,4058,0,0,27,,,,,,,0,0,0,-19.00,-28.00,1544.00,0.00,0.00,1415.00,14,19.00,13.42,12.68,-12.00,6.00,0.00,0,,,100,100,0,2,0,0,0,1,0,,,,,0.0,0.0,0.0,0.0,0.0,0.0,0
34.182574,-118.129101,1.90,2.00,1.30,1.40,1.90,1.90,1.34,1.40,5559,2022-06-08 14:42:01.102,2022-06-08 07:42:01.102,16,0,0,15.800,34.182586,-118.129104,-1.10,0.70,0.00,2.30,-3.50,154.30,0,1,0,75,100,-7470,2740,15800,3051.50,1,WP,1,0,0,0,0,0,0,1654699321101,4066,4063,4061,4058,0,0,27,,,,,,,0,0,0,-23.00,-35.00,1543.00,0.00,0.00,1414.00,14,19.00,13.04,13.98,-11.00,7.00,0.00,0,,,100,100,0,2,0,0,0,1,0,,,,,0.0,0.0,0.0,0.0,0.0,0.0,0
34.182573,-118.129101,1.90,2.00,1.30,1.55,1.90,1.90,1.34,1.55,5657,2022-06-08 14:42:01.199,2022-06-08 07:42:01.199,16,0,0,15.800,34.182586,-118.129104,-1.10,0.70,0.00,3.00,-3.40,154.40,0,1,0,75,100,-7470,2740,15800,3051.50,1,WP,1,0,0,0,0,0,0,1654699321199,4066,4063,4061,4058,0,0,27,,,,,,,0,0,0,-30.00,-34.00,1544.00,0.00,0.00,1414.00,14,19.00,13.04,15.53,-11.00,7.00,0.00,0,,,100,100,0,2,0,0,0,1,0,,,,,0.0,0.0,0.0,0.0,0.0,0.0,0
34.182571,-118.129100,1.90,2.00,1.22,1.68,1.90,1.90,1.34,1.68,5759,2022-06-08 14:42:01.301,2022-06-08 07:42:01.301,16,0,0,15.800,34.182586,-118.129104,-1.00,0.70,0.00,3.90,-3.90,154.30,0,1,0,75,100,-7470,2740,15800,3051.50,1,WP,1,0,0,0,0,0,0,1654699321301,4066,4063,4061,4058,0,0,27,,,,,,,0,0,0,-39.00,-39.00,1543.00,0.00,0.00,1413.00,14,19.00,12.21,16.77,-10.00,7.00,0.00,0,,,100,100,0,2,0,0,0,1,0,,,,,0.0,0.0,0.0,0.0,0.0,0.0,0
34.182570,-118.129100,1.90,2.00,1.22,1.82,1.90,1.90,1.34,1.82,5857,2022-06-08 14:42:01.400,2022-06-08 07:42:01.400,16,0,0,15.800,34.182586,-118.129104,-1.00,0.70,0.00,4.50,-3.60,154.40,0,1,0,75,100,-7470,2740,15800,3051.50,1,WP,1,0,0,0,0,0,0,1654699321399,4066,4063,4061,4058,0,0,27,,,,,,,0,0,0,-45.00,-36.00,1544.00,0.00,0.00,1413.00,14,19.00,12.21,18.22,-10.00,7.00,0.00,0,,,100,100,0,2,0,0,0,1,0,,,,,0.0,0.0,0.0,0.0,0.0,0.0,0
34.182569,-118.129099,1.90,2.00,1.14,1.93,1.90,1.90,1.34,1.93,5958,2022-06-08 14:42:01.500,2022-06-08 07:42:01.501,16,0,0,15.800,34.182586,-118.129104,-0.90,0.70,0.00,4.80,-3.50,154.30,0,1,0,75,100,-7470,2740,15800,3051.50,1,WP,1,0,0,0,0,0,0,1654699321500,4066,4063,4061,4058,0,0,27,,,,,,,0,0,0,-48.00,-35.00,1543.00,0.00,0.00,1413.00,14,19.00,11.40,19.35,-9.00,7.00,0.00,0,,,100,100,0,2,0,0,0,1,0,,,,,0.0,0.0,0.0,0.0,0.0,0.0,0
34.182568,-118.129099,1.90,2.00,1.06,2.05,1.90,1.90,1.34,2.05,6058,2022-06-08 14:42:01.601,2022-06-08 07:42:01.601,16,0,0,15.800,34.182586,-118.129104,-0.80,0.70,0.00,4.80,-2.80,154.40,0,1,0,75,100,-7470,2740,15800,3051.50,1,WP,1,0,0,0,0,0,0,1654699321600,4066,4063,4061,4058,0,0,27,,,,,,,0,0,0,-48.00,-28.00,1544.00,0.00,0.00,1413.00,14,19.00,10.63,20.55,-8.00,7.00,0.00,0,,,100,100,0,2,0,0,0,1,0,,,,,0.0,0.0,0.0,0.0,0.0,0.0,0
34.182567,-118.129098,1.90,2.00,0.99,2.15,1.90,1.90,1.34,2.15,6156,2022-06-08 14:42:01.699,2022-06-08 07:42:01.699,16,0,0,15.800,34.182586,-118.129104,-0.70,0.70,0.00,4.70,-2.30,154.40,0,1,0,75,100,-7470,2740,15800,3051.50,1,WP,1,0,0,0,0,0,0,1654699321698,4066,4063,4061,4058,0,0,27,,,,,,,0,0,0,-47.00,-23.00,1544.00,0.00,0.00,1412.00,14,19.00,9.90,21.53,-7.00,7.00,0.00,0,,,100,100,0,2,0,0,0,1,0,,,,,0.0,0.0,0.0,0.0,0.0,0.0,0
34.182567,-118.129097,1.90,2.10,0.92,2.26,1.90,1.90,1.34,2.26,6257,2022-06-08 14:42:01.799,2022-06-08 07:42:01.800,15,0,0,15.800,34.182586,-118.129104,-0.60,0.70,0.00,4.40,-1.70,154.50,0,1,0,75,100,-7470,2740,15800,3051.50,1,WP,1,0,0,0,0,0,0,1654699321799,4066,4063,4061,4058,0,0,27,,,,,,,0,0,0,-44.00,-17.00,1545.00,0.00,0.00,1412.00,14,19.00,9.22,22.64,-6.00,7.00,0.00,0,,,100,100,0,2,0,0,0,1,0,,,,,0.0,0.0,0.0,0.0,0.0,0.0,0
34.182566,-118.129097,1.90,2.10,0.92,2.35,1.90,1.90,1.34,2.35,6356,2022-06-08 14:42:01.899,2022-06-08 07:42:01.899,15,0,0,15.800,34.182586,-118.129104,-0.60,0.70,0.00,4.30,-1.30,154.50,0,1,0,75,100,-7470,2740,15800,3051.50,1,WP,1,0,0,0,0,0,0,1654699321898,4066,4063,4061,4058,0,0,27,,,,,,,0,0,0,-43.00,-13.00,1545.00,0.00,0.00,1412.00,14,19.00,9.22,23.51,-6.00,7.00,0.00,0,,,100,100,0,2,0,0,0,1,0,,,,,0.0,0.0,0.0,0.0,0.0,0.0,0
34.182565,-118.129096,1.90,2.10,0.86,2.46,1.90,1.90,1.34,2.46,6458,2022-06-08 14:42:02.000,2022-06-08 07:42:02.001,16,0,0,15.800,34.182586,-118.129104,-0.50,0.70,0.00,4.30,-0.80,154.50,0,1,0,75,100,-7470,2740,15800,3051.50,1,WP,1,0,0,0,0,0,0,1654699322000,4066,4063,4061,4058,0,0,27,,,,,,,0,0,0,-43.00,-8.00,1545.00,0.00,0.00,1412.00,14,19.00,8.60,24.58,-5.00,7.00,0.00,0,,,100,100,0,2,0,0,0,1,0,,,,,0.0,0.0,0.0,0.0,0.0,0.0,0
34.182564,-118.129095,1.90,2.10,0.81,2.54,1.90,1.90,1.34,2.54,6557,2022-06-08 14:42:02.099,2022-06-08 07:42:02.099,16,0,0,15.800,34.182586,-118.129104,-0.40,0.70,0.00,4.90,-0.20,154.50,0,1,0,75,100,-7470,2740,15800,3051.50,1,WP,1,0,0,0,0,0,0,1654699322099,4066,4063,4061,4058,0,0,27,,,,,,,0,0,0,-49.00,-2.00,1545.00,0.00,0.00,1412.00,14,19.00,8.06,25.36,-4.00,7.00,0.00,0,,,100,100,0,2,0,0,0,1,0,,,,,0.0,0.0,0.0,0.0,0.0,0.0,0
34.182564,-118.129095,1.90,2.10,0.72,2.60,1.90,1.90,1.34,2.60,6656,2022-06-08 14:42:02.199,2022-06-08 07:42:02.199,15,0,0,15.800,34.182586,-118.129104,-0.40,0.60,0.00,5.40,0.00,154.50,0,1,0,75,100,-7470,2740,15800,3051.50,1,WP,1,0,0,0,0,0,0,1654699322198,4066,4063,4061,4058,0,0,27,,,,,,,0,0,0,-54.00,0.00,1545.00,0.00,0.00,1412.00,14,19.00,7.21,26.05,-4.00,6.00,0.00,0,,,100,100,0,2,0,0,0,1,0,,,,,0.0,0.0,0.0,0.0,0.0,0.0,0
34.182564,-118.129094,1.90,2.10,0.67,2.67,1.90,1.90,1.34,2.67,6758,2022-06-08 14:42:02.300,2022-06-08 07:42:02.300,15,0,0,15.800,34.182586,-118.129104,-0.30,0.60,0.00,5.70,0.30,154.50,0,1,0,75,100,-7470,2740,15800,3051.50,1,WP,1,0,0,0,0,0,0,1654699322300,4066,4063,4061,4058,0,0,27,,,,,,,0,0,0,-57.00,3.00,1545.00,0.00,0.00,1411.00,14,19.00,6.71,26.68,-3.00,6.00,0.00,0,,,100,100,0,2,0,0,0,1,0,,,,,0.0,0.0,0.0,0.0,0.0,0.0,0
34.182563,-118.129093,1.90,2.10,0.54,2.75,1.90,1.90,1.34,2.75,6858,2022-06-08 14:42:02.401,2022-06-08 07:42:02.401,15,0,0,15.800,34.182586,-118.129104,-0.20,0.50,0.00,5.90,0.40,154.50,0,1,0,75,100,-7470,2740,15800,3051.50,1,WP,1,0,0,0,0,0,0,1654699322400,4066,4063,4061,4058,0,0,27,,,,,,,0,0,0,-59.00,4.00,1545.00,0.00,0.00,1411.00,14,19.00,5.39,27.47,-2.00,5.00,0.00,0,,,100,100,0,2,0,0,0,1,0,,,,,0.0,0.0,0.0,0.0,0.0,0.0,0
34.182563,-118.129093,1.90,2.10,0.54,2.80,1.90,1.90,1.34,2.80,6959,2022-06-08 14:42:02.501,2022-06-08 07:42:02.501,15,0,0,15.800,34.182586,-118.129104,-0.20,0.50,0.00,6.10,1.10,154.50,0,1,0,75,100,-7470,2740,15800,3051.50,1,WP,1,0,0,0,0,0,0,1654699322501,4066,4063,4061,4058,0,0,27,,,,,,,0,0,0,-61.00,11.00,1545.00,0.00,0.00,1411.00,14,19.00,5.39,27.98,-2.00,5.00,0.00,0,,,100,100,0,2,0,0,0,1,0,,,,,0.0,0.0,0.0,0.0,0.0,0.0,0
34.182562,-118.129092,1.90,2.10,0.41,2.84,1.90,1.90,1.34,2.84,7059,2022-06-08 14:42:02.601,2022-06-08 07:42:02.601,16,0,0,15.774,34.182586,-118.129104,-0.10,0.40,0.00,5.70,1.10,154.50,0,1,0,75,100,-7636,2736,15774,3051.50,1,WP,1,0,0,0,0,0,0,1654699322601,4066,4063,4061,4058,0,0,27,,,,,,,0,0,0,-57.00,11.00,1545.00,0.00,0.00,1411.00,14,19.00,4.12,28.43,-1.00,4.00,0.00,0,,,100,100,0,2,0,0,0,1,0,,,,,0.0,0.0,0.0,0.0,0.0,0.0,0
34.182562,-118.129092,1.90,2.10,0.30,2.88,1.90,1.90,1.34,2.88,7157,2022-06-08 14:42:02.700,2022-06-08 07:42:02.700,16,0,0,15.774,34.182586,-118.129104,0.00,0.30,0.00,5.70,4.60,154.20,0,1,0,75,100,-7636,2736,15774,3051.50,1,WP,1,0,0,0,0,0,0,1654699322699,4066,4063,4061,4058,0,0,27,,,,,,,0,0,0,-57.00,46.00,1542.00,0.00,0.00,1411.00,14,19.00,3.00,28.77,0.00,3.00,0.00,0,,,100,100,0,2,0,0,0,1,0,,,,,0.0,0.0,0.0,0.0,0.0,0.0,0
34.182562,-118.129092,1.90,2.10,0.20,2.90,1.90,1.90,1.34,2.90,7260,2022-06-08 14:42:02.803,2022-06-08 07:42:02.803,16,0,0,15.774,34.182586,-118.129104,0.00,0.20,0.00,4.10,3.20,153.80,0,1,0,75,100,-7636,2736,15774,3051.50,1,WP,1,0,0,0,0,0,0,1654699322802,4066,4063,4061,4058,0,0,27,,,,,,,0,0,0,-41.00,32.00,1538.00,0.00,0.00,1411.00,14,19.00,2.00,28.97,0.00,2.00,0.00,0,,,100,100,0,2,0,0,0,1,0,,,,,0.0,0.0,0.0,0.0,0.0,0.0,0
34.182562,-118.129092,1.90,2.10,0.10,2.92,1.90,1.90,1.34,2.92,7407,2022-06-08 14:42:02.950,2022-06-08 07:42:02.950,16,0,0,15.774,34.182586,-118.129104,0.00,0.10,0.00,3.10,1.80,153.40,0,1,0,75,100,-7636,2736,15774,3051.50,1,WP,1,0,0,0,0,0,0,1654699322949,4066,4063,4061,4058,0,0,27,,,,,,,0,0,0,-31.00,18.00,1534.00,0.00,0.00,1410.00,14,19.00,1.00,29.18,0.00,1.00,0.00,0,,,100,100,0,2,0,0,0,1,0,,,,,0.0,0.0,0.0,0.0,0.0,0.0,0
34.182562,-118.129091,1.90,2.10,0.10,2.92,1.90,1.90,1.34,2.92,7460,2022-06-08 14:42:03.002,2022-06-08 07:42:03.002,16,0,0,15.774,34.182586,-118.129104,0.00,0.10,0.00,2.20,1.00,146.80,0,1,0,75,100,-7636,2736,15774,3051.50,1,WP,1,0,0,0,0,0,0,1654699323002,4066,4063,4061,4058,0,0,27,,,,,,,0,0,0,-22.00,10.00,1468.00,0.00,0.00,1409.00,14,19.00,1.00,29.15,0.00,1.00,0.00,0,,,100,100,0,2,0,0,0,1,0,,,,,0.0,0.0,0.0,0.0,0.0,0.0,0
34.182562,-118.129091,1.90,2.10,0.00,2.93,1.90,1.90,1.34,2.93,7558,2022-06-08 14:42:03.100,2022-06-08 07:42:03.101,16,0,0,15.774,34.182586,-118.129104,0.00,0.00,0.00,2.00,0.10,139.10,0,1,0,75,100,-7636,2736,15774,3051.50,1,WP,1,0,0,0,0,0,0,1654699323100,4066,4063,4061,4058,0,0,27,,,,,,,0,0,0,-20.00,1.00,1391.00,0.00,0.00,1385.00,14,19.00,0.00,29.29,0.00,0.00,0.00,0,,,100,100,0,2,0,0,0,1,0,,,,,0.0,0.0,0.0,0.0,0.0,0.0,0
34.182562,-118.129091,1.90,2.10,0.00,2.94,1.90,1.90,1.34,2.94,7657,2022-06-08 14:42:03.199,2022-06-08 07:42:03.199,16,0,0,15.774,34.182586,-118.129104,0.00,0.00,0.00,1.80,-0.30,131.40,0,1,0,75,100,-7636,2736,15774,3051.50,1,WP,1,0,0,0,0,0,0,1654699323199,4066,4063,4061,4058,0,0,27,,,,,,,0,0,0,-18.00,-3.00,1314.00,0.00,0.00,1310.00,14,19.00,0.00,29.40,0.00,0.00,0.00,0,,,100,100,0,2,0,0,0,1,0,,,,,0.0,0.0,0.0,0.0,0.0,0.0,0
34.182562,-118.129091,1.90,2.10,0.00,2.95,1.90,1.90,1.34,2.95,7807,2022-06-08 14:42:03.350,2022-06-08 07:42:03.350,16,0,0,15.774,34.182586,-118.129104,0.00,0.00,0.00,1.50,-0.40,123.80,0,1,0,75,100,-7636,2736,15774,3051.50,1,WP,1,0,0,0,0,0,0,1654699323349,4066,4063,4061,4058,0,0,27,,,,,,,0,0,0,-15.00,-4.00,1238.00,0.00,0.00,1223.00,14,19.00,0.00,29.51,0.00,0.00,0.00,0,,,100,100,0,2,0,0,0,1,0,,,,,0.0,0.0,0.0,0.0,0.0,0.0,0
34.182562,-118.129090,1.90,2.10,0.00,2.91,1.90,1.90,1.34,2.95,7906,2022-06-08 14:42:03.449,2022-06-08 07:42:03.449,17,0,0,15.774,34.182586,-118.129104,0.00,0.00,0.00,1.20,-0.40,116.30,0,1,0,75,100,-7636,2736,15774,3051.50,1,WP,1,0,0,0,0,0,0,1654699323448,4066,4063,4061,4058,0,0,27,,,,,,,0,0,0,-12.00,-4.00,1163.00,0.00,0.00,1138.00,14,19.00,0.00,29.14,0.00,0.00,0.00,0,,,100,100,0,2,0,0,0,1,0,,,,,0.0,0.0,0.0,0.0,0.0,0.0,0
34.182562,-118.129090,1.90,2.10,0.00,2.92,1.90,1.90,1.34,2.95,7959,2022-06-08 14:42:03.502,2022-06-08 07:42:03.502,17,0,0,15.774,34.182586,-118.129104,0.00,0.00,0.00,1.00,-0.50,108.70,0,1,0,75,100,-7636,2736,15774,3051.50,1,WP,1,0,0,0,0,0,0,1654699323501,4066,4063,4061,4058,0,0,27,,,,,,,0,0,0,-10.00,-5.00,1087.00,0.00,0.00,1057.00,14,19.00,0.00,29.20,0.00,0.00,0.00,0,,,100,100,0,2,0,0,0,1,0,,,,,0.0,0.0,0.0,0.0,0.0,0.0,0
34.182563,-118.129090,1.90,2.10,0.00,2.90,1.90,1.90,1.34,2.95,8106,2022-06-08 14:42:03.649,2022-06-08 07:42:03.649,17,0,0,15.774,34.182586,-118.129104,0.00,0.00,0.00,0.90,-0.70,101.10,0,1,0,75,100,-7636,2736,15774,3051.50,1,WP,1,0,0,0,0,0,0,1654699323648,4066,4063,4061,4058,0,0,27,,,,,,,0,0,0,-9.00,-7.00,1011.00,0.00,0.00,978.00,14,19.00,0.00,29.01,0.00,0.00,0.00,0,,,100,100,0,2,0,0,0,1,0,,,,,0.0,0.0,0.0,0.0,0.0,0.0,0
34.182563,-118.129090,1.90,2.10,0.00,2.91,1.90,1.90,1.34,2.95,8159,2022-06-08 14:42:03.701,2022-06-08 07:42:03.701,17,0,0,15.774,34.182586,-118.129104,0.00,0.00,0.00,0.80,-0.70,93.50,0,1,0,75,100,-7636,2736,15774,3051.50,1,WP,1,0,0,0,0,0,0,1654699323701,3948,3925,3908,3921,0,0,27,,,,,,,0,0,0,-8.00,-7.00,935.00,0.00,0.00,900.00,14,19.00,0.00,29.07,0.00,0.00,0.00,0,,,100,100,0,2,0,0,0,1,0,,,,,0.0,0.0,0.0,0.0,0.0,0.0,0
34.182563,-118.129090,1.90,2.10,0.00,2.91,1.90,1.90,1.34,2.95,8308,2022-06-08 14:42:03.851,2022-06-08 07:42:03.851,17,0,0,15.774,34.182586,-118.129104,0.00,0.00,0.00,0.70,-0.80,85.90,0,1,0,75,100,-7636,2736,15774,3051.50,1,WP,1,0,0,0,0,0,0,1654699323850,3948,3925,3908,3921,0,0,27,,,,,,,0,0,0,-7.00,-8.00,859.00,0.00,0.00,822.00,14,19.00,0.00,29.10,0.00,0.00,0.00,0,,,100,100,0,2,0,0,0,1,0,,,,,0.0,0.0,0.0,0.0,0.0,0.0,0
34.182563,-118.129090,1.90,2.10,0.00,2.92,1.90,1.90,1.34,2.95,8359,2022-06-08 14:42:03.901,2022-06-08 07:42:03.901,17,0,0,15.774,34.182586,-118.129104,0.00,0.00,0.00,0.60,-0.80,78.30,0,1,0,75,100,-7636,2736,15774,3051.50,1,WP,1,0,0,0,0,0,0,1654699323901,3948,3925,3908,3921,0,0,27,,,,,,,0,0,0,-6.00,-8.00,783.00,0.00,0.00,744.00,14,19.00,0.00,29.16,0.00,0.00,0.00,0,,,100,100,0,2,0,0,0,1,0,,,,,0.0,0.0,0.0,0.0,0.0,0.0,0
34.182563,-118.129090,1.90,2.10,0.00,2.89,1.90,1.90,1.34,2.95,8509,2022-06-08 14:42:04.051,2022-06-08 07:42:04.051,17,0,0,15.774,34.182586,-118.129104,0.00,0.00,0.00,0.50,-0.90,70.80,0,1,0,75,100,-7636,2736,15774,3051.50,1,WP,1,0,0,0,0,0,0,1654699324051,3948,3925,3908,3921,0,0,27,,,,,,,0,0,0,-5.00,-9.00,708.00,0.00,0.00,668.00,14,19.00,0.00,28.94,0.00,0.00,0.00,0,,,100,100,0,2,0,0,0,1,0,,,,,0.0,0.0,0.0,0.0,0.0,0.0,0
34.182563,-118.129090,1.90,2.10,0.00,2.90,1.90,1.90,1.34,2.95,8608,2022-06-08 14:42:04.151,2022-06-08 07:42:04.151,17,0,0,15.774,34.182586,-118.129104,0.00,0.00,0.00,0.40,-0.90,63.30,0,1,0,75,100,-7636,2736,15774,3051.50,1,WP,1,0,0,0,0,0,0,1654699324150,3948,3925,3908,3921,0,0,27,,,,,,,0,0,0,-4.00,-9.00,633.00,0.00,0.00,591.00,14,19.00,0.00,28.99,0.00,0.00,0.00,0,,,100,100,0,2,0,0,0,1,0,,,,,0.0,0.0,0.0,0.0,0.0,0.0,0
34.182563,-118.129090,1.90,2.10,0.00,2.87,1.90,1.90,1.34,2.95,8708,2022-06-08 14:42:04.250,2022-06-08 07:42:04.250,17,0,0,15.774,34.182586,-118.129104,0.00,0.00,0.00,0.40,-0.90,55.80,0,1,0,75,100,-7636,2736,15774,3051.50,1,WP,1,0,0,0,0,0,0,1654699324250,3948,3925,3908,3921,0,0,27,,,,,,,0,0,0,-4.00,-9.00,558.00,0.00,0.00,515.00,14,19.00,0.00,28.66,0.00,0.00,0.00,0,,,100,100,0,2,0,0,0,1,0,,,,,0.0,0.0,0.0,0.0,0.0,0.0,0
34.182563,-118.129090,1.90,2.10,0.00,2.87,1.90,1.90,1.34,2.95,8759,2022-06-08 14:42:04.301,2022-06-08 07:42:04.301,17,0,0,15.774,34.182586,-118.129104,0.00,0.00,0.00,0.40,-1.00,48.30,0,1,0,75,100,-7636,2736,15774,3051.50,1,WP,1,0,0,0,0,0,0,1654699324301,3948,3925,3908,3921,0,0,27,,,,,,,0,0,0,-4.00,-10.00,483.00,0.00,0.00,440.00,14,19.00,0.00,28.68,0.00,0.00,0.00,0,,,100,100,0,2,0,0,0,1,0,,,,,0.0,0.0,0.0,0.0,0.0,0.0,0
34.182564,-118.129090,1.90,2.10,0.00,2.83,1.90,1.90,1.34,2.95,8908,2022-06-08 14:42:04.450,2022-06-08 07:42:04.450,17,0,0,15.774,34.182586,-118.129104,0.00,0.00,0.00,0.30,-1.10,40.80,0,1,0,75,100,-7636,2736,15774,3051.50,1,WP,1,0,0,0,0,0,0,1654699324450,3948,3925,3908,3921,0,0,27,,,,,,,0,0,0,-3.00,-11.00,408.00,0.00,0.00,364.00,14,19.00,0.00,28.34,0.00,0.00,0.00,0,,,100,100,0,2,0,0,0,1,0,,,,,0.0,0.0,0.0,0.0,0.0,0.0,0
34.182564,-118.129090,1.90,2.10,0.00,2.83,1.90,1.90,1.34,2.95,9007,2022-06-08 14:42:04.550,2022-06-08 07:42:04.550,17,0,0,15.774,34.182586,-118.129104,0.00,0.00,0.00,0.20,-1.00,33.40,0,1,0,75,100,-7636,2736,15774,3051.50,1,WP,1,0,0,0,0,0,0,1654699324549,3948,3925,3908,3921,0,0,27,,,,,,,0,0,0,-2.00,-10.00,334.00,0.00,0.00,289.00,14,19.00,0.00,28.32,0.00,0.00,0.00,0,,,100,100,0,2,0,0,0,1,0,,,,,0.0,0.0,0.0,0.0,0.0,0.0,0
34.182564,-118.129090,1.90,2.10,0.00,2.79,1.90,1.90,1.34,2.95,9057,2022-06-08 14:42:04.600,2022-06-08 07:42:04.600,17,0,0,15.752,34.182586,-118.129104,0.00,0.00,0.00,0.30,-1.00,26.90,0,1,0,74,100,-7540,2731,15752,3051.50,1,WP,1,0,0,0,0,0,0,1654699324599,3948,3925,3908,3921,0,0,27,,,,,,,0,0,0,-3.00,-10.00,269.00,0.00,0.00,214.00,14,19.00,0.00,27.86,0.00,0.00,0.00,0,,,100,100,0,2,0,0,0,1,0,,,,,0.0,0.0,0.0,0.0,0.0,0.0,0
34.182564,-118.129090,1.90,2.10,0.00,2.78,1.90,1.90,1.34,2.95,9158,2022-06-08 14:42:04.701,2022-06-08 07:42:04.701,17,0,0,15.752,34.182586,-118.129104,0.00,0.00,0.00,0.30,-1.00,21.70,0,1,0,74,100,-7540,2731,15752,3051.50,1,WP,1,0,0,0,0,0,0,1654699324700,3948,3925,3908,3921,0,0,27,,,,,,,0,0,0,-3.00,-10.00,217.00,0.00,0.00,148.00,14,19.00,0.00,27.79,0.00,0.00,0.00,0,,,100,100,0,2,0,0,0,1,0,,,,,0.0,0.0,0.0,0.0,0.0,0.0,0
34.182564,-118.129090,1.90,2.10,0.00,2.75,1.90,1.90,1.34,2.95,9311,2022-06-08 14:42:04.853,2022-06-08 07:42:04.853,17,0,0,15.752,34.182586,-118.129104,0.00,0.00,0.00,0.40,-0.90,17.50,0,1,0,74,100,-7540,2731,15752,3051.50,1,WP,1,0,0,0,0,0,0,1654699324853,3948,3925,3908,3921,0,0,27,,,,,,,0,0,0,-4.00,-9.00,175.00,0.00,0.00,97.00,14,19.00,0.00,27.53,0.00,0.00,0.00,0,,,100,100,0,2,0,0,0,1,0,,,,,0.0,0.0,0.0,0.0,0.0,0.0,0
34.182564,-118.129090,1.90,2.10,0.00,2.74,1.90,1.90,1.34,2.95,9359,2022-06-08 14:42:04.902,2022-06-08 07:42:04.902,17,0,0,15.752,34.182586,-118.129104,0.00,0.00,0.00,0.40,-0.60,14.20,0,1,0,74,100,-7540,2731,15752,3051.50,1,WP,1,0,0,0,0,0,0,1654699324901,3948,3925,3908,3921,0,0,27,,,,,,,0,0,0,-4.00,-6.00,142.00,0.00,0.00,55.00,14,19.00,0.00,27.43,0.00,0.00,0.00,0,,,100,100,0,2,0,0,0,1,0,,,,,0.0,0.0,0.0,0.0,0.0,0.0,0
34.182564,-118.129091,1.90,2.10,0.00,2.71,1.90,1.90,1.34,2.95,9508,2022-06-08 14:42:05.051,2022-06-08 07:42:05.051,16,0,0,15.752,34.182586,-118.129104,0.00,0.00,0.00,0.40,-0.60,11.50,0,1,0,74,100,-7540,2731,15752,3051.50,1,WP,1,0,0,0,0,0,0,1654699325050,3948,3925,3908,3921,0,0,27,,,,,,,0,0,0,-4.00,-6.00,115.00,0.00,0.00,21.00,14,19.00,0.00,27.13,0.00,0.00,0.00,0,,,100,100,0,2,0,0,0,1,0,,,,,0.0,0.0,0.0,0.0,0.0,0.0,0
34.182564,-118.129091,1.90,2.10,0.00,2.70,1.90,1.90,1.34,2.95,9560,2022-06-08 14:42:05.102,2022-06-08 07:42:05.102,16,0,0,15.752,34.182586,-118.129104,0.00,0.00,0.00,0.20,-0.30,9.30,0,1,0,74,100,-7540,2731,15752,3051.50,1,WP,1,0,0,0,0,0,0,1654699325102,3948,3925,3908,3921,0,0,27,,,,,,,0,0,0,-2.00,-3.00,93.00,0.00,0.00,-6.00,14,19.00,0.00,27.00,0.00,0.00,0.00,0,,,100,100,0,2,0,0,0,1,0,,,,,0.0,0.0,0.0,0.0,0.0,0.0,0
34.182564,-118.129091,1.90,2.10,0.00,2.70,1.90,1.90,1.34,2.95,9707,2022-06-08 14:42:05.250,2022-06-08 07:42:05.250,17,0,0,15.752,34.182586,-118.129104,0.00,0.00,0.00,0.20,-0.10,7.50,0,1,0,74,100,-7540,2731,15752,3051.50,1,WP,1,0,0,0,0,0,0,1654699325249,3948,3925,3908,3921,0,0,27,,,,,,,0,0,0,-2.00,-1.00,75.00,0.00,0.00,-28.00,14,19.00,0.00,27.02,0.00,0.00,0.00,0,,,100,100,0,2,0,0,0,1,0,,,,,0.0,0.0,0.0,0.0,0.0,0.0,0
34.182564,-118.129091,1.90,2.10,0.00,2.69,1.90,1.90,1.34,2.95,9808,2022-06-08 14:42:05.350,2022-06-08 07:42:05.350,17,0,0,15.752,34.182586,-118.129104,0.00,0.00,0.00,0.10,0.00,6.10,0,1,0,74,100,-7540,2731,15752,3051.50,1,WP,1,0,0,0,0,0,0,1654699325350,3948,3925,3908,3921,0,0,27,,,,,,,0,0,0,-1.00,0.00,61.00,0.00,0.00,-46.00,14,19.00,0.00,26.89,0.00,0.00,0.00,0,,,100,100,0,2,0,0,0,1,0,,,,,0.0,0.0,0.0,0.0,0.0,0.0,0
34.182564,-118.129092,1.90,2.10,0.00,2.71,1.90,1.90,1.34,2.95,9859,2022-06-08 14:42:05.402,2022-06-08 07:42:05.402,17,0,0,15.752,34.182586,-118.129104,0.00,0.00,0.00,0.00,0.00,5.00,0,1,0,74,100,-7540,2731,15752,3051.50,1,WP,1,0,0,0,0,0,0,1654699325401,3948,3925,3908,3921,0,0,27,,,,,,,0,0,0,-0.00,0.00,50.00,0.00,0.00,-61.00,14,19.00,0.00,27.10,0.00,0.00,0.00,0,,,100,100,0,2,0,0,0,1,0,,,,,0.0,0.0,0.0,0.0,0.0,0.0,0
34.182564,-118.129092,1.90,2.10,0.00,2.70,1.90,1.90,1.34,2.95,9958,2022-06-08 14:42:05.501,2022-06-08 07:42:05.501,17,0,0,15.752,34.182586,-118.129104,0.00,0.00,0.00,-0.20,-1.20,4.60,0,1,0,74,100,-7540,2731,15752,3051.50,1,WP,1,0,0,0,0,0,0,1654699325500,3948,3925,3908,3921,0,0,27,,,,,,,0,0,0,2.00,-12.00,46.00,0.00,0.00,-73.00,14,19.00,0.00,27.00,0.00,0.00,0.00,0,,,100,100,0,2,0,0,0,1,0,,,,,0.0,0.0,0.0,0.0,0.0,0.0,0
34.182564,-118.129092,1.90,2.10,0.00,2.72,1.90,1.90,1.34,2.95,10071,2022-06-08 14:42:05.613,2022-06-08 07:42:05.613,17,0,0,15.752,34.182586,-118.129104,0.00,0.00,0.00,-0.20,-1.20,4.80,0,1,0,74,100,-7540,2731,15752,3051.50,1,WP,1,0,0,0,0,0,0,1654699325613,3948,3925,3908,3921,0,0,27,,,,,,,0,0,0,2.00,-12.00,48.00,0.00,0.00,-80.00,14,19.00,0.00,27.16,0.00,0.00,0.00,0,,,100,100,0,2,0,0,0,1,0,,,,,0.0,0.0,0.0,0.0,0.0,0.0,0
34.182564,-118.129092,1.90,2.10,0.00,2.70,1.90,1.90,1.34,2.95,10159,2022-06-08 14:42:05.701,2022-06-08 07:42:05.701,17,0,0,15.752,34.182586,-118.129104,0.00,0.00,0.00,0.00,-0.90,4.90,0,1,0,74,100,-7540,2731,15752,3051.50,1,WP,1,0,0,0,0,0,0,1654699325701,3948,3925,3908,3921,0,0,27,,,,,,,0,0,0,-0.00,-9.00,49.00,0.00,0.00,-82.00,14,19.00,0.00,27.05,0.00,0.00,0.00,0,,,100,100,0,2,0,0,0,1,0,,,,,0.0,0.0,0.0,0.0,0.0,0.0,0
34.182564,-118.129092,1.90,2.10,0.00,2.71,1.90,1.90,1.34,2.95,10259,2022-06-08 14:42:05.801,2022-06-08 07:42:05.801,16,0,0,15.752,34.182586,-118.129104,0.00,0.00,0.00,0.00,-0.70,5.00,0,1,0,74,100,-7540,2731,15752,3051.50,1,WP,1,0,0,0,0,0,0,1654699325801,3948,3925,3908,3921,0,0,27,,,,,,,0,0,0,-0.00,-7.00,50.00,0.00,0.00,-83.00,14,19.00,0.00,27.15,0.00,0.00,0.00,0,,,100,100,0,2,0,0,0,1,0,,,,,0.0,0.0,0.0,0.0,0.0,0.0,0
34.182564,-118.129092,1.90,2.10,0.00,2.70,1.90,1.90,1.34,2.95,10359,2022-06-08 14:42:05.901,2022-06-08 07:42:05.901,16,0,0,15.752,34.182586,-118.129104,0.00,0.00,0.00,0.00,-0.60,5.00,0,1,0,74,100,-7540,2731,15752,3051.50,1,WP,1,0,0,0,0,0,0,1654699325901,3948,3925,3908,3921,0,0,27,,,,,,,0,0,0,-0.00,-6.00,50.00,0.00,0.00,-84.00,14,19.00,0.00,27.03,0.00,0.00,0.00,0,,,100,100,0,2,0,0,0,1,0,,,,,0.0,0.0,0.0,0.0,0.0,0.0,0
34.182563,-118.129093,1.90,2.10,0.00,2.73,1.90,1.90,1.34,2.95,10459,2022-06-08 14:42:06.002,2022-06-08 07:42:06.002,16,0,0,15.752,34.182586,-118.129104,0.00,0.00,0.00,0.00,-0.60,5.00,0,1,0,74,100,-7540,2731,15752,3051.50,1,WP,1,0,0,0,0,0,0,1654699326001,3948,3925,3908,3921,0,0,27,,,,,,,0,0,0,-0.00,-6.00,50.00,0.00,0.00,-84.00,14,19.00,0.00,27.29,0.00,0.00,0.00,0,,,100,100,0,2,0,0,0,1,0,,,,,0.0,0.0,0.0,0.0,0.0,0.0,0
34.182564,-118.129093,1.90,2.10,0.00,2.72,1.90,1.90,1.34,2.95,10559,2022-06-08 14:42:06.102,2022-06-08 07:42:06.102,16,0,0,15.752,34.182586,-118.129104,0.00,0.00,0.00,-0.10,-0.70,5.00,0,1,0,74,100,-7540,2731,15752,3051.50,1,WP,1,0,0,0,0,0,0,1654699326101,3948,3925,3908,3921,0,0,27,,,,,,,0,0,0,1.00,-7.00,50.00,0.00,0.00,-84.00,14,19.00,0.00,27.20,0.00,0.00,0.00,0,,,100,100,0,2,0,0,0,1,0,,,,,0.0,0.0,0.0,0.0,0.0,0.0,0
34.182563,-118.129093,1.90,2.10,0.00,2.73,1.90,1.90,1.34,2.95,10660,2022-06-08 14:42:06.202,2022-06-08 07:42:06.202,16,0,0,15.752,34.182586,-118.129104,0.00,0.00,0.00,-0.20,-0.60,5.00,0,1,0,74,100,-7540,2731,15752,3051.50,1,WP,1,0,0,0,0,0,0,1654699326202,3948,3925,3908,3921,0,0,27,,,,,,,0,0,0,2.00,-6.00,50.00,0.00,0.00,-84.00,14,19.00,0.00,27.31,0.00,0.00,0.00,0,,,100,100,0,2,0,0,0,1,0,,,,,0.0,0.0,0.0,0.0,0.0,0.0,0
34.182563,-118.129093,1.90,2.10,0.00,2.72,1.90,1.90,1.34,2.95,10761,2022-06-08 14:42:06.304,2022-06-08 07:42:06.304,16,0,0,15.752,34.182586,-118.129104,0.00,0.00,0.00,-0.20,-0.40,5.00,0,1,0,74,100,-7540,2731,15752,3051.50,1,WP,1,0,0,0,0,0,0,1654699326303,3948,3925,3908,3921,0,0,27,,,,,,,0,0,0,2.00,-4.00,50.00,0.00,0.00,-84.00,14,19.00,0.00,27.22,0.00,0.00,0.00,0,,,100,100,0,2,0,0,0,1,0,,,,,0.0,0.0,0.0,0.0,0.0,0.0,0
34.182563,-118.129093,1.90,2.10,0.00,2.74,1.90,1.90,1.34,2.95,10862,2022-06-08 14:42:06.404,2022-06-08 07:42:06.404,16,0,0,15.752,34.182586,-118.129104,0.00,0.00,0.00,-0.20,-0.30,5.00,0,1,0,74,100,-7540,2731,15752,3051.50,1,WP,1,0,0,0,0,0,0,1654699326404,3948,3925,3908,3921,0,0,27,,,,,,,0,0,0,2.00,-3.00,50.00,0.00,0.00,-84.00,14,19.00,0.00,27.38,0.00,0.00,0.00,0,,,100,100,0,2,0,0,0,1,0,,,,,0.0,0.0,0.0,0.0,0.0,0.0,0
34.182563,-118.129093,1.90,2.10,0.00,2.73,1.90,1.90,1.34,2.95,10964,2022-06-08 14:42:06.506,2022-06-08 07:42:06.506,16,0,0,15.752,34.182586,-118.129104,0.00,0.00,0.00,-0.20,-0.20,5.10,0,1,0,74,100,-7540,2731,15752,3051.50,1,WP,1,0,0,0,0,0,0,1654699326506,3948,3925,3908,3921,0,0,27,,,,,,,0,0,0,2.00,-2.00,51.00,0.00,0.00,-84.00,14,19.00,0.00,27.31,0.00,0.00,0.00,0,,,100,100,0,2,0,0,0,1,0,,,,,0.0,0.0,0.0,0.0,0.0,0.0,0
34.182563,-118.129094,1.90,2.10,0.00,2.74,1.90,1.90,1.34,2.95,11108,2022-06-08 14:42:06.650,2022-06-08 07:42:06.650,16,0,0,15.736,34.182586,-118.129104,0.00,0.00,0.00,-0.10,-0.20,5.00,0,1,0,74,100,-7524,2727,15736,3051.50,1,WP,1,0,0,0,0,0,0,1654699326650,3948,3925,3908,3921,0,0,27,,,,,,,0,0,0,1.00,-2.00,50.00,0.00,0.00,-84.00,14,19.00,0.00,27.40,0.00,0.00,0.00,0,,,100,100,0,2,0,0,0,1,0,,,,,0.0,0.0,0.0,0.0,0.0,0.0,0
34.182563,-118.129094,1.90,2.10,0.00,2.73,1.90,1.90,1.34,2.95,11208,2022-06-08 14:42:06.750,2022-06-08 07:42:06.750,16,0,0,15.736,34.182586,-118.129104,0.00,0.00,0.00,-0.10,-0.30,5.00,0,1,0,74,100,-7524,2727,15736,3051.50,1,WP,1,0,0,0,0,0,0,1654699326750,3948,3925,3908,3921,0,0,27,,,,,,,0,0,0,1.00,-3.00,50.00,0.00,0.00,-85.00,14,19.00,0.00,27.33,0.00,0.00,0.00,0,,,100,100,0,2,0,0,0,1,0,,,,,0.0,0.0,0.0,0.0,0.0,0.0,0
34.182563,-118.129094,1.90,2.10,0.00,2.74,1.90,1.90,1.34,2.95,11259,2022-06-08 14:42:06.802,2022-06-08 07:42:06.802,16,0,0,15.736,34.182586,-118.129104,0.00,0.00,0.00,-0.10,-0.40,5.00,0,1,0,74,100,-7524,2727,15736,3051.50,1,WP,1,0,0,0,0,0,0,1654699326801,3948,3925,3908,3921,0,0,27,,,,,,,0,0,0,1.00,-4.00,50.00,0.00,0.00,-85.00,14,19.00,0.00,27.44,0.00,0.00,0.00,0,,,100,100,0,2,0,0,0,1,0,,,,,0.0,0.0,0.0,0.0,0.0,0.0,0
34.182563,-118.129094,1.90,2.10,0.00,2.74,1.90,1.90,1.34,2.95,11359,2022-06-08 14:42:06.902,2022-06-08 07:42:06.902,16,0,0,15.736,34.182586,-118.129104,0.00,0.00,0.00,-0.20,-0.60,4.90,0,1,0,74,100,-7524,2727,15736,3051.50,1,WP,1,0,0,0,0,0,0,1654699326901,3948,3925,3908,3921,0,0,27,,,,,,,0,0,0,2.00,-6.00,49.00,0.00,0.00,-85.00,14,19.00,0.00,27.38,0.00,0.00,0.00,0,,,100,100,0,2,0,0,0,1,0,,,,,0.0,0.0,0.0,0.0,0.0,0.0,0
34.182563,-118.129094,1.90,2.10,0.00,2.75,1.90,1.90,1.34,2.95,11508,2022-06-08 14:42:07.051,2022-06-08 07:42:07.051,17,0,0,15.736,34.182586,-118.129104,0.00,0.00,0.00,-0.20,-0.70,4.90,0,1,0,74,100,-7524,2727,15736,3051.50,1,WP,1,0,0,0,0,0,0,1654699327050,3948,3925,3908,3921,0,0,27,,,,,,,0,0,0,2.00,-7.00,49.00,0.00,0.00,-85.00,14,19.00,0.00,27.52,0.00,0.00,0.00,0,,,100,100,0,2,0,0,0,1,0,,,,,0.0,0.0,0.0,0.0,0.0,0.0,0
34.182563,-118.129094,1.90,2.10,0.00,2.75,1.90,1.90,1.34,2.95,11609,2022-06-08 14:42:07.151,2022-06-08 07:42:07.151,17,0,0,15.736,34.182586,-118.129104,0.00,0.00,0.00,-0.20,-0.70,4.90,0,1,0,74,100,-7524,2727,15736,3051.50,1,WP,1,0,0,0,0,0,0,1654699327151,3948,3925,3908,3921,0,0,27,,,,,,,0,0,0,2.00,-7.00,49.00,0.00,0.00,-85.00,14,19.00,0.00,27.47,0.00,0.00,0.00,0,,,100,100,0,2,0,0,0,1,0,,,,,0.0,0.0,0.0,0.0,0.0,0.0,0
34.182563,-118.129094,1.90,2.10,0.00,2.76,1.90,1.90,1.34,2.95,11658,2022-06-08 14:42:07.201,2022-06-08 07:42:07.201,17,0,0,15.736,34.182586,-118.129104,0.00,0.00,0.00,-0.10,-0.70,4.90,0,1,0,74,100,-7524,2727,15736,3051.50,1,WP,1,0,0,0,0,0,0,1654699327200,3948,3925,3908,3921,0,0,27,,,,,,,0,0,0,1.00,-7.00,49.00,0.00,0.00,-85.00,14,19.00,0.00,27.64,0.00,0.00,0.00,0,,,100,100,0,2,0,0,0,1,0,,,,,0.0,0.0,0.0,0.0,0.0,0.0,0
34.182563,-118.129094,1.90,2.10,0.00,2.76,1.90,1.90,1.34,2.95,11808,2022-06-08 14:42:07.351,2022-06-08 07:42:07.351,17,0,0,15.736,34.182586,-118.129104,0.00,0.00,0.00,0.00,-0.70,4.80,0,1,0,74,100,-7524,2727,15736,3051.50,1,WP,1,0,0,0,0,0,0,1654699327350,3948,3925,3908,3921,0,0,27,,,,,,,0,0,0,-0.00,-7.00,48.00,0.00,0.00,-85.00,14,19.00,0.00,27.60,0.00,0.00,0.00,0,,,100,100,0,2,0,0,0,1,0,,,,,0.0,0.0,0.0,0.0,0.0,0.0,0
34.182563,-118.129094,1.90,2.10,0.00,2.76,1.90,1.90,1.34,2.95,11908,2022-06-08 14:42:07.451,2022-06-08 07:42:07.451,17,0,0,15.736,34.182586,-118.129104,0.00,0.00,0.00,0.00,-0.70,4.90,0,1,0,74,100,-7524,2727,15736,3051.50,1,WP,1,0,0,0,0,0,0,1654699327450,3948,3925,3908,3921,0,0,27,,,,,,,0,0,0,-0.00,-7.00,49.00,0.00,0.00,-85.00,14,19.00,0.00,27.60,0.00,0.00,0.00,0,,,100,100,0,2,0,0,0,1,0,,,,,0.0,0.0,0.0,0.0,0.0,0.0,0
34.182563,-118.129094,1.90,2.10,0.00,2.76,1.90,1.90,1.34,2.95,12009,2022-06-08 14:42:07.551,2022-06-08 07:42:07.551,17,0,0,15.736,34.182586,-118.129104,0.00,0.00,0.00,0.00,-0.80,4.80,0,1,0,74,100,-7524,2727,15736,3051.50,1,WP,1,0,0,0,0,0,0,1654699327551,3948,3925,3908,3921,0,0,27,,,,,,,0,0,0,-0.00,-8.00,48.00,0.00,0.00,-85.00,14,19.00,0.00,27.57,0.00,0.00,0.00,0,,,100,100,0,2,0,0,0,1,0,,,,,0.0,0.0,0.0,0.0,0.0,0.0,0
34.182563,-118.129094,1.90,2.10,0.00,2.77,1.90,1.90,1.34,2.95,12108,2022-06-08 14:42:07.651,2022-06-08 07:42:07.651,17,0,0,15.736,34.182586,-118.129104,0.00,0.00,0.00,0.00,-0.70,4.90,0,1,0,74,100,-7524,2727,15736,3051.50,1,WP,1,0,0,0,0,0,0,1654699327650,3948,3925,3908,3921,0,0,27,,,,,,,0,0,0,-0.00,-7.00,49.00,0.00,0.00,-85.00,14,19.00,0.00,27.73,0.00,0.00,0.00,0,,,100,100,0,2,0,0,0,1,0,,,,,0.0,0.0,0.0,0.0,0.0,0.0,0
34.182563,-118.129094,1.90,2.10,0.00,2.77,1.90,1.90,1.34,2.95,12208,2022-06-08 14:42:07.751,2022-06-08 07:42:07.751,17,0,0,15.736,34.182586,-118.129104,0.00,0.00,0.00,0.00,-0.80,4.80,0,1,0,74,100,-7524,2727,15736,3051.50,1,WP,1,0,0,0,0,0,0,1654699327750,3948,3925,3908,3921,0,0,27,,,,,,,0,0,0,-0.00,-8.00,48.00,0.00,0.00,-85.00,14,19.00,0.00,27.72,0.00,0.00,0.00,0,,,100,100,0,2,0,0,0,1,0,,,,,0.0,0.0,0.0,0.0,0.0,0.0,0
34.182563,-118.129094,1.90,2.10,0.00,2.77,1.90,1.90,1.34,2.95,12260,2022-06-08 14:42:07.802,2022-06-08 07:42:07.802,17,0,0,15.736,34.182586,-118.129104,0.00,0.00,0.00,0.00,-0.80,4.80,0,1,0,74,100,-7524,2727,15736,3051.50,1,WP,1,0,0,0,0,0,0,1654699327802,3948,3925,3908,3921,0,0,27,,,,,,,0,0,0,-0.00,-8.00,48.00,0.00,0.00,-85.00,14,19.00,0.00,27.71,0.00,0.00,0.00,0,,,100,100,0,2,0,0,0,1,0,,,,,0.0,0.0,0.0,0.0,0.0,0.0,0
34.182563,-118.129094,1.90,2.10,0.00,2.77,1.90,1.90,1.34,2.95,12409,2022-06-08 14:42:07.952,2022-06-08 07:42:07.952,17,0,0,15.736,34.182586,-118.129104,0.00,0.00,0.00,0.00,-0.90,4.80,0,1,0,74,100,-7524,2727,15736,3051.50,1,WP,1,0,0,0,0,0,0,1654699327951,3948,3925,3908,3921,0,0,27,,,,,,,0,0,0,-0.00,-9.00,48.00,0.00,0.00,-85.00,14,19.00,0.00,27.69,0.00,0.00,0.00,0,,,100,100,0,2,0,0,0,1,0,,,,,0.0,0.0,0.0,0.0,0.0,0.0,0
34.182562,-118.129094,1.90,2.10,0.00,2.79,1.90,1.90,1.34,2.95,12508,2022-06-08 14:42:08.051,2022-06-08 07:42:08.051,17,0,0,15.736,34.182586,-118.129104,0.00,0.00,0.00,0.00,-0.90,4.80,0,1,0,74,100,-7524,2727,15736,3051.50,1,WP,1,0,0,0,0,0,0,1654699328050,3948,3925,3908,3921,0,0,27,,,,,,,0,0,0,-0.00,-9.00,48.00,0.00,0.00,-85.00,14,19.00,0.00,27.87,0.00,0.00,0.00,0,,,100,100,0,2,0,0,0,1,0,,,,,0.0,0.0,0.0,0.0,0.0,0.0,0
34.182562,-118.129094,1.90,2.10,0.00,2.79,1.90,1.90,1.34,2.95,12609,2022-06-08 14:42:08.151,2022-06-08 07:42:08.151,17,0,0,15.736,34.182586,-118.129104,0.00,0.00,0.00,0.00,-0.90,4.80,0,1,0,74,100,-7524,2727,15736,3051.50,1,WP,1,0,0,0,0,0,0,1654699328151,3948,3925,3908,3921,0,0,27,,,,,,,0,0,0,-0.00,-9.00,48.00,0.00,0.00,-85.00,14,19.00,0.00,27.88,0.00,0.00,0.00,0,,,100,100,0,2,0,0,0,1,0,,,,,0.0,0.0,0.0,0.0,0.0,0.0,0
34.182562,-118.129094,1.90,2.10,0.00,2.80,1.90,1.90,1.34,2.95,12708,2022-06-08 14:42:08.250,2022-06-08 07:42:08.250,17,0,0,15.736,34.182586,-118.129104,0.00,0.00,0.00,0.00,-0.90,4.80,0,1,0,74,100,-7524,2727,15736,3051.50,1,WP,1,0,0,0,0,0,0,1654699328250,3948,3925,3908,3921,0,0,27,,,,,,,0,0,0,-0.00,-9.00,48.00,0.00,0.00,-86.00,14,19.00,0.00,27.98,0.00,0.00,0.00,0,,,100,100,0,2,0,0,0,1,0,,,,,0.0,0.0,0.0,0.0,0.0,0.0,0
34.182562,-118.129094,1.90,2.10,0.00,2.80,1.90,1.90,1.34,2.95,12807,2022-06-08 14:42:08.349,2022-06-08 07:42:08.349,17,0,0,15.736,34.182586,-118.129104,0.00,0.00,0.00,0.00,-0.80,4.80,0,1,0,74,100,-7524,2727,15736,3051.50,1,WP,1,0,0,0,0,0,0,1654699328349,3948,3925,3908,3921,0,0,27,,,,,,,0,0,0,-0.00,-8.00,48.00,0.00,0.00,-86.00,14,19.00,0.00,27.99,0.00,0.00,0.00,0,,,100,100,0,2,0,0,0,1,0,,,,,0.0,0.0,0.0,0.0,0.0,0.0,0
34.182562,-118.129094,1.90,2.10,0.00,2.80,1.90,1.90,1.34,2.95,12909,2022-06-08 14:42:08.452,2022-06-08 07:42:08.452,17,0,0,15.736,34.182586,-118.129104,0.00,0.00,0.00,0.10,-0.80,4.80,0,1,0,74,100,-7524,2727,15736,3051.50,1,WP,1,0,0,0,0,0,0,1654699328451,3948,3925,3908,3921,0,0,27,,,,,,,0,0,0,-1.00,-8.00,48.00,0.00,0.00,-86.00,14,19.00,0.00,28.01,0.00,0.00,0.00,0,,,100,100,0,2,0,0,0,1,0,,,,,0.0,0.0,0.0,0.0,0.0,0.0,0
34.182562,-118.129094,1.90,2.10,0.00,2.80,1.90,1.90,1.34,2.95,13009,2022-06-08 14:42:08.551,2022-06-08 07:42:08.551,17,0,0,15.736,34.182586,-118.129104,0.00,0.00,0.00,0.10,-0.90,4.80,0,1,0,74,100,-7524,2727,15736,3051.50,1,WP,1,0,0,0,0,0,0,1654699328551,3948,3925,3908,3921,0,0,27,,,,,,,0,0,0,-1.00,-9.00,48.00,0.00,0.00,-86.00,14,19.00,0.00,28.03,0.00,0.00,0.00,0,,,100,100,0,2,0,0,0,1,0,,,,,0.0,0.0,0.0,0.0,0.0,0.0,0
34.182562,-118.129094,1.90,2.10,0.00,2.81,1.90,1.90,1.34,2.95,13109,2022-06-08 14:42:08.652,2022-06-08 07:42:08.652,17,0,0,15.720,34.182586,-118.129104,0.00,0.00,0.00,0.10,-1.00,4.80,0,1,0,74,100,-7547,2722,15720,3051.50,1,WP,1,0,0,0,0,0,0,1654699328651,3948,3925,3908,3921,0,0,27,,,,,,,0,0,0,-1.00,-10.00,48.00,0.00,0.00,-86.00,14,19.00,0.00,28.12,0.00,0.00,0.00,0,,,100,100,0,2,0,0,0,1,0,,,,,0.0,0.0,0.0,0.0,0.0,0.0,0
34.182562,-118.129094,1.90,2.10,0.00,2.82,1.90,1.90,1.34,2.95,13210,2022-06-08 14:42:08.752,2022-06-08 07:42:08.752,17,0,0,15.720,34.182586,-118.129104,0.00,0.00,0.00,0.10,-0.90,4.80,0,1,0,74,100,-7547,2722,15720,3051.50,1,WP,1,0,0,0,0,0,0,1654699328752,3948,3925,3908,3921,0,0,27,,,,,,,0,0,0,-1.00,-9.00,48.00,0.00,0.00,-86.00,14,19.00,0.00,28.15,0.00,0.00,0.00,0,,,100,100,0,2,0,0,0,1,0,,,,,0.0,0.0,0.0,0.0,0.0,0.0,0
34.182562,-118.129094,1.90,2.10,0.00,2.81,1.90,1.90,1.34,2.95,13310,2022-06-08 14:42:08.852,2022-06-08 07:42:08.852,17,0,0,15.720,34.182586,-118.129104,0.00,0.00,0.00,0.10,-0.90,4.80,0,1,0,74,100,-7547,2722,15720,3051.50,1,WP,1,0,0,0,0,0,0,1654699328852,3948,3925,3908,3921,0,0,27,,,,,,,0,0,0,-1.00,-9.00,48.00,0.00,0.00,-86.00,14,19.00,0.00,28.11,0.00,0.00,0.00,0,,,100,100,0,2,0,0,0,1,0,,,,,0.0,0.0,0.0,0.0,0.0,0.0,0
34.182562,-118.129094,1.90,2.10,0.00,2.81,1.90,1.90,1.34,2.95,13410,2022-06-08 14:42:08.953,2022-06-08 07:42:08.953,17,0,0,15.720,34.182586,-118.129104,0.00,0.00,0.00,0.10,-0.90,4.80,0,1,0,74,100,-7547,2722,15720,3051.50,1,WP,1,0,0,0,0,0,0,1654699328952,3948,3925,3908,3921,0,0,27,,,,,,,0,0,0,-1.00,-9.00,48.00,0.00,0.00,-86.00,14,19.00,0.00,28.14,0.00,0.00,0.00,0,,,100,100,0,2,0,0,0,1,0,,,,,0.0,0.0,0.0,0.0,0.0,0.0,0
34.182562,-118.129094,1.90,2.10,0.00,2.81,1.90,1.90,1.34,2.95,13510,2022-06-08 14:42:09.053,2022-06-08 07:42:09.053,17,0,0,15.720,34.182586,-118.129104,0.00,0.00,0.00,0.10,-0.90,4.80,0,1,0,74,100,-7547,2722,15720,3051.50,1,WP,1,0,0,0,0,0,0,1654699329052,3948,3925,3908,3921,0,0,27,,,,,,,0,0,0,-1.00,-9.00,48.00,0.00,0.00,-86.00,14,19.00,0.00,28.09,0.00,0.00,0.00,0,,,100,100,0,2,0,0,0,1,0,,,,,0.0,0.0,0.0,0.0,0.0,0.0,0
34.182562,-118.129094,1.90,2.10,0.00,2.81,1.90,1.90,1.34,2.95,13610,2022-06-08 14:42:09.152,2022-06-08 07:42:09.152,17,0,0,15.720,34.182586,-118.129104,0.00,0.00,0.00,0.10,-0.90,4.80,0,1,0,74,100,-7547,2722,15720,3051.50,1,WP,1,0,0,0,0,0,0,1654699329152,3948,3925,3908,3921,0,0,27,,,,,,,0,0,0,-1.00,-9.00,48.00,0.00,0.00,-86.00,14,19.00,0.00,28.12,0.00,0.00,0.00,0,,,100,100,0,2,0,0,0,1,0,,,,,0.0,0.0,0.0,0.0,0.0,0.0,0
34.182562,-118.129094,1.90,2.10,0.00,2.81,1.90,1.90,1.34,2.95,13711,2022-06-08 14:42:09.253,2022-06-08 07:42:09.253,17,0,0,15.720,34.182586,-118.129104,0.00,0.00,0.00,0.10,-0.90,4.80,0,1,0,74,100,-7547,2722,15720,3051.50,1,WP,1,0,0,0,0,0,0,1654699329253,3948,3925,3908,3921,0,0,27,,,,,,,0,0,0,-1.00,-9.00,48.00,0.00,0.00,-86.00,14,19.00,0.00,28.08,0.00,0.00,0.00,0,,,100,100,0,2,0,0,0,1,0,,,,,0.0,0.0,0.0,0.0,0.0,0.0,0
