latitude,longitude,altitude(m),ultrasonicHeight(m),speed(mps),distance(m),max_altitude(m),max_ascent(m),max_speed(mps),max_distance(m),time(millisecond),datetime(utc),datetime(local),satellites,pressure(Pa),temperature(F),voltage(v),home_latitude,home_longitude,velocityX(mps),velocityY(mps),velocityZ(mps),pitch(deg),roll(deg),yaw(deg),powerlevel,isflying,istakingphoto,remainPowerPercent,remainLifePercent,currentCurrent,currentElectricity,currentVoltage,batteryTemperature,dischargeCount,flightmode,isMotorsOn,isTakingVideo,Rc_elevator,Rc_aileron,Rc_throttle,Rc_rudder,Rc_gyro,timestamp,Battery_Cell1,Battery_Cell2,Battery_Cell3,Battery_Cell4,Battery_Cell5,Battery_Cell6,Dronetype,AppVersion,Planename,FlyControllerSerialNumber,RemoteSerialNumber,BatterySerialNumber,CENTER_BATTERY.productDate,CENTER_BATTERY.serialNo,CENTER_BATTERY.fullCapacity,CENTER_BATTERY.productDateRaw,pitchRaw,rollRaw,yawRaw,gimbalPitchRaw,gimbalRollRaw,gimbalYawRaw,flyState,altitudeRaw,speedRaw,distanceRaw,velocityXRaw,velocityYRaw,velocityZRaw,data_reuse,App_Tip,App_Warning,downlinkSignalQuality,uplinkSignalQuality,transmissionChannel,rcModeSwitch,rcHome,rcPause,rcTransform,rcJoystickMode,appMode,FlyControllerSerialNumber_legacy,RemoteSerialNumber_legacy,BatterySerialNumber_legacy,Battery2SerialNumber,frontAvoidDist,backAvoidDist,rightAvoidDist,leftAvoidDist,upAvoidDist,downAvoidDist,isBrakingToAvoid
34.182627,-118.129101,0.40,0.40,0.45,0.17,0.40,0.40,0.45,0.17,1,2022-06-05 23:29:49.896,2022-06-05 16:29:49.896,16,0,0,17.112,34.182626,-118.129101,0.20,0.00,-0.40,2.70,1.60,-1.30,0,1,0,100,100,-4742,3403,17112,3061.50,10,TakeOff,1,0,0,0,0,0,0,1654471789896,4343,4346,4343,4336,0,0,27,Litchi_iOS_2.14.0,Brian-MAVIC 2,163DFCK001S13F,1DUCFB800104PR,0P2AFBV5340045,,0,3403,0,-27.00,16.00,-13.00,0.00,0.00,0.00,11,4.00,4.47,1.65,2.00,0.00,-4.00,0,,,100,100,0,2,0,0,0,1,0,(null),(null),,,0.0,0.0,0.0,0.0,0.0,0.0,0
34.182628,-118.129101,0.40,0.40,0.41,0.18,0.40,0.40,0.45,0.18,100,2022-06-05 23:29:49.996,2022-06-05 16:29:49.996,16,0,0,17.112,34.182626,-118.129101,0.10,0.00,-0.40,3.10,1.00,-1.30,0,1,0,100,100,-4742,3403,17112,3061.50,10,TakeOff,1,0,0,0,0,0,0,1654471789995,4343,4346,4343,4336,0,0,27,,,,,,,0,0,0,-31.00,10.00,-13.00,0.00,0.00,0.00,11,4.00,4.12,1.82,1.00,0.00,-4.00,0,,,100,100,0,2,0,0,0,1,0,,,,,0.0,0.0,0.0,0.0,0.0,0.0,0
34.182627,-118.129101,0.50,0.50,0.51,0.17,0.50,0.50,0.51,0.18,200,2022-06-05 23:29:50.096,2022-06-05 16:29:50.096,16,0,0,17.112,34.182626,-118.129101,0.10,0.00,-0.50,3.40,1.20,-1.30,0,1,0,100,100,-4742,3403,17112,3061.50,10,TakeOff,1,0,0,0,0,0,0,1654471790095,4343,4346,4343,4336,0,0,27,,,,,,,0,0,0,-34.00,12.00,-13.00,0.00,0.00,0.00,11,5.00,5.10,1.70,1.00,0.00,-5.00,0,,,100,100,0,2,0,0,0,1,0,,,,,0.0,0.0,0.0,0.0,0.0,0.0,0
34.182627,-118.129101,0.50,0.50,0.51,0.18,0.50,0.50,0.51,0.18,300,2022-06-05 23:29:50.196,2022-06-05 16:29:50.196,16,0,0,17.112,34.182626,-118.129101,0.10,0.00,-0.50,3.20,0.80,-1.20,0,1,0,100,100,-4742,3403,17112,3061.50,10,TakeOff,1,0,0,0,0,0,0,1654471790195,4343,4346,4343,4336,0,0,27,,,,,,,0,0,0,-32.00,8.00,-12.00,0.00,0.00,0.00,11,5.00,5.10,1.81,1.00,0.00,-5.00,0,,,100,100,0,2,0,0,0,1,0,,,,,0.0,0.0,0.0,0.0,0.0,0.0,0
34.182628,-118.129102,0.60,0.60,0.51,0.23,0.60,0.60,0.51,0.23,399,2022-06-05 23:29:50.294,2022-06-05 16:29:50.294,16,0,0,16.935,34.182626,-118.129101,0.10,0.00,-0.50,3.20,0.90,-1.20,0,1,0,100,100,-7284,3401,16935,3061.50,10,TakeOff,1,0,0,0,0,0,0,1654471790294,4343,4346,4343,4336,0,0,27,,,,,,,0,0,0,-32.00,9.00,-12.00,0.00,0.00,0.00,11,6.00,5.10,2.30,1.00,0.00,-5.00,0,,,100,100,0,2,0,0,0,1,0,,,,,0.0,0.0,0.0,0.0,0.0,0.0,0
34.182628,-118.129102,0.60,0.60,0.51,0.24,0.60,0.60,0.51,0.24,501,2022-06-05 23:29:50.397,2022-06-05 16:29:50.397,16,0,0,16.935,34.182626,-118.129101,0.10,0.00,-0.50,3.10,0.50,-1.20,0,1,0,100,100,-7284,3401,16935,3061.50,10,TakeOff,1,0,0,0,0,0,0,1654471790396,4343,4346,4343,4336,0,0,27,,,,,,,0,0,0,-31.00,5.00,-12.00,0.00,0.00,0.00,11,6.00,5.10,2.42,1.00,0.00,-5.00,0,,,100,100,0,2,0,0,0,1,0,,,,,0.0,0.0,0.0,0.0,0.0,0.0,0
34.182628,-118.129102,0.70,0.70,0.51,0.25,0.70,0.70,0.51,0.25,601,2022-06-05 23:29:50.496,2022-06-05 16:29:50.496,16,0,0,16.935,34.182626,-118.129101,0.10,0.00,-0.50,3.50,0.30,-1.30,0,1,0,100,100,-7284,3401,16935,3061.50,10,TakeOff,1,0,0,0,0,0,0,1654471790496,4343,4346,4343,4336,0,0,27,,,,,,,0,0,0,-35.00,3.00,-13.00,0.00,0.00,0.00,11,7.00,5.10,2.51,1.00,0.00,-5.00,0,,,100,100,0,2,0,0,0,1,0,,,,,0.0,0.0,0.0,0.0,0.0,0.0,0
34.182628,-118.129102,0.70,0.70,0.41,0.26,0.70,0.70,0.51,0.26,700,2022-06-05 23:29:50.596,2022-06-05 16:29:50.596,15,0,0,16.935,34.182626,-118.129101,0.10,0.00,-0.40,3.70,0.90,-1.40,0,1,0,100,100,-7284,3401,16935,3061.50,10,TakeOff,1,0,0,0,0,0,0,1654471790595,4343,4346,4343,4336,0,0,27,,,,,,,0,0,0,-37.00,9.00,-14.00,0.00,0.00,0.00,11,7.00,4.12,2.61,1.00,0.00,-4.00,0,,,100,100,0,2,0,0,0,1,0,,,,,0.0,0.0,0.0,0.0,0.0,0.0,0
34.182628,-118.129102,0.70,0.80,0.41,0.26,0.70,0.70,0.51,0.26,801,2022-06-05 23:29:50.696,2022-06-05 16:29:50.696,15,0,0,16.935,34.182626,-118.129101,0.10,0.00,-0.40,3.50,0.90,-1.40,0,1,0,100,100,-7284,3401,16935,3061.50,10,TakeOff,1,0,0,0,0,0,0,1654471790696,4343,4346,4343,4336,0,0,27,,,,,,,0,0,0,-35.00,9.00,-14.00,0.00,0.00,0.00,11,7.00,4.12,2.55,1.00,0.00,-4.00,0,,,100,100,0,2,0,0,0,1,0,,,,,0.0,0.0,0.0,0.0,0.0,0.0,0
34.182628,-118.129102,0.80,0.80,0.40,0.26,0.80,0.80,0.51,0.26,900,2022-06-05 23:29:50.796,2022-06-05 16:29:50.796,16,0,0,16.935,34.182626,-118.129101,0.00,0.00,-0.40,3.40,0.90,-1.40,0,1,0,100,100,-7284,3401,16935,3061.50,10,TakeOff,1,0,0,0,0,0,0,1654471790795,4343,4346,4343,4336,0,0,27,,,,,,,0,0,0,-34.00,9.00,-14.00,0.00,0.00,0.00,11,8.00,4.00,2.61,0.00,0.00,-4.00,0,,,100,100,0,2,0,0,0,1,0,,,,,0.0,0.0,0.0,0.0,0.0,0.0,0
34.182628,-118.129102,0.80,0.90,0.40,0.27,0.80,0.80,0.51,0.27,1001,2022-06-05 23:29:50.896,2022-06-05 16:29:50.896,16,0,0,16.935,34.182626,-118.129101,0.00,0.00,-0.40,3.20,1.00,-1.50,0,1,0,100,100,-7284,3401,16935,3061.50,10,TakeOff,1,0,0,0,0,0,0,1654471790896,4343,4346,4343,4336,0,0,27,,,,,,,0,0,0,-32.00,10.00,-15.00,0.00,0.00,0.00,11,8.00,4.00,2.73,0.00,0.00,-4.00,0,,,100,100,0,2,0,0,0,1,0,,,,,0.0,0.0,0.0,0.0,0.0,0.0,0
34.182628,-118.129102,0.90,0.90,0.40,0.28,0.90,0.90,0.51,0.28,1100,2022-06-05 23:29:50.996,2022-06-05 16:29:50.996,16,0,0,16.935,34.182626,-118.129101,0.00,0.00,-0.40,3.30,1.30,-1.50,0,1,0,100,100,-7284,3401,16935,3061.50,10,TakeOff,1,0,0,0,0,0,0,1654471790995,4343,4346,4343,4336,0,0,27,,,,,,,0,0,0,-33.00,13.00,-15.00,0.00,0.00,0.00,11,9.00,4.00,2.79,0.00,0.00,-4.00,0,,,100,100,0,2,0,0,0,1,0,,,,,0.0,0.0,0.0,0.0,0.0,0.0,0
34.182628,-118.129102,0.90,1.00,0.40,0.29,0.90,0.90,0.51,0.29,1201,2022-06-05 23:29:51.096,2022-06-05 16:29:51.096,16,0,0,16.935,34.182626,-118.129101,0.00,0.00,-0.40,3.30,1.60,-1.40,0,1,0,100,100,-7284,3401,16935,3061.50,10,TakeOff,1,0,0,0,0,0,0,1654471791096,4343,4346,4343,4336,0,0,27,,,,,,,0,0,0,-33.00,16.00,-14.00,0.00,0.00,0.00,11,9.00,4.00,2.89,0.00,0.00,-4.00,0,,,100,100,0,2,0,0,0,1,0,,,,,0.0,0.0,0.0,0.0,0.0,0.0,0
34.182628,-118.129102,1.00,1.00,0.40,0.29,1.00,1.00,0.51,0.29,1300,2022-06-05 23:29:51.196,2022-06-05 16:29:51.196,16,0,0,16.935,34.182626,-118.129101,0.00,0.00,-0.40,3.50,1.60,-1.30,0,1,0,100,100,-7284,3401,16935,3061.50,10,TakeOff,1,0,0,0,0,0,0,1654471791195,4343,4346,4343,4336,0,0,27,,,,,,,0,0,0,-35.00,16.00,-13.00,0.00,0.00,0.00,11,10.00,4.00,2.95,0.00,0.00,-4.00,0,,,100,100,0,2,0,0,0,1,0,,,,,0.0,0.0,0.0,0.0,0.0,0.0,0
34.182628,-118.129102,1.00,1.10,0.40,0.31,1.00,1.00,0.51,0.31,1401,2022-06-05 23:29:51.296,2022-06-05 16:29:51.296,16,0,0,16.935,34.182626,-118.129101,0.00,0.00,-0.40,3.50,1.70,-1.20,0,1,0,100,100,-7284,3401,16935,3061.50,10,TakeOff,1,0,0,0,0,0,0,1654471791296,4343,4346,4343,4336,0,0,27,,,,,,,0,0,0,-35.00,17.00,-12.00,0.00,0.00,0.00,11,10.00,4.00,3.06,0.00,0.00,-4.00,0,,,100,100,0,2,0,0,0,1,0,,,,,0.0,0.0,0.0,0.0,0.0,0.0,0
34.182628,-118.129102,1.00,1.10,0.40,0.31,1.00,1.00,0.51,0.31,1501,2022-06-05 23:29:51.396,2022-06-05 16:29:51.396,16,0,0,16.935,34.182626,-118.129101,0.00,0.00,-0.40,2.60,1.10,-1.40,0,1,0,100,100,-7284,3401,16935,3061.50,10,WP,1,0,0,0,0,0,0,1654471791396,4343,4346,4343,4336,0,0,27,,,,,,,0,0,0,-26.00,11.00,-14.00,0.00,0.00,0.00,14,10.00,4.00,3.11,0.00,0.00,-4.00,0,,,100,100,0,2,0,0,0,1,0,,,,,0.0,0.0,0.0,0.0,0.0,0.0,0
34.182628,-118.129102,1.10,1.20,0.40,0.32,1.10,1.10,0.51,0.32,1602,2022-06-05 23:29:51.497,2022-06-05 16:29:51.497,16,0,0,16.935,34.182626,-118.129101,0.00,0.00,-0.40,2.30,1.20,-1.40,0,1,0,100,100,-7284,3401,16935,3061.50,10,WP,1,0,0,0,0,0,0,1654471791497,4343,4346,4343,4336,0,0,27,,,,,,,0,0,0,-23.00,12.00,-14.00,0.00,0.00,0.00,14,11.00,4.00,3.18,0.00,0.00,-4.00,0,,,100,100,0,2,0,0,0,1,0,,,,,0.0,0.0,0.0,0.0,0.0,0.0,0
34.182628,-118.129102,1.10,1.20,0.40,0.33,1.10,1.10,0.51,0.33,1702,2022-06-05 23:29:51.597,2022-06-05 16:29:51.597,16,0,0,16.935,34.182626,-118.129101,0.00,0.00,-0.40,2.40,1.20,-1.20,0,1,0,100,100,-7284,3401,16935,3061.50,10,WP,1,0,0,0,0,0,0,1654471791597,4343,4346,4343,4336,0,0,27,,,,,,,0,0,0,-24.00,12.00,-12.00,0.00,0.00,0.00,14,11.00,4.00,3.25,0.00,0.00,-4.00,0,,,100,100,0,2,0,0,0,1,0,,,,,0.0,0.0,0.0,0.0,0.0,0.0,0
34.182628,-118.129102,1.20,1.20,0.40,0.32,1.20,1.20,0.51,0.33,1802,2022-06-05 23:29:51.697,2022-06-05 16:29:51.697,16,0,0,16.935,34.182626,-118.129101,0.00,0.00,-0.40,3.10,1.10,-0.90,0,1,0,100,100,-7284,3401,16935,3061.50,10,WP,1,0,0,0,0,0,0,1654471791697,4343,4346,4343,4336,0,0,27,,,,,,,0,0,0,-31.00,11.00,-9.00,0.00,0.00,0.00,14,12.00,4.00,3.20,0.00,0.00,-4.00,0,,,100,100,0,2,0,0,0,1,0,,,,,0.0,0.0,0.0,0.0,0.0,0.0,0
34.182628,-118.129102,1.20,1.30,0.40,0.33,1.20,1.20,0.51,0.33,1901,2022-06-05 23:29:51.797,2022-06-05 16:29:51.797,16,0,0,16.935,34.182626,-118.129101,0.00,0.00,-0.40,3.30,1.20,-0.80,0,1,0,100,100,-7284,3401,16935,3061.50,10,WP,1,0,0,0,0,0,0,1654471791796,4343,4346,4343,4336,0,0,27,,,,,,,0,0,0,-33.00,12.00,-8.00,0.00,0.00,0.00,14,12.00,4.00,3.27,0.00,0.00,-4.00,0,,,100,100,0,2,0,0,0,1,0,,,,,0.0,0.0,0.0,0.0,0.0,0.0,0
34.182629,-118.129102,1.30,1.30,0.40,0.35,1.30,1.30,0.51,0.35,2002,2022-06-05 23:29:51.898,2022-06-05 16:29:51.898,16,0,0,16.935,34.182626,-118.129101,0.00,0.00,-0.40,3.80,1.40,-0.70,0,1,0,100,100,-7284,3401,16935,3061.50,10,WP,1,0,0,0,0,0,0,1654471791897,4343,4346,4343,4336,0,0,27,,,,,,,0,0,0,-38.00,14.00,-7.00,0.00,0.00,0.00,14,13.00,4.00,3.54,0.00,0.00,-4.00,0,,,100,100,0,2,0,0,0,1,0,,,,,0.0,0.0,0.0,0.0,0.0,0.0,0
34.182629,-118.129102,1.30,1.40,0.40,0.36,1.30,1.30,0.51,0.36,2102,2022-06-05 23:29:51.998,2022-06-05 16:29:51.998,16,0,0,16.935,34.182626,-118.129101,0.00,0.00,-0.40,3.40,1.40,-0.70,0,1,0,100,100,-7284,3401,16935,3061.50,10,WP,1,0,0,0,0,0,0,1654471791997,4343,4346,4343,4336,0,0,27,,,,,,,0,0,0,-34.00,14.00,-7.00,0.00,0.00,0.00,14,13.00,4.00,3.59,0.00,0.00,-4.00,0,,,100,100,0,2,0,0,0,1,0,,,,,0.0,0.0,0.0,0.0,0.0,0.0,0
34.182629,-118.129103,1.30,1.40,0.40,0.37,1.30,1.30,0.51,0.37,2201,2022-06-05 23:29:52.096,2022-06-05 16:29:52.096,16,0,0,16.935,34.182626,-118.129101,0.00,0.00,-0.40,3.00,1.60,-0.70,0,1,0,100,100,-7284,3401,16935,3061.50,10,WP,1,0,0,0,0,0,0,1654471792096,4343,4346,4343,4336,0,0,27,,,,,,,0,0,0,-30.00,16.00,-7.00,0.00,0.00,0.00,14,13.00,4.00,3.67,0.00,0.00,-4.00,0,,,100,100,0,2,0,0,0,1,0,,,,,0.0,0.0,0.0,0.0,0.0,0.0,0
34.182629,-118.129103,1.40,1.50,0.50,0.37,1.40,1.40,0.51,0.37,2301,2022-06-05 23:29:52.196,2022-06-05 16:29:52.196,16,0,0,16.935,34.182626,-118.129101,0.00,0.00,-0.50,2.80,1.50,-0.70,0,1,0,100,100,-7284,3401,16935,3061.50,10,WP,1,0,0,0,0,0,0,1654471792196,4343,4346,4343,4336,0,0,27,,,,,,,0,0,0,-28.00,15.00,-7.00,0.00,0.00,0.00,14,14.00,5.00,3.68,0.00,0.00,-5.00,0,,,100,100,0,2,0,0,0,1,0,,,,,0.0,0.0,0.0,0.0,0.0,0.0,0
34.182628,-118.129103,1.40,1.50,0.40,0.33,1.40,1.40,0.51,0.37,2402,2022-06-05 23:29:52.297,2022-06-05 16:29:52.297,16,0,0,16.899,34.182626,-118.129101,0.00,0.00,-0.40,1.90,1.00,-0.80,0,1,0,100,100,-7295,3397,16899,3061.50,10,WP,1,0,0,0,0,0,0,1654471792297,4343,4346,4343,4336,0,0,27,,,,,,,0,0,0,-19.00,10.00,-8.00,0.00,0.00,0.00,14,14.00,4.00,3.30,0.00,0.00,-4.00,0,,,100,100,0,2,0,0,0,1,0,,,,,0.0,0.0,0.0,0.0,0.0,0.0,0
34.182628,-118.129103,1.50,1.60,0.40,0.33,1.50,1.50,0.51,0.37,2501,2022-06-05 23:29:52.397,2022-06-05 16:29:52.397,16,0,0,16.899,34.182626,-118.129101,0.00,0.00,-0.40,1.60,1.20,-0.90,0,1,0,100,100,-7295,3397,16899,3061.50,10,WP,1,0,0,0,0,0,0,1654471792396,4343,4346,4343,4336,0,0,27,,,,,,,0,0,0,-16.00,12.00,-9.00,0.00,0.00,0.00,14,15.00,4.00,3.27,0.00,0.00,-4.00,0,,,100,100,0,2,0,0,0,1,0,,,,,0.0,0.0,0.0,0.0,0.0,0.0,0
34.182628,-118.129103,1.50,1.60,0.40,0.33,1.50,1.50,0.51,0.37,2603,2022-06-05 23:29:52.498,2022-06-05 16:29:52.498,16,0,0,16.899,34.182626,-118.129101,0.00,0.00,-0.40,1.50,1.90,-1.10,0,1,0,100,100,-7295,3397,16899,3061.50,10,WP,1,0,0,0,0,0,0,1654471792498,4343,4346,4343,4336,0,0,27,,,,,,,0,0,0,-15.00,19.00,-11.00,0.00,0.00,0.00,14,15.00,4.00,3.28,0.00,0.00,-4.00,0,,,100,100,0,2,0,0,0,1,0,,,,,0.0,0.0,0.0,0.0,0.0,0.0,0
34.182628,-118.129103,1.60,1.70,0.40,0.33,1.60,1.60,0.51,0.37,2702,2022-06-05 23:29:52.597,2022-06-05 16:29:52.597,16,0,0,16.899,34.182626,-118.129101,0.00,0.00,-0.40,1.40,1.90,-1.20,0,1,0,100,100,-7295,3397,16899,3061.50,10,WP,1,0,0,0,0,0,0,1654471792597,4343,4346,4343,4336,0,0,27,,,,,,,0,0,0,-14.00,19.00,-12.00,0.00,0.00,0.00,14,16.00,4.00,3.27,0.00,0.00,-4.00,0,,,100,100,0,2,0,0,0,1,0,,,,,0.0,0.0,0.0,0.0,0.0,0.0,0
34.182628,-118.129103,1.60,1.70,0.40,0.32,1.60,1.60,0.51,0.37,2802,2022-06-05 23:29:52.698,2022-06-05 16:29:52.698,16,0,0,16.899,34.182626,-118.129101,0.00,0.00,-0.40,1.60,1.20,-1.10,0,1,0,100,100,-7295,3397,16899,3061.50,10,WP,1,0,0,0,0,0,0,1654471792697,4343,4346,4343,4336,0,0,27,,,,,,,0,0,0,-16.00,12.00,-11.00,0.00,0.00,0.00,14,16.00,4.00,3.17,0.00,0.00,-4.00,0,,,100,100,0,2,0,0,0,1,0,,,,,0.0,0.0,0.0,0.0,0.0,0.0,0
34.182628,-118.129103,1.70,1.80,0.40,0.32,1.70,1.70,0.51,0.37,2902,2022-06-05 23:29:52.798,2022-06-05 16:29:52.798,16,0,0,16.899,34.182626,-118.129101,0.00,0.00,-0.40,2.20,0.50,-1.10,0,1,0,100,100,-7295,3397,16899,3061.50,10,WP,1,0,0,0,0,0,0,1654471792797,4343,4346,4343,4336,0,0,27,,,,,,,0,0,0,-22.00,5.00,-11.00,0.00,0.00,0.00,14,17.00,4.00,3.16,0.00,0.00,-4.00,0,,,100,100,0,2,0,0,0,1,0,,,,,0.0,0.0,0.0,0.0,0.0,0.0,0
34.182629,-118.129102,1.70,1.80,0.30,0.33,1.70,1.70,0.51,0.37,3002,2022-06-05 23:29:52.898,2022-06-05 16:29:52.898,16,0,0,16.899,34.182626,-118.129101,0.00,0.00,-0.30,2.70,0.10,-0.90,0,1,0,100,100,-7295,3397,16899,3061.50,10,WP,1,0,0,0,0,0,0,1654471792897,4343,4346,4343,4336,0,0,27,,,,,,,0,0,0,-27.00,1.00,-9.00,0.00,0.00,0.00,14,17.00,3.00,3.32,0.00,0.00,-3.00,0,,,100,100,0,2,0,0,0,1,0,,,,,0.0,0.0,0.0,0.0,0.0,0.0,0
34.182629,-118.129102,1.70,1.80,0.20,0.33,1.70,1.70,0.51,0.37,3102,2022-06-05 23:29:52.998,2022-06-05 16:29:52.998,16,0,0,16.899,34.182626,-118.129101,0.00,0.00,-0.20,2.60,0.20,-0.30,0,1,0,100,100,-7295,3397,16899,3061.50,10,WP,1,0,0,0,0,0,0,1654471792997,4343,4346,4343,4336,0,0,27,,,,,,,0,0,0,-26.00,2.00,-3.00,0.00,0.00,0.00,14,17.00,2.00,3.34,0.00,0.00,-2.00,0,,,100,100,0,2,0,0,0,1,0,,,,,0.0,0.0,0.0,0.0,0.0,0.0,0
34.182629,-118.129102,1.80,1.90,0.20,0.35,1.80,1.80,0.51,0.37,3202,2022-06-05 23:29:53.098,2022-06-05 16:29:53.098,16,0,0,16.899,34.182626,-118.129101,0.00,0.00,-0.20,2.30,0.50,1.00,0,1,0,100,100,-7295,3397,16899,3061.50,10,WP,1,0,0,0,0,0,0,1654471793097,4343,4346,4343,4336,0,0,27,,,,,,,0,0,0,-23.00,5.00,10.00,0.00,0.00,0.00,14,18.00,2.00,3.45,0.00,0.00,-2.00,0,,,100,100,0,2,0,0,0,1,0,,,,,0.0,0.0,0.0,0.0,0.0,0.0,0
34.182629,-118.129102,1.80,1.90,0.20,0.35,1.80,1.80,0.51,0.37,3302,2022-06-05 23:29:53.198,2022-06-05 16:29:53.198,16,0,0,16.899,34.182626,-118.129101,0.00,0.00,-0.20,2.30,0.30,3.00,0,1,0,100,100,-7295,3397,16899,3061.50,10,WP,1,0,0,0,0,0,0,1654471793197,4343,4346,4343,4336,0,0,27,,,,,,,0,0,0,-23.00,3.00,30.00,0.00,0.00,0.00,14,18.00,2.00,3.49,0.00,0.00,-2.00,0,,,100,100,0,2,0,0,0,1,0,,,,,0.0,0.0,0.0,0.0,0.0,0.0,0
34.182629,-118.129103,1.80,1.90,0.10,0.35,1.80,1.80,0.51,0.37,3402,2022-06-05 23:29:53.298,2022-06-05 16:29:53.298,16,0,0,16.899,34.182626,-118.129101,0.00,0.00,-0.10,2.50,0.70,5.40,0,1,0,100,100,-7295,3397,16899,3061.50,10,WP,1,0,0,0,0,0,0,1654471793297,4343,4346,4343,4336,0,0,27,,,,,,,0,0,0,-25.00,7.00,54.00,0.00,0.00,0.00,14,18.00,1.00,3.49,0.00,0.00,-1.00,0,,,100,100,0,2,0,0,0,1,0,,,,,0.0,0.0,0.0,0.0,0.0,0.0,0
34.182629,-118.129103,1.80,1.90,0.00,0.35,1.80,1.80,0.51,0.37,3502,2022-06-05 23:29:53.398,2022-06-05 16:29:53.398,16,0,0,16.899,34.182626,-118.129101,0.00,0.00,0.00,2.70,1.10,8.50,0,1,0,100,100,-7295,3397,16899,3061.50,10,WP,1,0,0,0,0,0,0,1654471793397,4343,4346,4343,4336,0,0,27,,,,,,,0,0,0,-27.00,11.00,85.00,0.00,0.00,0.00,14,18.00,0.00,3.55,0.00,0.00,0.00,0,,,100,100,0,2,0,0,0,1,0,,,,,0.0,0.0,0.0,0.0,0.0,0.0,0
34.182629,-118.129102,1.80,1.90,0.00,0.34,1.80,1.80,0.51,0.37,3603,2022-06-05 23:29:53.498,2022-06-05 16:29:53.498,16,0,0,16.899,34.182626,-118.129101,0.00,0.00,0.00,2.80,1.30,12.00,0,1,0,100,100,-7295,3397,16899,3061.50,10,WP,1,0,0,0,0,0,0,1654471793498,4343,4346,4343,4336,0,0,27,,,,,,,0,0,0,-28.00,13.00,120.00,0.00,0.00,0.00,14,18.00,0.00,3.39,0.00,0.00,0.00,0,,,100,100,0,2,0,0,0,1,0,,,,,0.0,0.0,0.0,0.0,0.0,0.0,0
34.182629,-118.129102,1.80,1.90,0.00,0.34,1.80,1.80,0.51,0.37,3703,2022-06-05 23:29:53.598,2022-06-05 16:29:53.598,16,0,0,16.899,34.182626,-118.129101,0.00,0.00,0.00,2.70,1.20,16.10,0,1,0,100,100,-7295,3397,16899,3061.50,10,WP,1,0,0,0,0,0,0,1654471793598,4343,4346,4343,4336,0,0,27,,,,,,,0,0,0,-27.00,12.00,161.00,0.00,0.00,0.00,14,18.00,0.00,3.41,0.00,0.00,0.00,0,,,100,100,0,2,0,0,0,1,0,,,,,0.0,0.0,0.0,0.0,0.0,0.0,0
34.182629,-118.129103,1.80,1.90,0.00,0.37,1.80,1.80,0.51,0.37,3802,2022-06-05 23:29:53.697,2022-06-05 16:29:53.697,16,0,0,16.899,34.182626,-118.129101,0.00,0.00,0.00,2.50,1.20,20.80,0,1,0,100,100,-7295,3397,16899,3061.50,10,WP,1,0,0,0,0,0,0,1654471793697,4343,4346,4343,4336,0,0,27,,,,,,,0,0,0,-25.00,12.00,208.00,0.00,0.00,0.00,14,18.00,0.00,3.73,0.00,0.00,0.00,0,,,100,100,0,2,0,0,0,1,0,,,,,0.0,0.0,0.0,0.0,0.0,0.0,0
34.182629,-118.129103,1.80,1.90,0.00,0.38,1.80,1.80,0.51,0.38,3902,2022-06-05 23:29:53.798,2022-06-05 16:29:53.798,16,0,0,16.899,34.182626,-118.129101,0.00,0.00,0.00,2.40,1.10,25.90,0,1,0,100,100,-7295,3397,16899,3061.50,10,WP,1,0,0,0,0,0,0,1654471793797,4343,4346,4343,4336,0,0,27,,,,,,,0,0,0,-24.00,11.00,259.00,0.00,0.00,0.00,14,18.00,0.00,3.76,0.00,0.00,0.00,0,,,100,100,0,2,0,0,0,1,0,,,,,0.0,0.0,0.0,0.0,0.0,0.0,0
34.182629,-118.129102,1.80,1.90,0.00,0.36,1.80,1.80,0.51,0.38,4002,2022-06-05 23:29:53.898,2022-06-05 16:29:53.898,16,0,0,16.899,34.182626,-118.129101,0.00,0.00,0.00,2.10,1.30,31.50,0,1,0,100,100,-7295,3397,16899,3061.50,10,WP,1,0,0,0,0,0,0,1654471793897,4343,4346,4343,4336,0,0,27,,,,,,,0,0,0,-21.00,13.00,315.00,0.00,0.00,0.00,14,18.00,0.00,3.57,0.00,0.00,0.00,0,,,100,100,0,2,0,0,0,1,0,,,,,0.0,0.0,0.0,0.0,0.0,0.0,0
34.182629,-118.129103,1.80,1.90,0.00,0.36,1.80,1.80,0.51,0.38,4102,2022-06-05 23:29:53.998,2022-06-05 16:29:53.998,16,0,0,16.899,34.182626,-118.129101,0.00,0.00,0.00,1.70,1.70,37.80,0,1,0,100,100,-7295,3397,16899,3061.50,10,WP,1,0,0,0,0,0,0,1654471793997,4343,4346,4343,4336,0,0,27,,,,,,,0,0,0,-17.00,17.00,378.00,0.00,0.00,0.00,14,18.00,0.00,3.58,0.00,0.00,0.00,0,,,100,100,0,2,0,0,0,1,0,,,,,0.0,0.0,0.0,0.0,0.0,0.0,0
34.182629,-118.129103,1.80,1.90,0.00,0.36,1.80,1.80,0.51,0.38,4202,2022-06-05 23:29:54.098,2022-06-05 16:29:54.098,16,0,0,16.899,34.182626,-118.129101,0.00,0.00,0.00,1.40,1.90,44.80,0,1,0,100,100,-7295,3397,16899,3061.50,10,WP,1,0,0,0,0,0,0,1654471794097,4343,4346,4343,4336,0,0,27,,,,,,,0,0,0,-14.00,19.00,448.00,0.00,0.00,0.00,14,18.00,0.00,3.59,0.00,0.00,0.00,0,,,100,100,0,2,0,0,0,1,0,,,,,0.0,0.0,0.0,0.0,0.0,0.0,0
34.182629,-118.129103,1.80,2.00,0.00,0.36,1.80,1.80,0.51,0.38,4303,2022-06-05 23:29:54.198,2022-06-05 16:29:54.198,16,0,0,16.899,34.182626,-118.129101,0.00,0.00,0.00,1.20,2.00,52.20,0,1,0,100,100,-7295,3397,16899,3061.50,10,WP,1,0,0,0,0,0,0,1654471794198,4343,4346,4343,4336,0,0,27,,,,,,,0,0,0,-12.00,20.00,522.00,0.00,0.00,0.00,14,18.00,0.00,3.61,0.00,0.00,0.00,0,,,100,100,0,2,0,0,0,1,0,,,,,0.0,0.0,0.0,0.0,0.0,0.0,0
34.182629,-118.129103,1.80,1.90,0.00,0.37,1.80,1.80,0.51,0.38,4403,2022-06-05 23:29:54.299,2022-06-05 16:29:54.299,16,0,0,16.960,34.182626,-118.129101,0.00,0.00,0.00,1.10,2.20,59.50,0,1,0,100,100,-6932,3395,16960,3061.50,10,WP,1,0,0,0,0,0,0,1654471794298,4343,4346,4343,4336,0,0,27,,,,,,,0,0,0,-11.00,22.00,595.00,0.00,0.00,0.00,14,18.00,0.00,3.69,0.00,0.00,0.00,0,,,100,100,0,2,0,0,0,1,0,,,,,0.0,0.0,0.0,0.0,0.0,0.0,0
34.182629,-118.129103,1.90,1.90,0.00,0.37,1.90,1.90,0.51,0.38,4502,2022-06-05 23:29:54.398,2022-06-05 16:29:54.398,16,0,0,16.960,34.182626,-118.129101,0.00,0.00,0.00,1.00,2.20,66.90,0,1,0,100,100,-6932,3395,16960,3061.50,10,WP,1,0,0,0,0,0,0,1654471794397,4343,4346,4343,4336,0,0,27,,,,,,,0,0,0,-10.00,22.00,669.00,0.00,0.00,0.00,14,19.00,0.00,3.71,0.00,0.00,0.00,0,,,100,100,0,2,0,0,0,1,0,,,,,0.0,0.0,0.0,0.0,0.0,0.0,0
34.182629,-118.129103,1.90,1.90,0.00,0.38,1.90,1.90,0.51,0.38,4604,2022-06-05 23:29:54.499,2022-06-05 16:29:54.499,16,0,0,16.960,34.182626,-118.129101,0.00,0.00,0.00,0.60,2.40,74.30,0,1,0,100,100,-6932,3395,16960,3061.50,10,WP,1,0,0,0,0,0,0,1654471794499,4343,4346,4343,4336,0,0,27,,,,,,,0,0,0,-6.00,24.00,743.00,0.00,0.00,0.00,14,19.00,0.00,3.82,0.00,0.00,0.00,0,,,100,100,0,2,0,0,0,1,0,,,,,0.0,0.0,0.0,0.0,0.0,0.0,0
34.182629,-118.129103,1.90,2.00,0.00,0.39,1.90,1.90,0.51,0.39,4703,2022-06-05 23:29:54.598,2022-06-05 16:29:54.598,16,0,0,16.960,34.182626,-118.129101,0.00,0.00,0.00,0.30,2.50,81.70,0,1,0,100,100,-6932,3395,16960,3061.50,10,WP,1,0,0,0,0,0,0,1654471794598,4343,4346,4343,4336,0,0,27,,,,,,,0,0,0,-3.00,25.00,817.00,0.00,0.00,0.00,14,19.00,0.00,3.85,0.00,0.00,0.00,0,,,100,100,0,2,0,0,0,1,0,,,,,0.0,0.0,0.0,0.0,0.0,0.0,0
34.182629,-118.129103,1.90,2.00,0.00,0.38,1.90,1.90,0.51,0.39,4804,2022-06-05 23:29:54.699,2022-06-05 16:29:54.699,16,0,0,16.960,34.182626,-118.129101,0.00,0.00,0.00,0.00,2.40,89.20,0,1,0,100,100,-6932,3395,16960,3061.50,10,WP,1,0,0,0,0,0,0,1654471794699,4343,4346,4343,4336,0,0,27,,,,,,,0,0,0,-0.00,24.00,892.00,0.00,0.00,0.00,14,19.00,0.00,3.81,0.00,0.00,0.00,0,,,100,100,0,2,0,0,0,1,0,,,,,0.0,0.0,0.0,0.0,0.0,0.0,0
34.182629,-118.129103,1.90,2.00,0.00,0.38,1.90,1.90,0.51,0.39,4904,2022-06-05 23:29:54.799,2022-06-05 16:29:54.799,16,0,0,16.960,34.182626,-118.129101,0.00,0.00,0.00,-0.30,2.40,96.60,0,1,0,100,100,-6932,3395,16960,3061.50,10,WP,1,0,0,0,0,0,0,1654471794799,4343,4346,4343,4336,0,0,27,,,,,,,0,0,0,3.00,24.00,966.00,0.00,0.00,0.00,14,19.00,0.00,3.84,0.00,0.00,0.00,0,,,100,100,0,2,0,0,0,1,0,,,,,0.0,0.0,0.0,0.0,0.0,0.0,0
34.182629,-118.129103,1.90,2.00,0.00,0.39,1.90,1.90,0.51,0.39,5004,2022-06-05 23:29:54.900,2022-06-05 16:29:54.900,16,0,0,16.960,34.182626,-118.129101,0.00,0.00,0.00,-0.70,2.00,103.80,0,1,0,100,100,-6932,3395,16960,3061.50,10,WP,1,0,0,0,0,0,0,1654471794899,4343,4346,4343,4336,0,0,27,,,,,,,0,0,0,7.00,20.00,1038.00,0.00,0.00,0.00,14,19.00,0.00,3.87,0.00,0.00,0.00,0,,,100,100,0,2,0,0,0,1,0,,,,,0.0,0.0,0.0,0.0,0.0,0.0,0
34.182629,-118.129103,1.90,2.00,0.00,0.39,1.90,1.90,0.51,0.39,5104,2022-06-05 23:29:55.000,2022-06-05 16:29:55.000,16,0,0,16.960,34.182626,-118.129101,0.00,0.00,0.00,-1.10,1.30,111.20,0,1,0,100,100,-6932,3395,16960,3061.50,10,WP,1,0,0,0,0,0,0,1654471794999,4343,4346,4343,4336,0,0,27,,,,,,,0,0,0,11.00,13.00,1112.00,0.00,0.00,0.00,14,19.00,0.00,3.90,0.00,0.00,0.00,0,,,100,100,0,2,0,0,0,1,0,,,,,0.0,0.0,0.0,0.0,0.0,0.0,0
34.182629,-118.129103,1.90,2.00,0.00,0.39,1.90,1.90,0.51,0.39,5204,2022-06-05 23:29:55.099,2022-06-05 16:29:55.100,16,0,0,16.960,34.182626,-118.129101,0.00,0.00,0.00,-1.60,1.00,118.60,0,1,0,100,100,-6932,3395,16960,3061.50,10,WP,1,0,0,0,0,0,0,1654471795099,4343,4346,4343,4336,0,0,27,,,,,,,0,0,0,16.00,10.00,1186.00,0.00,0.00,0.00,14,19.00,0.00,3.87,0.00,0.00,0.00,0,,,100,100,0,2,0,0,0,1,0,,,,,0.0,0.0,0.0,0.0,0.0,0.0,0
34.182629,-118.129103,1.90,2.00,0.00,0.39,1.90,1.90,0.51,0.39,5304,2022-06-05 23:29:55.200,2022-06-05 16:29:55.200,16,0,0,16.960,34.182626,-118.129101,0.00,0.00,0.00,-1.90,0.80,126.00,0,1,0,100,100,-6932,3395,16960,3061.50,10,WP,1,0,0,0,0,0,0,1654471795199,4343,4346,4343,4336,0,0,27,,,,,,,0,0,0,19.00,8.00,1260.00,0.00,0.00,0.00,14,19.00,0.00,3.92,0.00,0.00,0.00,0,,,100,100,0,2,0,0,0,1,0,,,,,0.0,0.0,0.0,0.0,0.0,0.0,0
34.182629,-118.129103,1.90,2.00,0.00,0.37,1.90,1.90,0.51,0.39,5404,2022-06-05 23:29:55.300,2022-06-05 16:29:55.300,16,0,0,16.960,34.182626,-118.129101,0.00,0.00,0.00,-1.90,0.80,133.50,0,1,0,100,100,-6932,3395,16960,3061.50,10,WP,1,0,0,0,0,0,0,1654471795299,4343,4346,4343,4336,0,0,27,,,,,,,0,0,0,19.00,8.00,1335.00,0.00,0.00,0.00,14,19.00,0.00,3.75,0.00,0.00,0.00,0,,,100,100,0,2,0,0,0,1,0,,,,,0.0,0.0,0.0,0.0,0.0,0.0,0
34.182629,-118.129103,1.90,2.00,0.00,0.38,1.90,1.90,0.51,0.39,5504,2022-06-05 23:29:55.399,2022-06-05 16:29:55.400,16,0,0,16.960,34.182626,-118.129101,0.00,0.00,0.00,-1.90,0.60,140.90,0,1,0,100,100,-6932,3395,16960,3061.50,10,WP,1,0,0,0,0,0,0,1654471795399,4343,4346,4343,4336,0,0,27,,,,,,,0,0,0,19.00,6.00,1409.00,0.00,0.00,0.00,14,19.00,0.00,3.77,0.00,0.00,0.00,0,,,100,100,0,2,0,0,0,1,0,,,,,0.0,0.0,0.0,0.0,0.0,0.0,0
34.182629,-118.129103,1.90,2.00,0.00,0.36,1.90,1.90,0.51,0.39,5604,2022-06-05 23:29:55.499,2022-06-05 16:29:55.499,16,0,0,16.960,34.182626,-118.129101,0.00,0.00,0.00,-1.60,0.30,148.40,0,1,0,100,100,-6932,3395,16960,3061.50,10,WP,1,0,0,0,0,0,0,1654471795499,4343,4346,4343,4336,0,0,27,,,,,,,0,0,0,16.00,3.00,1484.00,0.00,0.00,0.00,14,19.00,0.00,3.56,0.00,0.00,0.00,0,,,100,100,0,2,0,0,0,1,0,,,,,0.0,0.0,0.0,0.0,0.0,0.0,0
34.182629,-118.129103,1.90,2.00,0.00,0.36,1.90,1.90,0.51,0.39,5705,2022-06-05 23:29:55.601,2022-06-05 16:29:55.601,16,0,0,16.960,34.182626,-118.129101,0.00,0.00,0.00,-1.70,0.20,155.70,0,1,0,100,100,-6932,3395,16960,3061.50,10,WP,1,0,0,0,0,0,0,1654471795600,4343,4346,4343,4336,0,0,27,,,,,,,0,0,0,17.00,2.00,1557.00,0.00,0.00,0.00,14,19.00,0.00,3.56,0.00,0.00,0.00,0,,,100,100,0,2,0,0,0,1,0,,,,,0.0,0.0,0.0,0.0,0.0,0.0,0
34.182628,-118.129103,1.90,2.00,0.00,0.34,1.90,1.90,0.51,0.39,5804,2022-06-05 23:29:55.700,2022-06-05 16:29:55.700,16,0,0,16.960,34.182626,-118.129101,0.00,0.00,0.00,-2.00,0.20,161.50,0,1,0,100,100,-6932,3395,16960,3061.50,10,WP,1,0,0,0,0,0,0,1654471795699,4343,4346,4343,4336,0,0,27,,,,,,,0,0,0,20.00,2.00,1615.00,0.00,0.00,0.00,14,19.00,0.00,3.40,0.00,0.00,0.00,0,,,100,100,0,2,0,0,0,1,0,,,,,0.0,0.0,0.0,0.0,0.0,0.0,0
34.182628,-118.129103,1.90,2.00,0.00,0.34,1.90,1.90,0.51,0.39,5905,2022-06-05 23:29:55.800,2022-06-05 16:29:55.800,16,0,0,16.960,34.182626,-118.129101,0.00,0.00,0.00,-1.90,0.30,165.60,0,1,0,100,100,-6932,3395,16960,3061.50,10,WP,1,0,0,0,0,0,0,1654471795800,4343,4346,4343,4336,0,0,27,,,,,,,0,0,0,19.00,3.00,1656.00,0.00,0.00,0.00,14,19.00,0.00,3.39,0.00,0.00,0.00,0,,,100,100,0,2,0,0,0,1,0,,,,,0.0,0.0,0.0,0.0,0.0,0.0,0
34.182628,-118.129103,1.90,2.00,0.00,0.32,1.90,1.90,0.51,0.39,6005,2022-06-05 23:29:55.900,2022-06-05 16:29:55.900,16,0,0,16.960,34.182626,-118.129101,0.00,0.00,0.00,-1.50,0.40,168.20,0,1,0,100,100,-6932,3395,16960,3061.50,10,WP,1,0,0,0,0,0,0,1654471795900,4343,4346,4343,4336,0,0,27,,,,,,,0,0,0,15.00,4.00,1682.00,0.00,0.00,0.00,14,19.00,0.00,3.21,0.00,0.00,0.00,0,,,100,100,0,2,0,0,0,1,0,,,,,0.0,0.0,0.0,0.0,0.0,0.0,0
34.182628,-118.129103,1.90,2.00,0.00,0.32,1.90,1.90,0.51,0.39,6104,2022-06-05 23:29:55.999,2022-06-05 16:29:55.999,16,0,0,16.960,34.182626,-118.129101,0.00,0.00,0.00,-1.30,0.40,169.80,0,1,0,100,100,-6932,3395,16960,3061.50,10,WP,1,0,0,0,0,0,0,1654471795999,4343,4346,4343,4336,0,0,27,,,,,,,0,0,0,13.00,4.00,1698.00,0.00,0.00,0.00,14,19.00,0.00,3.17,0.00,0.00,0.00,0,,,100,100,0,2,0,0,0,1,0,,,,,0.0,0.0,0.0,0.0,0.0,0.0,0
34.182628,-118.129103,1.90,2.00,0.00,0.30,1.90,1.90,0.51,0.39,6204,2022-06-05 23:29:56.100,2022-06-05 16:29:56.100,16,0,0,16.960,34.182626,-118.129101,0.00,0.00,0.00,-1.40,0.50,170.80,0,1,0,100,100,-6932,3395,16960,3061.50,10,WP,1,0,0,0,0,0,0,1654471796099,4343,4346,4343,4336,0,0,27,,,,,,,0,0,0,14.00,5.00,1708.00,0.00,0.00,0.00,14,19.00,0.00,2.99,0.00,0.00,0.00,0,,,100,100,0,2,0,0,0,1,0,,,,,0.0,0.0,0.0,0.0,0.0,0.0,0
34.182628,-118.129103,1.90,2.00,0.00,0.30,1.90,1.90,0.51,0.39,6304,2022-06-05 23:29:56.200,2022-06-05 16:29:56.200,16,0,0,16.960,34.182626,-118.129101,0.00,0.00,0.00,-1.20,0.50,171.10,0,1,0,100,100,-6932,3395,16960,3061.50,10,WP,1,0,0,0,0,0,0,1654471796199,4343,4346,4343,4336,0,0,27,,,,,,,0,0,0,12.00,5.00,1711.00,0.00,0.00,0.00,14,19.00,0.00,2.95,0.00,0.00,0.00,0,,,100,100,0,2,0,0,0,1,0,,,,,0.0,0.0,0.0,0.0,0.0,0.0,0
34.182628,-118.129102,1.90,2.00,0.00,0.27,1.90,1.90,0.51,0.39,6404,2022-06-05 23:29:56.299,2022-06-05 16:29:56.299,16,0,0,16.857,34.182626,-118.129101,0.00,0.00,0.00,-1.10,0.30,171.20,0,1,0,100,100,-7390,3392,16857,3061.50,10,WP,1,0,0,0,0,0,0,1654471796299,4343,4346,4343,4336,0,0,27,,,,,,,0,0,0,11.00,3.00,1712.00,0.00,0.00,0.00,14,19.00,0.00,2.66,0.00,0.00,0.00,0,,,100,100,0,2,0,0,0,1,0,,,,,0.0,0.0,0.0,0.0,0.0,0.0,0
34.182628,-118.129102,1.90,2.00,0.00,0.26,1.90,1.90,0.51,0.39,6504,2022-06-05 23:29:56.399,2022-06-05 16:29:56.399,16,0,0,16.857,34.182626,-118.129101,0.00,0.00,0.00,-1.10,0.10,171.30,0,1,0,100,100,-7390,3392,16857,3061.50,10,WP,1,0,0,0,0,0,0,1654471796399,4223,4215,4208,4216,0,0,27,,,,,,,0,0,0,11.00,1.00,1713.00,0.00,0.00,0.00,14,19.00,0.00,2.61,0.00,0.00,0.00,0,,,100,100,0,2,0,0,0,1,0,,,,,0.0,0.0,0.0,0.0,0.0,0.0,0
34.182628,-118.129102,1.90,2.00,0.00,0.26,1.90,1.90,0.51,0.39,6625,2022-06-05 23:29:56.521,2022-06-05 16:29:56.521,16,0,0,16.857,34.182626,-118.129101,0.00,0.00,0.00,-1.00,0.00,171.30,0,1,0,100,100,-7390,3392,16857,3061.50,10,WP,1,0,0,0,0,0,0,1654471796520,4223,4215,4208,4216,0,0,27,,,,,,,0,0,0,10.00,0.00,1713.00,0.00,0.00,0.00,14,19.00,0.00,2.62,0.00,0.00,0.00,0,,,100,100,0,2,0,0,0,1,0,,,,,0.0,0.0,0.0,0.0,0.0,0.0,0
34.182628,-118.129102,1.90,2.00,0.00,0.26,1.90,1.90,0.51,0.39,6704,2022-06-05 23:29:56.600,2022-06-05 16:29:56.600,16,0,0,16.857,34.182626,-118.129101,0.00,0.00,0.00,-5.70,-0.10,171.30,0,1,0,100,100,-7390,3392,16857,3061.50,10,WP,1,0,0,0,0,0,0,1654471796599,4223,4215,4208,4216,0,0,27,,,,,,,0,0,0,57.00,-1.00,1713.00,0.00,0.00,0.00,14,19.00,0.00,2.58,0.00,0.00,0.00,0,,,100,100,0,2,0,0,0,1,0,,,,,0.0,0.0,0.0,0.0,0.0,0.0,0
34.182628,-118.129102,1.90,2.00,0.10,0.24,1.90,1.90,0.51,0.39,6804,2022-06-05 23:29:56.699,2022-06-05 16:29:56.699,16,0,0,16.857,34.182626,-118.129101,-0.10,0.00,0.00,-10.90,0.40,171.30,0,1,0,100,100,-7390,3392,16857,3061.50,10,WP,1,0,0,0,0,0,0,1654471796699,4223,4215,4208,4216,0,0,27,,,,,,,0,0,0,109.00,4.00,1713.00,0.00,0.00,0.00,14,19.00,1.00,2.43,-1.00,0.00,0.00,0,,,100,100,0,2,0,0,0,1,0,,,,,0.0,0.0,0.0,0.0,0.0,0.0,0
34.182627,-118.129102,1.90,2.00,0.22,0.22,1.90,1.90,0.51,0.39,6904,2022-06-05 23:29:56.799,2022-06-05 16:29:56.799,16,0,0,16.857,34.182626,-118.129101,-0.20,0.10,0.00,-14.90,1.00,171.10,0,1,0,100,100,-7390,3392,16857,3061.50,10,WP,1,0,0,0,0,0,0,1654471796799,4223,4215,4208,4216,0,0,27,,,,,,,0,0,0,149.00,10.00,1711.00,0.00,0.00,0.00,14,19.00,2.24,2.21,-2.00,1.00,0.00,0,,,100,100,0,2,0,0,0,1,0,,,,,0.0,0.0,0.0,0.0,0.0,0.0,0
34.182627,-118.129102,1.90,2.00,0.51,0.19,1.90,1.90,0.51,0.39,7006,2022-06-05 23:29:56.901,2022-06-05 16:29:56.901,16,0,0,16.857,34.182626,-118.129101,-0.50,0.10,0.00,-17.70,1.40,171.10,0,1,0,100,100,-7390,3392,16857,3061.50,10,WP,1,0,0,0,0,0,0,1654471796901,4223,4215,4208,4216,0,0,27,,,,,,,0,0,0,177.00,14.00,1711.00,0.00,0.00,0.00,14,19.00,5.10,1.87,-5.00,1.00,0.00,0,,,100,100,0,2,0,0,0,1,0,,,,,0.0,0.0,0.0,0.0,0.0,0.0,0
34.182627,-118.129102,1.90,2.00,0.81,0.13,1.90,1.90,0.81,0.39,7104,2022-06-05 23:29:57.000,2022-06-05 16:29:57.000,16,0,0,16.857,34.182626,-118.129101,-0.80,0.10,0.00,-19.30,1.30,171.00,0,1,0,100,100,-7390,3392,16857,3061.50,10,WP,1,0,0,0,0,0,0,1654471796999,4223,4215,4208,4216,0,0,27,,,,,,,0,0,0,193.00,13.00,1710.00,0.00,0.00,0.00,14,19.00,8.06,1.30,-8.00,1.00,0.00,0,,,100,100,0,2,0,0,0,1,0,,,,,0.0,0.0,0.0,0.0,0.0,0.0,0
34.182626,-118.129102,1.90,2.00,1.00,0.09,1.90,1.90,1.00,0.39,7206,2022-06-05 23:29:57.102,2022-06-05 16:29:57.102,16,0,0,16.857,34.182626,-118.129101,-1.00,0.10,0.00,-20.70,1.20,171.00,0,1,0,100,100,-7390,3392,16857,3061.50,10,WP,1,0,0,0,0,0,0,1654471797101,4223,4215,4208,4216,0,0,27,,,,,,,0,0,0,207.00,12.00,1710.00,0.00,0.00,0.00,14,19.00,10.05,0.93,-10.00,1.00,0.00,0,,,100,100,0,2,0,0,0,1,0,,,,,0.0,0.0,0.0,0.0,0.0,0.0,0
34.182625,-118.129101,1.90,2.00,1.41,0.16,1.90,1.90,1.41,0.39,7305,2022-06-05 23:29:57.201,2022-06-05 16:29:57.201,16,0,0,16.857,34.182626,-118.129101,-1.40,0.20,0.00,-21.90,1.10,171.00,0,1,0,100,100,-7390,3392,16857,3061.50,10,WP,1,0,0,0,0,0,0,1654471797200,4223,4215,4208,4216,0,0,27,,,,,,,0,0,0,219.00,11.00,1710.00,0.00,0.00,0.00,14,19.00,14.14,1.61,-14.00,2.00,0.00,0,,,100,100,0,2,0,0,0,1,0,,,,,0.0,0.0,0.0,0.0,0.0,0.0,0
34.182623,-118.129101,1.90,2.00,1.71,0.31,1.90,1.90,1.71,0.39,7405,2022-06-05 23:29:57.300,2022-06-05 16:29:57.300,16,0,0,16.857,34.182626,-118.129101,-1.70,0.20,0.00,-22.60,1.10,171.00,0,1,0,100,100,-7390,3392,16857,3061.50,10,WP,1,0,0,0,0,0,0,1654471797300,4223,4215,4208,4216,0,0,27,,,,,,,0,0,0,226.00,11.00,1710.00,0.00,0.00,0.00,14,19.00,17.12,3.12,-17.00,2.00,0.00,0,,,100,100,0,2,0,0,0,1,0,,,,,0.0,0.0,0.0,0.0,0.0,0.0,0
34.182621,-118.129101,1.90,2.00,2.01,0.50,1.90,1.90,2.01,0.50,7504,2022-06-05 23:29:57.400,2022-06-05 16:29:57.400,16,0,0,16.857,34.182626,-118.129101,-2.00,0.20,0.00,-23.00,1.00,171.20,0,1,0,100,100,-7390,3392,16857,3061.50,10,WP,1,0,0,0,0,0,0,1654471797399,4223,4215,4208,4216,0,0,27,,,,,,,0,0,0,230.00,10.00,1712.00,0.00,0.00,0.00,14,19.00,20.10,5.03,-20.00,2.00,0.00,0,,,100,100,0,2,0,0,0,1,0,,,,,0.0,0.0,0.0,0.0,0.0,0.0,0
34.182619,-118.129100,1.90,2.00,2.42,0.71,1.90,1.90,2.42,0.71,7606,2022-06-05 23:29:57.501,2022-06-05 16:29:57.501,16,0,0,16.857,34.182626,-118.129101,-2.40,0.30,0.00,-23.40,0.70,171.00,0,1,0,100,100,-7390,3392,16857,3061.50,10,WP,1,0,0,0,0,0,0,1654471797501,4223,4215,4208,4216,0,0,27,,,,,,,0,0,0,234.00,7.00,1710.00,0.00,0.00,0.00,14,19.00,24.19,7.14,-24.00,3.00,0.00,0,,,100,100,0,2,0,0,0,1,0,,,,,0.0,0.0,0.0,0.0,0.0,0.0,0
34.182617,-118.129100,1.90,2.00,2.72,0.98,1.90,1.90,2.72,0.98,7705,2022-06-05 23:29:57.601,2022-06-05 16:29:57.601,16,0,0,16.857,34.182626,-118.129101,-2.70,0.30,0.00,-23.50,0.10,171.10,0,1,0,100,100,-7390,3392,16857,3061.50,10,WP,1,0,0,0,0,0,0,1654471797600,4223,4215,4208,4216,0,0,27,,,,,,,0,0,0,235.00,1.00,1711.00,0.00,0.00,0.00,14,19.00,27.17,9.75,-27.00,3.00,0.00,0,,,100,100,0,2,0,0,0,1,0,,,,,0.0,0.0,0.0,0.0,0.0,0.0,0
34.182615,-118.129099,1.90,2.00,3.13,1.24,1.90,1.90,3.13,1.24,7806,2022-06-05 23:29:57.701,2022-06-05 16:29:57.701,16,0,0,16.857,34.182626,-118.129101,-3.10,0.40,0.00,-23.20,0.00,171.20,0,1,0,100,100,-7390,3392,16857,3061.50,10,WP,1,0,0,0,0,0,0,1654471797701,4223,4215,4208,4216,0,0,27,,,,,,,0,0,0,232.00,0.00,1712.00,0.00,0.00,0.00,14,19.00,31.26,12.45,-31.00,4.00,0.00,0,,,100,100,0,2,0,0,0,1,0,,,,,0.0,0.0,0.0,0.0,0.0,0.0,0
34.182612,-118.129099,1.90,2.00,3.42,1.57,1.90,1.90,3.42,1.57,7906,2022-06-05 23:29:57.801,2022-06-05 16:29:57.801,16,0,0,16.857,34.182626,-118.129101,-3.40,0.40,0.00,-21.30,-0.30,171.30,0,1,0,100,100,-7390,3392,16857,3061.50,10,WP,1,0,0,0,0,0,0,1654471797801,4223,4215,4208,4216,0,0,27,,,,,,,0,0,0,213.00,-3.00,1713.00,0.00,0.00,0.00,14,19.00,34.23,15.71,-34.00,4.00,0.00,0,,,100,100,0,2,0,0,0,1,0,,,,,0.0,0.0,0.0,0.0,0.0,0.0,0
34.182608,-118.129098,1.90,2.00,3.62,1.95,1.90,1.90,3.62,1.95,8005,2022-06-05 23:29:57.901,2022-06-05 16:29:57.901,16,0,0,16.857,34.182626,-118.129101,-3.60,0.40,-0.10,-13.50,-0.30,171.30,0,1,0,100,100,-7390,3392,16857,3061.50,10,WP,1,0,0,0,0,0,0,1654471797900,4223,4215,4208,4216,0,0,27,,,,,,,0,0,0,135.00,-3.00,1713.00,0.00,0.00,0.00,14,19.00,36.24,19.51,-36.00,4.00,-1.00,0,,,100,100,0,2,0,0,0,1,0,,,,,0.0,0.0,0.0,0.0,0.0,0.0,0
34.182605,-118.129098,1.90,2.10,3.83,2.33,1.90,1.90,3.83,2.33,8105,2022-06-05 23:29:58.001,2022-06-05 16:29:58.001,16,0,0,16.857,34.182626,-118.129101,-3.80,0.50,-0.10,-5.80,-0.50,171.20,0,1,0,100,100,-7390,3392,16857,3061.50,10,WP,1,0,0,0,0,0,0,1654471798000,4223,4215,4208,4216,0,0,27,,,,,,,0,0,0,58.00,-5.00,1712.00,0.00,0.00,0.00,14,19.00,38.34,23.27,-38.00,5.00,-1.00,0,,,100,100,0,2,0,0,0,1,0,,,,,0.0,0.0,0.0,0.0,0.0,0.0,0
34.182602,-118.129097,1.90,2.10,3.73,2.71,1.90,1.90,3.83,2.71,8205,2022-06-05 23:29:58.101,2022-06-05 16:29:58.101,16,0,0,16.857,34.182626,-118.129101,-3.70,0.50,-0.10,0.00,-0.50,171.00,0,1,0,100,100,-7390,3392,16857,3061.50,10,WP,1,0,0,0,0,0,0,1654471798100,4223,4215,4208,4216,0,0,27,,,,,,,0,0,0,-0.00,-5.00,1710.00,0.00,0.00,0.00,14,19.00,37.35,27.05,-37.00,5.00,-1.00,0,,,100,100,0,2,0,0,0,1,0,,,,,0.0,0.0,0.0,0.0,0.0,0.0,0
34.182598,-118.129096,1.90,2.10,3.63,3.08,1.90,1.90,3.83,3.08,8306,2022-06-05 23:29:58.201,2022-06-05 16:29:58.201,16,0,0,16.857,34.182626,-118.129101,-3.60,0.50,0.00,4.90,0.00,171.10,0,1,0,100,100,-7390,3392,16857,3061.50,10,WP,1,0,0,0,0,0,0,1654471798201,4223,4215,4208,4216,0,0,27,,,,,,,0,0,0,-49.00,0.00,1711.00,0.00,0.00,0.00,14,19.00,36.35,30.77,-36.00,5.00,0.00,0,,,100,100,0,2,0,0,0,1,0,,,,,0.0,0.0,0.0,0.0,0.0,0.0,0
34.182595,-118.129096,1.90,2.10,3.54,3.43,1.90,1.90,3.83,3.43,8405,2022-06-05 23:29:58.301,2022-06-05 16:29:58.301,16,0,0,16.786,34.182626,-118.129101,-3.50,0.50,0.00,7.70,1.00,171.50,0,1,0,100,100,-7759,3388,16786,3061.50,10,WP,1,0,0,0,0,0,0,1654471798300,4223,4215,4208,4216,0,0,27,,,,,,,0,0,0,-77.00,10.00,1715.00,0.00,0.00,0.00,14,19.00,35.36,34.29,-35.00,5.00,0.00,0,,,100,100,0,2,0,0,0,1,0,,,,,0.0,0.0,0.0,0.0,0.0,0.0,0
34.182592,-118.129095,1.90,2.10,3.32,3.77,1.90,1.90,3.83,3.77,8505,2022-06-05 23:29:58.401,2022-06-05 16:29:58.401,16,0,0,16.786,34.182626,-118.129101,-3.30,0.40,0.00,8.60,1.30,171.70,0,1,0,100,100,-7759,3388,16786,3061.50,10,WP,1,0,0,0,0,0,0,1654471798400,4223,4215,4208,4216,0,0,27,,,,,,,0,0,0,-86.00,13.00,1717.00,0.00,0.00,0.00,14,19.00,33.24,37.70,-33.00,4.00,0.00,0,,,100,100,0,2,0,0,0,1,0,,,,,0.0,0.0,0.0,0.0,0.0,0.0,0
34.182589,-118.129094,1.90,2.00,3.13,4.11,1.90,1.90,3.83,4.11,8625,2022-06-05 23:29:58.520,2022-06-05 16:29:58.520,16,0,0,16.786,34.182626,-118.129101,-3.10,0.40,0.00,9.20,1.80,171.90,0,1,0,100,100,-7759,3388,16786,3061.50,10,WP,1,0,0,0,0,0,0,1654471798520,4223,4215,4208,4216,0,0,27,,,,,,,0,0,0,-92.00,18.00,1719.00,0.00,0.00,0.00,14,19.00,31.26,41.06,-31.00,4.00,0.00,0,,,100,100,0,2,0,0,0,1,0,,,,,0.0,0.0,0.0,0.0,0.0,0.0,0
34.182587,-118.129094,1.90,2.00,2.93,4.40,1.90,1.90,3.83,4.40,8706,2022-06-05 23:29:58.601,2022-06-05 16:29:58.601,16,0,0,16.786,34.182626,-118.129101,-2.90,0.40,0.00,9.40,1.90,172.10,0,1,0,100,100,-7759,3388,16786,3061.50,10,WP,1,0,0,0,0,0,0,1654471798601,4223,4215,4208,4216,0,0,27,,,,,,,0,0,0,-94.00,19.00,1721.00,0.00,0.00,0.00,14,19.00,29.27,44.04,-29.00,4.00,0.00,0,,,100,100,0,2,0,0,0,1,0,,,,,0.0,0.0,0.0,0.0,0.0,0.0,0
34.182584,-118.129093,1.90,2.10,2.62,4.72,1.90,1.90,3.83,4.72,8806,2022-06-05 23:29:58.701,2022-06-05 16:29:58.701,16,0,0,16.786,34.182626,-118.129101,-2.60,0.30,0.00,11.40,1.60,172.10,0,1,0,100,100,-7759,3388,16786,3061.50,10,WP,1,0,0,0,0,0,0,1654471798701,4223,4215,4208,4216,0,0,27,,,,,,,0,0,0,-114.00,16.00,1721.00,0.00,0.00,0.00,14,19.00,26.17,47.16,-26.00,3.00,0.00,0,,,100,100,0,2,0,0,0,1,0,,,,,0.0,0.0,0.0,0.0,0.0,0.0,0
34.182582,-118.129093,1.90,2.10,2.42,4.97,1.90,1.90,3.83,4.97,8906,2022-06-05 23:29:58.801,2022-06-05 16:29:58.801,16,0,0,16.786,34.182626,-118.129101,-2.40,0.30,0.00,11.80,1.10,171.70,0,1,0,100,100,-7759,3388,16786,3061.50,10,WP,1,0,0,0,0,0,0,1654471798801,4223,4215,4208,4216,0,0,27,,,,,,,0,0,0,-118.00,11.00,1717.00,0.00,0.00,0.00,14,19.00,24.19,49.69,-24.00,3.00,0.00,0,,,100,100,0,2,0,0,0,1,0,,,,,0.0,0.0,0.0,0.0,0.0,0.0,0
34.182579,-118.129092,1.90,2.10,2.11,5.21,1.90,1.90,3.83,5.21,9005,2022-06-05 23:29:58.901,2022-06-05 16:29:58.901,16,0,0,16.786,34.182626,-118.129101,-2.10,0.20,0.00,11.00,0.30,171.80,0,1,0,100,100,-7759,3388,16786,3061.50,10,WP,1,0,0,0,0,0,0,1654471798900,4223,4215,4208,4216,0,0,27,,,,,,,0,0,0,-110.00,3.00,1718.00,0.00,0.00,0.00,14,19.00,21.10,52.10,-21.00,2.00,0.00,0,,,100,100,0,2,0,0,0,1,0,,,,,0.0,0.0,0.0,0.0,0.0,0.0,0
34.182578,-118.129092,1.90,2.10,1.81,5.41,1.90,1.90,3.83,5.41,9109,2022-06-05 23:29:59.004,2022-06-05 16:29:59.004,16,0,0,16.786,34.182626,-118.129101,-1.80,0.20,0.00,9.40,1.10,171.80,0,1,0,100,100,-7759,3388,16786,3061.50,10,WP,1,0,0,0,0,0,0,1654471799004,4223,4215,4208,4216,0,0,27,,,,,,,0,0,0,-94.00,11.00,1718.00,0.00,0.00,0.00,14,19.00,18.11,54.11,-18.00,2.00,0.00,0,,,100,100,0,2,0,0,0,1,0,,,,,0.0,0.0,0.0,0.0,0.0,0.0,0
34.182576,-118.129092,1.90,2.10,1.61,5.60,1.90,1.90,3.83,5.60,9207,2022-06-05 23:29:59.103,2022-06-05 16:29:59.103,16,0,0,16.786,34.182626,-118.129101,-1.60,0.20,0.00,6.80,1.90,171.70,0,1,0,100,100,-7759,3388,16786,3061.50,10,WP,1,0,0,0,0,0,0,1654471799102,4223,4215,4208,4216,0,0,27,,,,,,,0,0,0,-68.00,19.00,1717.00,0.00,0.00,0.00,14,19.00,16.12,55.99,-16.00,2.00,0.00,0,,,100,100,0,2,0,0,0,1,0,,,,,0.0,0.0,0.0,0.0,0.0,0.0,0
34.182575,-118.129091,1.90,2.10,1.50,5.76,1.90,1.90,3.83,5.76,9307,2022-06-05 23:29:59.202,2022-06-05 16:29:59.202,16,0,0,16.786,34.182626,-118.129101,-1.50,0.10,0.00,4.60,2.10,171.20,0,1,0,100,100,-7759,3388,16786,3061.50,10,WP,1,0,0,0,0,0,0,1654471799202,4223,4215,4208,4216,0,0,27,,,,,,,0,0,0,-46.00,21.00,1712.00,0.00,0.00,0.00,14,19.00,15.03,57.61,-15.00,1.00,0.00,0,,,100,100,0,2,0,0,0,1,0,,,,,0.0,0.0,0.0,0.0,0.0,0.0,0
34.182573,-118.129091,1.90,2.10,1.30,5.93,1.90,1.90,3.83,5.93,9407,2022-06-05 23:29:59.302,2022-06-05 16:29:59.302,16,0,0,16.786,34.182626,-118.129101,-1.30,0.10,0.00,4.20,1.70,171.20,0,1,0,100,100,-7759,3388,16786,3061.50,10,WP,1,0,0,0,0,0,0,1654471799302,4223,4215,4208,4216,0,0,27,,,,,,,0,0,0,-42.00,17.00,1712.00,0.00,0.00,0.00,14,19.00,13.04,59.34,-13.00,1.00,0.00,0,,,100,100,0,2,0,0,0,1,0,,,,,0.0,0.0,0.0,0.0,0.0,0.0,0
34.182572,-118.129091,1.90,2.20,1.30,6.07,1.90,1.90,3.83,6.07,9506,2022-06-05 23:29:59.401,2022-06-05 16:29:59.401,16,0,0,16.786,34.182626,-118.129101,-1.30,0.10,0.00,4.20,1.50,171.20,0,1,0,100,100,-7759,3388,16786,3061.50,10,WP,1,0,0,0,0,0,0,1654471799401,4223,4215,4208,4216,0,0,27,,,,,,,0,0,0,-42.00,15.00,1712.00,0.00,0.00,0.00,14,19.00,13.04,60.75,-13.00,1.00,0.00,0,,,100,100,0,2,0,0,0,1,0,,,,,0.0,0.0,0.0,0.0,0.0,0.0,0
34.182571,-118.129091,1.90,2.10,1.10,6.20,1.90,1.90,3.83,6.20,9609,2022-06-05 23:29:59.504,2022-06-05 16:29:59.504,16,0,0,16.786,34.182626,-118.129101,-1.10,0.10,0.00,4.10,1.50,171.30,0,1,0,100,100,-7759,3388,16786,3061.50,10,WP,1,0,0,0,0,0,0,1654471799504,4223,4215,4208,4216,0,0,27,,,,,,,0,0,0,-41.00,15.00,1713.00,0.00,0.00,0.00,14,19.00,11.05,62.01,-11.00,1.00,0.00,0,,,100,100,0,2,0,0,0,1,0,,,,,0.0,0.0,0.0,0.0,0.0,0.0,0
34.182570,-118.129090,1.90,2.20,1.00,6.32,1.90,1.90,3.83,6.32,9708,2022-06-05 23:29:59.604,2022-06-05 16:29:59.604,16,0,0,16.786,34.182626,-118.129101,-1.00,0.00,0.00,4.00,1.70,171.30,0,1,0,100,100,-7759,3388,16786,3061.50,10,WP,1,0,0,0,0,0,0,1654471799603,4223,4215,4208,4216,0,0,27,,,,,,,0,0,0,-40.00,17.00,1713.00,0.00,0.00,0.00,14,19.00,10.00,63.21,-10.00,0.00,0.00,0,,,100,100,0,2,0,0,0,1,0,,,,,0.0,0.0,0.0,0.0,0.0,0.0,0
34.182569,-118.129090,1.90,2.20,0.90,6.43,1.90,1.90,3.83,6.43,9808,2022-06-05 23:29:59.704,2022-06-05 16:29:59.704,16,0,0,16.786,34.182626,-118.129101,-0.90,0.00,0.00,3.70,1.90,171.30,0,1,0,100,100,-7759,3388,16786,3061.50,10,WP,1,0,0,0,0,0,0,1654471799703,4223,4215,4208,4216,0,0,27,,,,,,,0,0,0,-37.00,19.00,1713.00,0.00,0.00,0.00,14,19.00,9.00,64.33,-9.00,0.00,0.00,0,,,100,100,0,2,0,0,0,1,0,,,,,0.0,0.0,0.0,0.0,0.0,0.0,0
34.182568,-118.129090,1.90,2.20,0.90,6.54,1.90,1.90,3.83,6.54,9909,2022-06-05 23:29:59.804,2022-06-05 16:29:59.804,16,0,0,16.786,34.182626,-118.129101,-0.90,0.00,0.00,3.40,1.50,171.20,0,1,0,100,100,-7759,3388,16786,3061.50,10,WP,1,0,0,0,0,0,0,1654471799804,4223,4215,4208,4216,0,0,27,,,,,,,0,0,0,-34.00,15.00,1712.00,0.00,0.00,0.00,14,19.00,9.00,65.36,-9.00,0.00,0.00,0,,,100,100,0,2,0,0,0,1,0,,,,,0.0,0.0,0.0,0.0,0.0,0.0,0
34.182567,-118.129090,1.90,2.20,0.80,6.61,1.90,1.90,3.83,6.61,10008,2022-06-05 23:29:59.904,2022-06-05 16:29:59.904,16,0,0,16.786,34.182626,-118.129101,-0.80,0.00,0.00,2.90,1.20,171.20,0,1,0,100,100,-7759,3388,16786,3061.50,10,WP,1,0,0,0,0,0,0,1654471799903,4223,4215,4208,4216,0,0,27,,,,,,,0,0,0,-29.00,12.00,1712.00,0.00,0.00,0.00,14,19.00,8.00,66.13,-8.00,0.00,0.00,0,,,100,100,0,2,0,0,0,1,0,,,,,0.0,0.0,0.0,0.0,0.0,0.0,0
34.182566,-118.129090,1.90,2.20,0.70,6.70,1.90,1.90,3.83,6.70,10109,2022-06-05 23:30:00.005,2022-06-05 16:30:00.005,16,0,0,16.786,34.182626,-118.129101,-0.70,0.00,0.00,3.20,0.80,171.30,0,1,0,100,100,-7759,3388,16786,3061.50,10,WP,1,0,0,0,0,0,0,1654471800004,4223,4215,4208,4216,0,0,27,,,,,,,0,0,0,-32.00,8.00,1713.00,0.00,0.00,0.00,14,19.00,7.00,66.99,-7.00,0.00,0.00,0,,,100,100,0,2,0,0,0,1,0,,,,,0.0,0.0,0.0,0.0,0.0,0.0,0
34.182566,-118.129090,1.90,2.20,0.70,6.77,1.90,1.90,3.83,6.77,10208,2022-06-05 23:30:00.104,2022-06-05 16:30:00.104,16,0,0,16.786,34.182626,-118.129101,-0.70,0.00,0.00,3.60,0.00,171.30,0,1,0,100,100,-7759,3388,16786,3061.50,10,WP,1,0,0,0,0,0,0,1654471800103,4223,4215,4208,4216,0,0,27,,,,,,,0,0,0,-36.00,0.00,1713.00,0.00,0.00,0.00,14,19.00,7.00,67.67,-7.00,0.00,0.00,0,,,100,100,0,2,0,0,0,1,0,,,,,0.0,0.0,0.0,0.0,0.0,0.0,0
34.182565,-118.129090,1.90,2.20,0.60,6.84,1.90,1.90,3.83,6.84,10308,2022-06-05 23:30:00.204,2022-06-05 16:30:00.204,16,0,0,16.786,34.182626,-118.129101,-0.60,0.00,0.00,4.00,0.00,171.20,0,1,0,100,100,-7759,3388,16786,3061.50,10,WP,1,0,0,0,0,0,0,1654471800203,4223,4215,4208,4216,0,0,27,,,,,,,0,0,0,-40.00,0.00,1712.00,0.00,0.00,0.00,14,19.00,6.00,68.36,-6.00,0.00,0.00,0,,,100,100,0,2,0,0,0,1,0,,,,,0.0,0.0,0.0,0.0,0.0,0.0,0
34.182565,-118.129090,1.90,2.10,0.50,6.87,1.90,1.90,3.83,6.87,10409,2022-06-05 23:30:00.304,2022-06-05 16:30:00.304,16,0,0,16.812,34.182626,-118.129101,-0.50,0.00,0.00,3.80,0.20,171.30,0,1,0,100,100,-7138,3383,16812,3061.50,10,WP,1,0,0,0,0,0,0,1654471800304,4223,4215,4208,4216,0,0,27,,,,,,,0,0,0,-38.00,2.00,1713.00,0.00,0.00,0.00,14,19.00,5.00,68.73,-5.00,0.00,0.00,0,,,100,100,0,2,0,0,0,1,0,,,,,0.0,0.0,0.0,0.0,0.0,0.0,0
34.182564,-118.129090,1.90,2.10,0.40,6.92,1.90,1.90,3.83,6.92,10509,2022-06-05 23:30:00.404,2022-06-05 16:30:00.404,16,0,0,16.812,34.182626,-118.129101,-0.40,0.00,0.00,3.60,0.30,171.30,0,1,0,100,100,-7138,3383,16812,3061.50,10,WP,1,0,0,0,0,0,0,1654471800404,4223,4215,4208,4216,0,0,27,,,,,,,0,0,0,-36.00,3.00,1713.00,0.00,0.00,0.00,14,19.00,4.00,69.24,-4.00,0.00,0.00,0,,,100,100,0,2,0,0,0,1,0,,,,,0.0,0.0,0.0,0.0,0.0,0.0,0
34.182564,-118.129090,1.90,2.10,0.30,6.96,1.90,1.90,3.83,6.96,10609,2022-06-05 23:30:00.504,2022-06-05 16:30:00.504,16,0,0,16.812,34.182626,-118.129101,-0.30,0.00,0.00,3.70,-0.40,171.20,0,1,0,100,100,-7138,3383,16812,3061.50,10,WP,1,0,0,0,0,0,0,1654471800504,4223,4215,4208,4216,0,0,27,,,,,,,0,0,0,-37.00,-4.00,1712.00,0.00,0.00,0.00,14,19.00,3.00,69.60,-3.00,0.00,0.00,0,,,100,100,0,2,0,0,0,1,0,,,,,0.0,0.0,0.0,0.0,0.0,0.0,0
34.182563,-118.129090,1.90,2.20,0.20,6.99,1.90,1.90,3.83,6.99,10708,2022-06-05 23:30:00.604,2022-06-05 16:30:00.604,16,0,0,16.812,34.182626,-118.129101,-0.20,0.00,0.00,4.50,-1.50,171.10,0,1,0,100,100,-7138,3383,16812,3061.50,10,WP,1,0,0,0,0,0,0,1654471800603,4223,4215,4208,4216,0,0,27,,,,,,,0,0,0,-45.00,-15.00,1711.00,0.00,0.00,0.00,14,19.00,2.00,69.94,-2.00,0.00,0.00,0,,,100,100,0,2,0,0,0,1,0,,,,,0.0,0.0,0.0,0.0,0.0,0.0,0
34.182563,-118.129091,1.90,2.10,0.20,6.99,1.90,1.90,3.83,6.99,10808,2022-06-05 23:30:00.703,2022-06-05 16:30:00.703,16,0,0,16.812,34.182626,-118.129101,-0.20,0.00,0.00,3.00,-0.70,171.10,0,1,0,100,100,-7138,3383,16812,3061.50,10,WP,1,0,0,0,0,0,0,1654471800703,4223,4215,4208,4216,0,0,27,,,,,,,0,0,0,-30.00,-7.00,1711.00,0.00,0.00,0.00,14,19.00,2.00,69.93,-2.00,0.00,0.00,0,,,100,100,0,2,0,0,0,1,0,,,,,0.0,0.0,0.0,0.0,0.0,0.0,0
34.182563,-118.129091,1.90,2.20,0.10,7.01,1.90,1.90,3.83,7.01,10909,2022-06-05 23:30:00.804,2022-06-05 16:30:00.804,16,0,0,16.812,34.182626,-118.129101,-0.10,0.00,0.00,1.90,-0.30,170.40,0,1,0,100,100,-7138,3383,16812,3061.50,10,WP,1,0,0,0,0,0,0,1654471800804,4223,4215,4208,4216,0,0,27,,,,,,,0,0,0,-19.00,-3.00,1704.00,0.00,0.00,0.00,14,19.00,1.00,70.09,-1.00,0.00,0.00,0,,,100,100,0,2,0,0,0,1,0,,,,,0.0,0.0,0.0,0.0,0.0,0.0,0
34.182563,-118.129091,1.90,2.20,0.10,7.00,1.90,1.90,3.83,7.01,11009,2022-06-05 23:30:00.905,2022-06-05 16:30:00.905,16,0,0,16.812,34.182626,-118.129101,-0.10,0.00,0.00,1.20,-0.20,163.10,0,1,0,100,100,-7138,3383,16812,3061.50,10,WP,1,0,0,0,0,0,0,1654471800904,4223,4215,4208,4216,0,0,27,,,,,,,0,0,0,-12.00,-2.00,1631.00,0.00,0.00,0.00,14,19.00,1.00,69.99,-1.00,0.00,0.00,0,,,100,100,0,2,0,0,0,1,0,,,,,0.0,0.0,0.0,0.0,0.0,0.0,0
34.182563,-118.129091,1.90,2.10,0.00,7.01,1.90,1.90,3.83,7.01,11109,2022-06-05 23:30:01.004,2022-06-05 16:30:01.004,16,0,0,16.812,34.182626,-118.129101,0.00,0.00,0.00,0.50,-0.40,155.60,0,1,0,100,100,-7138,3383,16812,3061.50,10,WP,1,0,0,0,0,0,0,1654471801004,4223,4215,4208,4216,0,0,27,,,,,,,0,0,0,-5.00,-4.00,1556.00,0.00,0.00,0.00,14,19.00,0.00,70.06,0.00,0.00,0.00,0,,,100,100,0,2,0,0,0,1,0,,,,,0.0,0.0,0.0,0.0,0.0,0.0,0
34.182563,-118.129091,1.90,2.10,0.00,7.00,1.90,1.90,3.83,7.01,11209,2022-06-05 23:30:01.105,2022-06-05 16:30:01.105,16,0,0,16.812,34.182626,-118.129101,0.00,0.00,0.00,0.00,-0.30,148.00,0,1,0,100,100,-7138,3383,16812,3061.50,10,WP,1,0,0,0,0,0,0,1654471801104,4223,4215,4208,4216,0,0,27,,,,,,,0,0,0,-0.00,-3.00,1480.00,0.00,0.00,0.00,14,19.00,0.00,69.97,0.00,0.00,0.00,0,,,100,100,0,2,0,0,0,1,0,,,,,0.0,0.0,0.0,0.0,0.0,0.0,0
34.182563,-118.129091,1.90,2.10,0.00,7.00,1.90,1.90,3.83,7.01,11309,2022-06-05 23:30:01.205,2022-06-05 16:30:01.205,16,0,0,16.812,34.182626,-118.129101,0.00,0.00,0.00,-0.30,-0.40,140.40,0,1,0,100,100,-7138,3383,16812,3061.50,10,WP,1,0,0,0,0,0,0,1654471801204,4223,4215,4208,4216,0,0,27,,,,,,,0,0,0,3.00,-4.00,1404.00,0.00,0.00,0.00,14,19.00,0.00,69.97,0.00,0.00,0.00,0,,,100,100,0,2,0,0,0,1,0,,,,,0.0,0.0,0.0,0.0,0.0,0.0,0
34.182563,-118.129091,1.90,2.10,0.00,7.00,1.90,1.90,3.83,7.01,11409,2022-06-05 23:30:01.304,2022-06-05 16:30:01.304,16,0,0,16.812,34.182626,-118.129101,0.00,0.00,0.00,-0.60,-0.60,132.60,0,1,0,100,100,-7138,3383,16812,3061.50,10,WP,1,0,0,0,0,0,0,1654471801304,4223,4215,4208,4216,0,0,27,,,,,,,0,0,0,6.00,-6.00,1326.00,0.00,0.00,0.00,14,19.00,0.00,69.97,0.00,0.00,0.00,0,,,100,100,0,2,0,0,0,1,0,,,,,0.0,0.0,0.0,0.0,0.0,0.0,0
34.182563,-118.129091,1.90,2.10,0.00,6.99,1.90,1.90,3.83,7.01,11509,2022-06-05 23:30:01.405,2022-06-05 16:30:01.405,16,0,0,16.812,34.182626,-118.129101,0.00,0.00,0.00,-0.70,-0.30,125.10,0,1,0,100,100,-7138,3383,16812,3061.50,10,WP,1,0,0,0,0,0,0,1654471801404,4223,4215,4208,4216,0,0,27,,,,,,,0,0,0,7.00,-3.00,1251.00,0.00,0.00,0.00,14,19.00,0.00,69.94,0.00,0.00,0.00,0,,,100,100,0,2,0,0,0,1,0,,,,,0.0,0.0,0.0,0.0,0.0,0.0,0
34.182563,-118.129091,1.90,2.10,0.00,6.98,1.90,1.90,3.83,7.01,11610,2022-06-05 23:30:01.506,2022-06-05 16:30:01.506,16,0,0,16.812,34.182626,-118.129101,0.00,0.00,0.00,-0.80,0.00,117.40,0,1,0,100,100,-7138,3383,16812,3061.50,10,WP,1,0,0,0,0,0,0,1654471801505,4223,4215,4208,4216,0,0,27,,,,,,,0,0,0,8.00,0.00,1174.00,0.00,0.00,0.00,14,19.00,0.00,69.83,0.00,0.00,0.00,0,,,100,100,0,2,0,0,0,1,0,,,,,0.0,0.0,0.0,0.0,0.0,0.0,0
34.182564,-118.129091,1.90,2.10,0.00,6.98,1.90,1.90,3.83,7.01,11710,2022-06-05 23:30:01.606,2022-06-05 16:30:01.606,16,0,0,16.812,34.182626,-118.129101,0.00,0.00,0.00,-0.80,0.00,109.80,0,1,0,100,100,-7138,3383,16812,3061.50,10,WP,1,0,0,0,0,0,0,1654471801605,4223,4215,4208,4216,0,0,27,,,,,,,0,0,0,8.00,0.00,1098.00,0.00,0.00,0.00,14,19.00,0.00,69.77,0.00,0.00,0.00,0,,,100,100,0,2,0,0,0,1,0,,,,,0.0,0.0,0.0,0.0,0.0,0.0,0
34.182564,-118.129091,1.90,2.10,0.00,6.95,1.90,1.90,3.83,7.01,11810,2022-06-05 23:30:01.705,2022-06-05 16:30:01.705,16,0,0,16.812,34.182626,-118.129101,0.00,0.00,0.00,-0.70,0.10,102.00,0,1,0,100,100,-7138,3383,16812,3061.50,10,WP,1,0,0,0,0,0,0,1654471801705,4223,4215,4208,4216,0,0,27,,,,,,,0,0,0,7.00,1.00,1020.00,0.00,0.00,0.00,14,19.00,0.00,69.50,0.00,0.00,0.00,0,,,100,100,0,2,0,0,0,1,0,,,,,0.0,0.0,0.0,0.0,0.0,0.0,0
34.182564,-118.129091,1.90,2.10,0.00,6.94,1.90,1.90,3.83,7.01,11909,2022-06-05 23:30:01.805,2022-06-05 16:30:01.805,16,0,0,16.812,34.182626,-118.129101,0.00,0.00,0.00,-0.60,0.30,94.30,0,1,0,100,100,-7138,3383,16812,3061.50,10,WP,1,0,0,0,0,0,0,1654471801804,4223,4215,4208,4216,0,0,27,,,,,,,0,0,0,6.00,3.00,943.00,0.00,0.00,0.00,14,19.00,0.00,69.41,0.00,0.00,0.00,0,,,100,100,0,2,0,0,0,1,0,,,,,0.0,0.0,0.0,0.0,0.0,0.0,0
34.182564,-118.129091,1.90,2.10,0.00,6.93,1.90,1.90,3.83,7.01,12010,2022-06-05 23:30:01.905,2022-06-05 16:30:01.905,16,0,0,16.812,34.182626,-118.129101,0.00,0.00,0.00,-0.30,0.60,86.60,0,1,0,100,100,-7138,3383,16812,3061.50,10,WP,1,0,0,0,0,0,0,1654471801905,4223,4215,4208,4216,0,0,27,,,,,,,0,0,0,3.00,6.00,866.00,0.00,0.00,0.00,14,19.00,0.00,69.28,0.00,0.00,0.00,0,,,100,100,0,2,0,0,0,1,0,,,,,0.0,0.0,0.0,0.0,0.0,0.0,0
34.182564,-118.129091,1.90,2.10,0.00,6.92,1.90,1.90,3.83,7.01,12110,2022-06-05 23:30:02.005,2022-06-05 16:30:02.005,16,0,0,16.812,34.182626,-118.129101,0.00,0.00,0.00,-0.20,0.90,79.10,0,1,0,100,100,-7138,3383,16812,3061.50,10,WP,1,0,0,0,0,0,0,1654471802005,4223,4215,4208,4216,0,0,27,,,,,,,0,0,0,2.00,9.00,791.00,0.00,0.00,0.00,14,19.00,0.00,69.17,0.00,0.00,0.00,0,,,100,100,0,2,0,0,0,1,0,,,,,0.0,0.0,0.0,0.0,0.0,0.0,0
34.182564,-118.129091,1.90,2.10,0.00,6.90,1.90,1.90,3.83,7.01,12210,2022-06-05 23:30:02.106,2022-06-05 16:30:02.106,16,0,0,16.812,34.182626,-118.129101,0.00,0.00,0.00,-0.20,0.80,71.50,0,1,0,100,100,-7138,3383,16812,3061.50,10,WP,1,0,0,0,0,0,0,1654471802105,4223,4215,4208,4216,0,0,27,,,,,,,0,0,0,2.00,8.00,715.00,0.00,0.00,0.00,14,19.00,0.00,68.97,0.00,0.00,0.00,0,,,100,100,0,2,0,0,0,1,0,,,,,0.0,0.0,0.0,0.0,0.0,0.0,0
34.182564,-118.129091,1.90,2.10,0.00,6.89,1.90,1.90,3.83,7.01,12310,2022-06-05 23:30:02.206,2022-06-05 16:30:02.206,16,0,0,16.812,34.182626,-118.129101,0.00,0.00,0.00,-0.10,0.90,64.20,0,1,0,100,100,-7138,3383,16812,3061.50,10,WP,1,0,0,0,0,0,0,1654471802205,4223,4215,4208,4216,0,0,27,,,,,,,0,0,0,1.00,9.00,642.00,0.00,0.00,0.00,14,19.00,0.00,68.86,0.00,0.00,0.00,0,,,100,100,0,2,0,0,0,1,0,,,,,0.0,0.0,0.0,0.0,0.0,0.0,0
34.182564,-118.129091,1.90,2.10,0.00,6.88,1.90,1.90,3.83,7.01,12410,2022-06-05 23:30:02.306,2022-06-05 16:30:02.306,16,0,0,16.807,34.182626,-118.129101,0.00,0.00,0.00,0.00,0.90,56.60,0,1,0,100,100,-7388,3379,16807,3061.50,10,WP,1,0,0,0,0,0,0,1654471802305,4223,4215,4208,4216,0,0,27,,,,,,,0,0,0,-0.00,9.00,566.00,0.00,0.00,0.00,14,19.00,0.00,68.75,0.00,0.00,0.00,0,,,100,100,0,2,0,0,0,1,0,,,,,0.0,0.0,0.0,0.0,0.0,0.0,0
34.182565,-118.129091,1.90,2.10,0.00,6.86,1.90,1.90,3.83,7.01,12510,2022-06-05 23:30:02.405,2022-06-05 16:30:02.405,16,0,0,16.807,34.182626,-118.129101,0.00,0.00,0.00,0.30,0.90,49.30,0,1,0,100,100,-7388,3379,16807,3061.50,10,WP,1,0,0,0,0,0,0,1654471802405,4223,4215,4208,4216,0,0,27,,,,,,,0,0,0,-3.00,9.00,493.00,0.00,0.00,0.00,14,19.00,0.00,68.64,0.00,0.00,0.00,0,,,100,100,0,2,0,0,0,1,0,,,,,0.0,0.0,0.0,0.0,0.0,0.0,0
34.182565,-118.129091,1.90,2.10,0.00,6.86,1.90,1.90,3.83,7.01,12610,2022-06-05 23:30:02.505,2022-06-05 16:30:02.505,16,0,0,16.807,34.182626,-118.129101,0.00,0.00,0.00,0.40,0.70,41.80,0,1,0,100,100,-7388,3379,16807,3061.50,10,WP,1,0,0,0,0,0,0,1654471802505,4223,4215,4208,4216,0,0,27,,,,,,,0,0,0,-4.00,7.00,418.00,0.00,0.00,0.00,14,19.00,0.00,68.56,0.00,0.00,0.00,0,,,100,100,0,2,0,0,0,1,0,,,,,0.0,0.0,0.0,0.0,0.0,0.0,0
34.182565,-118.129091,1.90,2.10,0.00,6.84,1.90,1.90,3.83,7.01,12710,2022-06-05 23:30:02.605,2022-06-05 16:30:02.605,16,0,0,16.807,34.182626,-118.129101,0.00,0.00,0.00,0.50,0.70,34.40,0,1,0,100,100,-7388,3379,16807,3061.50,10,WP,1,0,0,0,0,0,0,1654471802605,4223,4215,4208,4216,0,0,27,,,,,,,0,0,0,-5.00,7.00,344.00,0.00,0.00,0.00,14,19.00,0.00,68.45,0.00,0.00,0.00,0,,,100,100,0,2,0,0,0,1,0,,,,,0.0,0.0,0.0,0.0,0.0,0.0,0
34.182565,-118.129091,1.90,2.10,0.00,6.83,1.90,1.90,3.83,7.01,12810,2022-06-05 23:30:02.705,2022-06-05 16:30:02.705,16,0,0,16.807,34.182626,-118.129101,0.00,0.00,0.00,0.60,0.50,27.60,0,1,0,100,100,-7388,3379,16807,3061.50,10,WP,1,0,0,0,0,0,0,1654471802705,4223,4215,4208,4216,0,0,27,,,,,,,0,0,0,-6.00,5.00,276.00,0.00,0.00,0.00,14,19.00,0.00,68.33,0.00,0.00,0.00,0,,,100,100,0,2,0,0,0,1,0,,,,,0.0,0.0,0.0,0.0,0.0,0.0,0
34.182565,-118.129091,1.90,2.10,0.00,6.82,1.90,1.90,3.83,7.01,12911,2022-06-05 23:30:02.806,2022-06-05 16:30:02.806,16,0,0,16.807,34.182626,-118.129101,0.00,0.00,0.00,0.80,0.60,22.10,0,1,0,100,100,-7388,3379,16807,3061.50,10,WP,1,0,0,0,0,0,0,1654471802806,4223,4215,4208,4216,0,0,27,,,,,,,0,0,0,-8.00,6.00,221.00,0.00,0.00,0.00,14,19.00,0.00,68.22,0.00,0.00,0.00,0,,,100,100,0,2,0,0,0,1,0,,,,,0.0,0.0,0.0,0.0,0.0,0.0,0
34.182565,-118.129090,1.90,2.10,0.00,6.83,1.90,1.90,3.83,7.01,13009,2022-06-05 23:30:02.905,2022-06-05 16:30:02.905,16,0,0,16.807,34.182626,-118.129101,0.00,0.00,0.00,0.90,0.60,17.70,0,1,0,100,100,-7388,3379,16807,3061.50,10,WP,1,0,0,0,0,0,0,1654471802904,4223,4215,4208,4216,0,0,27,,,,,,,0,0,0,-9.00,6.00,177.00,0.00,0.00,0.00,14,19.00,0.00,68.27,0.00,0.00,0.00,0,,,100,100,0,2,0,0,0,1,0,,,,,0.0,0.0,0.0,0.0,0.0,0.0,0
34.182565,-118.129090,1.90,2.10,0.00,6.82,1.90,1.90,3.83,7.01,13111,2022-06-05 23:30:03.007,2022-06-05 16:30:03.007,16,0,0,16.807,34.182626,-118.129101,0.00,0.00,0.00,0.80,0.50,14.10,0,1,0,100,100,-7388,3379,16807,3061.50,10,WP,1,0,0,0,0,0,0,1654471803006,4223,4215,4208,4216,0,0,27,,,,,,,0,0,0,-8.00,5.00,141.00,0.00,0.00,0.00,14,19.00,0.00,68.18,0.00,0.00,0.00,0,,,100,100,0,2,0,0,0,1,0,,,,,0.0,0.0,0.0,0.0,0.0,0.0,0
34.182565,-118.129090,1.90,2.10,0.00,6.80,1.90,1.90,3.83,7.01,13212,2022-06-05 23:30:03.108,2022-06-05 16:30:03.108,16,0,0,16.807,34.182626,-118.129101,0.00,0.00,0.00,0.90,0.50,11.20,0,1,0,100,100,-7388,3379,16807,3061.50,10,WP,1,0,0,0,0,0,0,1654471803107,4223,4215,4208,4216,0,0,27,,,,,,,0,0,0,-9.00,5.00,112.00,0.00,0.00,0.00,14,19.00,0.00,67.98,0.00,0.00,0.00,0,,,100,100,0,2,0,0,0,1,0,,,,,0.0,0.0,0.0,0.0,0.0,0.0,0
34.182565,-118.129090,1.90,2.10,0.00,6.79,1.90,1.90,3.83,7.01,13312,2022-06-05 23:30:03.207,2022-06-05 16:30:03.207,16,0,0,16.807,34.182626,-118.129101,0.00,0.00,0.00,1.10,0.50,8.90,0,1,0,100,100,-7388,3379,16807,3061.50,10,WP,1,0,0,0,0,0,0,1654471803207,4223,4215,4208,4216,0,0,27,,,,,,,0,0,0,-11.00,5.00,89.00,0.00,0.00,0.00,14,19.00,0.00,67.89,0.00,0.00,0.00,0,,,100,100,0,2,0,0,0,1,0,,,,,0.0,0.0,0.0,0.0,0.0,0.0,0
34.182565,-118.129090,1.90,2.10,0.00,6.79,1.90,1.90,3.83,7.01,13411,2022-06-05 23:30:03.306,2022-06-05 16:30:03.306,16,0,0,16.807,34.182626,-118.129101,0.00,0.00,0.00,1.20,0.70,7.00,0,1,0,100,100,-7388,3379,16807,3061.50,10,WP,1,0,0,0,0,0,0,1654471803306,4223,4215,4208,4216,0,0,27,,,,,,,0,0,0,-12.00,7.00,70.00,0.00,0.00,0.00,14,19.00,0.00,67.86,0.00,0.00,0.00,0,,,100,100,0,2,0,0,0,1,0,,,,,0.0,0.0,0.0,0.0,0.0,0.0,0
34.182565,-118.129090,1.90,2.10,0.00,6.78,1.90,1.90,3.83,7.01,13512,2022-06-05 23:30:03.407,2022-06-05 16:30:03.407,16,0,0,16.807,34.182626,-118.129101,0.00,0.00,0.00,1.20,0.80,5.50,0,1,0,100,100,-7388,3379,16807,3061.50,10,WP,1,0,0,0,0,0,0,1654471803407,4223,4215,4208,4216,0,0,27,,,,,,,0,0,0,-12.00,8.00,55.00,0.00,0.00,0.00,14,19.00,0.00,67.80,0.00,0.00,0.00,0,,,100,100,0,2,0,0,0,1,0,,,,,0.0,0.0,0.0,0.0,0.0,0.0,0
34.182565,-118.129091,1.90,2.10,0.00,6.79,1.90,1.90,3.83,7.01,13611,2022-06-05 23:30:03.507,2022-06-05 16:30:03.507,16,0,0,16.807,34.182626,-118.129101,0.00,0.00,0.00,1.00,0.80,4.50,0,1,0,100,100,-7388,3379,16807,3061.50,10,WP,1,0,0,0,0,0,0,1654471803506,4223,4215,4208,4216,0,0,27,,,,,,,0,0,0,-10.00,8.00,45.00,0.00,0.00,0.00,14,19.00,0.00,67.89,0.00,0.00,0.00,0,,,100,100,0,2,0,0,0,1,0,,,,,0.0,0.0,0.0,0.0,0.0,0.0,0
34.182565,-118.129091,1.90,2.10,0.00,6.79,1.90,1.90,3.83,7.01,13711,2022-06-05 23:30:03.607,2022-06-05 16:30:03.607,16,0,0,16.807,34.182626,-118.129101,0.00,0.00,0.00,-0.10,1.00,4.50,0,1,0,100,100,-7388,3379,16807,3061.50,10,WP,1,0,0,0,0,0,0,1654471803606,4223,4215,4208,4216,0,0,27,,,,,,,0,0,0,1.00,10.00,45.00,0.00,0.00,0.00,14,19.00,0.00,67.86,0.00,0.00,0.00,0,,,100,100,0,2,0,0,0,1,0,,,,,0.0,0.0,0.0,0.0,0.0,0.0,0
