latitude,longitude,altitude(m),ultrasonicHeight(m),speed(mps),distance(m),max_altitude(m),max_ascent(m),max_speed(mps),max_distance(m),time(millisecond),datetime(utc),datetime(local),satellites,pressure(Pa),temperature(F),voltage(v),home_latitude,home_longitude,velocityX(mps),velocityY(mps),velocityZ(mps),pitch(deg),roll(deg),yaw(deg),powerlevel,isflying,istakingphoto,remainPowerPercent,remainLifePercent,currentCurrent,currentElectricity,currentVoltage,batteryTemperature,dischargeCount,flightmode,isMotorsOn,isTakingVideo,Rc_elevator,Rc_aileron,Rc_throttle,Rc_rudder,Rc_gyro,timestamp,Battery_Cell1,Battery_Cell2,Battery_Cell3,Battery_Cell4,Battery_Cell5,Battery_Cell6,Dronetype,AppVersion,Planename,FlyControllerSerialNumber,RemoteSerialNumber,BatterySerialNumber,CENTER_BATTERY.productDate,CENTER_BATTERY.serialNo,CENTER_BATTERY.fullCapacity,CENTER_BATTERY.productDateRaw,pitchRaw,rollRaw,yawRaw,gimbalPitchRaw,gimbalRollRaw,gimbalYawRaw,flyState,altitudeRaw,speedRaw,distanceRaw,velocityXRaw,velocityYRaw,velocityZRaw,data_reuse,App_Tip,App_Warning,downlinkSignalQuality,uplinkSignalQuality,transmissionChannel,rcModeSwitch,rcHome,rcPause,rcTransform,rcJoystickMode,appMode,FlyControllerSerialNumber_legacy,RemoteSerialNumber_legacy,BatterySerialNumber_legacy,Battery2SerialNumber,frontAvoidDist,backAvoidDist,rightAvoidDist,leftAvoidDist,upAvoidDist,downAvoidDist,isBrakingToAvoid
34.182640,-118.129090,0.30,0.40,0.40,0.15,0.30,0.30,0.40,0.15,1,2022-06-05 22:55:16.518,2022-06-05 15:55:16.518,17,0,0,16.638,34.182639,-118.129091,0.00,0.00,-0.40,0.00,-1.80,0.00,0,1,0,91,100,-6907,3297,16638,3091.50,4,TakeOff,1,0,0,0,0,0,0,1654469716517,4219,4217,4242,4239,0,0,27,Litchi_iOS_2.14.0,Brian-MAVIC 2,163DFCK001S13F,1DUCFB800104PR,0P2AG3L53400KG,,0,3645,0,-0.00,-18.00,0.00,-368.00,-695.00,1621.00,11,3.00,4.00,1.50,0.00,0.00,-4.00,0,,,100,100,0,2,0,0,0,1,0,(null),(null),,,0.0,5.5,0.0,0.0,0.0,0.0,0
34.182640,-118.129090,0.40,0.40,0.40,0.15,0.40,0.40,0.40,0.15,100,2022-06-05 22:55:16.617,2022-06-05 15:55:16.617,17,0,0,16.638,34.182639,-118.129091,0.00,0.00,-0.40,-0.60,-1.70,0.10,0,1,0,91,100,-6907,3297,16638,3091.50,4,TakeOff,1,0,0,0,0,0,0,1654469716616,4219,4217,4242,4239,0,0,27,,,,,,,0,0,0,6.00,-17.00,1.00,-368.00,-695.00,1621.00,11,4.00,4.00,1.46,0.00,0.00,-4.00,0,,,100,100,0,2,0,0,0,1,0,,,,,0.0,5.5,0.0,0.0,0.0,0.0,0
34.182640,-118.129090,0.40,0.50,0.40,0.15,0.40,0.40,0.40,0.15,201,2022-06-05 22:55:16.718,2022-06-05 15:55:16.718,17,0,0,16.638,34.182639,-118.129091,0.00,0.00,-0.40,-1.10,-1.70,0.20,0,1,0,91,100,-6907,3297,16638,3091.50,4,TakeOff,1,0,0,0,0,0,0,1654469716717,4219,4217,4242,4239,0,0,27,,,,,,,0,0,0,11.00,-17.00,2.00,-368.00,-695.00,1621.00,11,4.00,4.00,1.47,0.00,0.00,-4.00,0,,,100,100,0,2,0,0,0,1,0,,,,,0.0,5.6,0.0,0.0,0.0,0.0,0
34.182640,-118.129090,0.50,0.50,0.40,0.15,0.50,0.50,0.40,0.15,301,2022-06-05 22:55:16.818,2022-06-05 15:55:16.818,17,0,0,16.638,34.182639,-118.129091,0.00,0.00,-0.40,-1.30,-1.50,0.20,0,1,0,91,100,-6907,3297,16638,3091.50,4,TakeOff,1,0,0,0,0,0,0,1654469716817,4219,4217,4242,4239,0,0,27,,,,,,,0,0,0,13.00,-15.00,2.00,-368.00,-695.00,1621.00,11,5.00,4.00,1.46,0.00,0.00,-4.00,0,,,100,100,0,2,0,0,0,1,0,,,,,0.0,5.6,0.0,0.0,0.0,0.0,0
34.182640,-118.129090,0.50,0.60,0.40,0.15,0.50,0.50,0.40,0.15,401,2022-06-05 22:55:16.917,2022-06-05 15:55:16.917,17,0,0,16.638,34.182639,-118.129091,0.00,0.00,-0.40,-1.30,-1.50,0.20,0,1,0,91,100,-6907,3297,16638,3091.50,4,TakeOff,1,0,0,0,0,0,0,1654469716917,4219,4217,4242,4239,0,0,27,,,,,,,0,0,0,13.00,-15.00,2.00,-368.00,-695.00,1621.00,11,5.00,4.00,1.48,0.00,0.00,-4.00,0,,,100,100,0,2,0,0,0,1,0,,,,,0.0,5.5,0.0,0.0,0.0,0.0,0
34.182640,-118.129090,0.60,0.60,0.50,0.14,0.60,0.60,0.50,0.15,501,2022-06-05 22:55:17.017,2022-06-05 15:55:17.017,17,0,0,16.638,34.182639,-118.129091,0.00,0.00,-0.50,-1.30,-1.60,0.20,0,1,0,91,100,-6907,3297,16638,3091.50,4,TakeOff,1,0,0,0,0,0,0,1654469717017,4219,4217,4242,4239,0,0,27,,,,,,,0,0,0,13.00,-16.00,2.00,-368.00,-695.00,1621.00,11,6.00,5.00,1.41,0.00,0.00,-5.00,0,,,100,100,0,2,0,0,0,1,0,,,,,0.0,5.5,0.0,0.0,0.0,0.0,0
34.182640,-118.129090,0.60,0.70,0.40,0.14,0.60,0.60,0.50,0.15,601,2022-06-05 22:55:17.117,2022-06-05 15:55:17.117,17,0,0,16.638,34.182639,-118.129091,0.00,0.00,-0.40,-1.30,-1.60,0.20,0,1,0,91,100,-6907,3297,16638,3091.50,4,TakeOff,1,0,0,0,0,0,0,1654469717117,4219,4217,4242,4239,0,0,27,,,,,,,0,0,0,13.00,-16.00,2.00,-368.00,-695.00,1621.00,11,6.00,4.00,1.45,0.00,0.00,-4.00,0,,,100,100,0,2,0,0,0,1,0,,,,,0.0,5.5,0.0,0.0,0.0,0.0,0
34.182640,-118.129090,0.70,0.70,0.40,0.15,0.70,0.70,0.50,0.15,700,2022-06-05 22:55:17.217,2022-06-05 15:55:17.217,17,0,0,16.638,34.182639,-118.129091,0.00,0.00,-0.40,-1.10,-1.70,0.10,0,1,0,91,100,-6907,3297,16638,3091.50,4,TakeOff,1,0,0,0,0,0,0,1654469717216,4219,4217,4242,4239,0,0,27,,,,,,,0,0,0,11.00,-17.00,1.00,-368.00,-695.00,1621.00,11,7.00,4.00,1.53,0.00,0.00,-4.00,0,,,100,100,0,2,0,0,0,1,0,,,,,0.0,5.5,0.0,0.0,0.0,0.0,0
34.182640,-118.129090,0.70,0.80,0.40,0.16,0.70,0.70,0.50,0.16,801,2022-06-05 22:55:17.317,2022-06-05 15:55:17.317,17,0,0,16.638,34.182639,-118.129091,0.00,0.00,-0.40,-0.90,-1.60,0.20,0,1,0,91,100,-6907,3297,16638,3091.50,4,TakeOff,1,0,0,0,0,0,0,1654469717317,4219,4217,4242,4239,0,0,27,,,,,,,0,0,0,9.00,-16.00,2.00,-368.00,-695.00,1621.00,11,7.00,4.00,1.57,0.00,0.00,-4.00,0,,,100,100,0,2,0,0,0,1,0,,,,,0.0,5.5,0.0,0.0,0.0,0.0,0
34.182640,-118.129089,0.80,0.80,0.50,0.17,0.80,0.80,0.50,0.17,900,2022-06-05 22:55:17.417,2022-06-05 15:55:17.417,17,0,0,16.638,34.182639,-118.129091,0.00,0.00,-0.50,-0.90,-1.40,0.30,0,1,0,91,100,-6907,3297,16638,3091.50,4,TakeOff,1,0,0,0,0,0,0,1654469717416,4219,4217,4242,4239,0,0,27,,,,,,,0,0,0,9.00,-14.00,3.00,-368.00,-695.00,1621.00,11,8.00,5.00,1.67,0.00,0.00,-5.00,0,,,100,100,0,2,0,0,0,1,0,,,,,0.0,5.5,0.0,0.0,0.0,0.0,0
34.182640,-118.129089,0.80,0.90,0.50,0.17,0.80,0.80,0.50,0.17,1001,2022-06-05 22:55:17.518,2022-06-05 15:55:17.518,17,0,0,16.638,34.182639,-118.129091,0.00,0.00,-0.50,-0.80,-1.40,0.30,0,1,0,91,100,-6907,3297,16638,3091.50,4,TakeOff,1,0,0,0,0,0,0,1654469717517,4219,4217,4242,4239,0,0,27,,,,,,,0,0,0,8.00,-14.00,3.00,-368.00,-695.00,1621.00,11,8.00,5.00,1.73,0.00,0.00,-5.00,0,,,100,100,0,2,0,0,0,1,0,,,,,0.0,5.5,0.0,0.0,0.0,0.0,0
34.182640,-118.129090,0.90,0.90,0.50,0.16,0.90,0.90,0.50,0.17,1101,2022-06-05 22:55:17.617,2022-06-05 15:55:17.617,17,0,0,16.638,34.182639,-118.129091,0.00,0.00,-0.50,-0.40,-1.80,0.30,0,1,0,91,100,-6907,3297,16638,3091.50,4,TakeOff,1,0,0,0,0,0,0,1654469717617,4219,4217,4242,4239,0,0,27,,,,,,,0,0,0,4.00,-18.00,3.00,-368.00,-695.00,1621.00,11,9.00,5.00,1.58,0.00,0.00,-5.00,0,,,100,100,0,2,0,0,0,1,0,,,,,0.0,5.5,0.0,0.0,0.0,0.0,0
34.182640,-118.129089,0.90,1.00,0.50,0.16,0.90,0.90,0.50,0.17,1201,2022-06-05 22:55:17.717,2022-06-05 15:55:17.717,17,0,0,16.638,34.182639,-118.129091,0.00,0.00,-0.50,0.00,-1.70,0.40,0,1,0,91,100,-6907,3297,16638,3091.50,4,TakeOff,1,0,0,0,0,0,0,1654469717717,4219,4217,4242,4239,0,0,27,,,,,,,0,0,0,-0.00,-17.00,4.00,-368.00,-695.00,1621.00,11,9.00,5.00,1.63,0.00,0.00,-5.00,0,,,100,100,0,2,0,0,0,1,0,,,,,0.0,13.4,0.0,0.0,0.0,0.0,0
34.182640,-118.129089,0.90,1.00,0.40,0.17,0.90,0.90,0.50,0.17,1301,2022-06-05 22:55:17.817,2022-06-05 15:55:17.817,17,0,0,16.638,34.182639,-118.129091,0.00,0.00,-0.40,0.10,-1.50,0.50,0,1,0,91,100,-6907,3297,16638,3091.50,4,TakeOff,1,0,0,0,0,0,0,1654469717817,4219,4217,4242,4239,0,0,27,,,,,,,0,0,0,-1.00,-15.00,5.00,-368.00,-695.00,1621.00,11,9.00,4.00,1.67,0.00,0.00,-4.00,0,,,100,100,0,2,0,0,0,1,0,,,,,0.0,13.4,0.0,0.0,0.0,0.0,0
34.182640,-118.129089,1.00,1.10,0.40,0.17,1.00,1.00,0.50,0.17,1402,2022-06-05 22:55:17.918,2022-06-05 15:55:17.918,17,0,0,16.638,34.182639,-118.129091,0.00,0.00,-0.40,0.30,-1.60,0.50,0,1,0,91,100,-6907,3297,16638,3091.50,4,TakeOff,1,0,0,0,0,0,0,1654469717918,4219,4217,4242,4239,0,0,27,,,,,,,0,0,0,-3.00,-16.00,5.00,-368.00,-695.00,1621.00,11,10.00,4.00,1.71,0.00,0.00,-4.00,0,,,100,100,0,2,0,0,0,1,0,,,,,0.0,5.5,0.0,0.0,0.0,0.0,0
34.182640,-118.129090,1.00,1.10,0.40,0.18,1.00,1.00,0.50,0.18,1501,2022-06-05 22:55:18.017,2022-06-05 15:55:18.017,17,0,0,16.638,34.182639,-118.129091,0.00,0.00,-0.40,0.40,-1.20,0.50,0,1,0,91,100,-6907,3297,16638,3091.50,4,WP,1,0,0,0,0,0,0,1654469718017,4219,4217,4242,4239,0,0,27,,,,,,,0,0,0,-4.00,-12.00,5.00,-368.00,-695.00,1621.00,14,10.00,4.00,1.77,0.00,0.00,-4.00,0,,,100,100,0,2,0,0,0,1,0,,,,,0.0,5.5,0.0,0.0,0.0,0.0,0
34.182640,-118.129090,1.10,1.10,0.40,0.18,1.10,1.10,0.50,0.18,1601,2022-06-05 22:55:18.117,2022-06-05 15:55:18.117,17,0,0,16.638,34.182639,-118.129091,0.00,0.00,-0.40,0.50,-0.80,0.10,0,1,0,91,100,-6907,3297,16638,3091.50,4,WP,1,0,0,0,0,0,0,1654469718117,4219,4217,4242,4239,0,0,27,,,,,,,0,0,0,-5.00,-8.00,1.00,-368.00,-695.00,1621.00,14,11.00,4.00,1.79,0.00,0.00,-4.00,0,,,100,100,0,2,0,0,0,1,0,,,,,0.0,5.5,0.0,0.0,0.0,0.0,0
34.182640,-118.129089,1.10,1.20,0.40,0.18,1.10,1.10,0.50,0.18,1701,2022-06-05 22:55:18.218,2022-06-05 15:55:18.218,17,0,0,16.638,34.182639,-118.129091,0.00,0.00,-0.40,0.40,-0.70,-0.70,0,1,0,91,100,-6907,3297,16638,3091.50,4,WP,1,0,0,0,0,0,0,1654469718217,4219,4217,4242,4239,0,0,27,,,,,,,0,0,0,-4.00,-7.00,-7.00,-368.00,-695.00,1621.00,14,11.00,4.00,1.78,0.00,0.00,-4.00,0,,,100,100,0,2,0,0,0,1,0,,,,,0.0,5.5,0.0,0.0,0.0,0.0,0
34.182640,-118.129089,1.20,1.20,0.40,0.18,1.20,1.20,0.50,0.18,1801,2022-06-05 22:55:18.317,2022-06-05 15:55:18.317,17,0,0,16.638,34.182639,-118.129091,0.00,0.00,-0.40,0.20,-0.70,-2.20,0,1,0,91,100,-6907,3297,16638,3091.50,4,WP,1,0,0,0,0,0,0,1654469718317,4219,4217,4242,4239,0,0,27,,,,,,,0,0,0,-2.00,-7.00,-22.00,-368.00,-695.00,1621.00,14,12.00,4.00,1.78,0.00,0.00,-4.00,0,,,100,100,0,2,0,0,0,1,0,,,,,0.0,6.1,0.0,0.0,0.0,0.0,0
34.182640,-118.129089,1.20,1.30,0.40,0.19,1.20,1.20,0.50,0.19,1902,2022-06-05 22:55:18.418,2022-06-05 15:55:18.418,17,0,0,16.560,34.182639,-118.129091,0.00,0.00,-0.40,0.00,-0.80,-4.30,0,1,0,91,100,-8745,3292,16560,3091.50,4,WP,1,0,0,0,0,0,0,1654469718418,4219,4217,4242,4239,0,0,27,,,,,,,0,0,0,-0.00,-8.00,-43.00,-368.00,-695.00,1621.00,14,12.00,4.00,1.91,0.00,0.00,-4.00,0,,,100,100,0,2,0,0,0,1,0,,,,,0.0,6.1,0.0,0.0,0.0,0.0,0
34.182640,-118.129089,1.20,1.30,0.40,0.19,1.20,1.20,0.50,0.19,2001,2022-06-05 22:55:18.518,2022-06-05 15:55:18.518,17,0,0,16.560,34.182639,-118.129091,0.00,0.00,-0.40,-0.10,-0.80,-7.00,0,1,0,91,100,-8745,3292,16560,3091.50,4,WP,1,0,0,0,0,0,0,1654469718517,4219,4217,4242,4239,0,0,27,,,,,,,0,0,0,1.00,-8.00,-70.00,-368.00,-695.00,1621.00,14,12.00,4.00,1.92,0.00,0.00,-4.00,0,,,100,100,0,2,0,0,0,1,0,,,,,0.0,0.0,0.0,0.0,0.0,0.0,0
34.182640,-118.129090,1.30,1.40,0.40,0.19,1.30,1.30,0.50,0.19,2101,2022-06-05 22:55:18.618,2022-06-05 15:55:18.618,17,0,0,16.560,34.182639,-118.129091,0.00,0.00,-0.40,-0.20,-0.50,-10.20,0,1,0,91,100,-8745,3292,16560,3091.50,4,WP,1,0,0,0,0,0,0,1654469718617,4219,4217,4242,4239,0,0,27,,,,,,,0,0,0,2.00,-5.00,-102.00,-368.00,-695.00,1621.00,14,13.00,4.00,1.89,0.00,0.00,-4.00,0,,,100,100,0,2,0,0,0,1,0,,,,,0.0,0.0,0.0,0.0,0.0,0.0,0
34.182640,-118.129090,1.30,1.40,0.40,0.19,1.30,1.30,0.50,0.19,2203,2022-06-05 22:55:18.720,2022-06-05 15:55:18.720,17,0,0,16.560,34.182639,-118.129091,0.00,0.00,-0.40,-0.20,-0.40,-13.90,0,1,0,91,100,-8745,3292,16560,3091.50,4,WP,1,0,0,0,0,0,0,1654469718719,4219,4217,4242,4239,0,0,27,,,,,,,0,0,0,2.00,-4.00,-139.00,-368.00,-695.00,1621.00,14,13.00,4.00,1.90,0.00,0.00,-4.00,0,,,100,100,0,2,0,0,0,1,0,,,,,0.0,0.0,0.0,0.0,0.0,0.0,0
34.182640,-118.129089,1.40,1.40,0.40,0.20,1.40,1.40,0.50,0.20,2303,2022-06-05 22:55:18.819,2022-06-05 15:55:18.819,17,0,0,16.560,34.182639,-118.129091,0.00,0.00,-0.40,-0.30,-0.50,-18.20,0,1,0,91,100,-8745,3292,16560,3091.50,4,WP,1,0,0,0,0,0,0,1654469718819,4219,4217,4242,4239,0,0,27,,,,,,,0,0,0,3.00,-5.00,-182.00,-368.00,-695.00,1621.00,14,14.00,4.00,2.02,0.00,0.00,-4.00,0,,,100,100,0,2,0,0,0,1,0,,,,,0.0,0.0,0.0,0.0,0.0,0.0,0
34.182640,-118.129089,1.40,1.50,0.40,0.21,1.40,1.40,0.50,0.21,2402,2022-06-05 22:55:18.918,2022-06-05 15:55:18.919,17,0,0,16.560,34.182639,-118.129091,0.00,0.00,-0.40,-0.50,-0.90,-23.10,0,1,0,91,100,-8745,3292,16560,3091.50,4,WP,1,0,0,0,0,0,0,1654469718918,4219,4217,4242,4239,0,0,27,,,,,,,0,0,0,5.00,-9.00,-231.00,-368.00,-695.00,1621.00,14,14.00,4.00,2.06,0.00,0.00,-4.00,0,,,100,100,0,2,0,0,0,1,0,,,,,0.0,0.0,0.0,0.0,0.0,0.0,0
34.182640,-118.129089,1.50,1.50,0.50,0.19,1.50,1.50,0.50,0.21,2503,2022-06-05 22:55:19.019,2022-06-05 15:55:19.019,17,0,0,16.560,34.182639,-118.129091,0.00,0.00,-0.50,-0.70,-1.10,-28.60,0,1,0,91,100,-8745,3292,16560,3091.50,4,WP,1,0,0,0,0,0,0,1654469719019,4219,4217,4242,4239,0,0,27,,,,,,,0,0,0,7.00,-11.00,-286.00,-368.00,-695.00,1621.00,14,15.00,5.00,1.91,0.00,0.00,-5.00,0,,,100,100,0,2,0,0,0,1,0,,,,,0.0,0.0,0.0,0.0,0.0,0.0,0
34.182640,-118.129089,1.50,1.60,0.40,0.19,1.50,1.50,0.50,0.21,2603,2022-06-05 22:55:19.119,2022-06-05 15:55:19.119,17,0,0,16.560,34.182639,-118.129091,0.00,0.00,-0.40,-0.70,-1.20,-34.70,0,1,0,91,100,-8745,3292,16560,3091.50,4,WP,1,0,0,0,0,0,0,1654469719119,4219,4217,4242,4239,0,0,27,,,,,,,0,0,0,7.00,-12.00,-347.00,-368.00,-695.00,1621.00,14,15.00,4.00,1.93,0.00,0.00,-4.00,0,,,100,100,0,2,0,0,0,1,0,,,,,0.0,0.0,0.0,0.0,0.0,0.0,0
34.182640,-118.129089,1.60,1.60,0.40,0.20,1.60,1.60,0.50,0.21,2703,2022-06-05 22:55:19.220,2022-06-05 15:55:19.220,17,0,0,16.560,34.182639,-118.129091,0.00,0.00,-0.40,-0.80,-1.30,-41.30,0,1,0,91,100,-8745,3292,16560,3091.50,4,WP,1,0,0,0,0,0,0,1654469719219,4219,4217,4242,4239,0,0,27,,,,,,,0,0,0,8.00,-13.00,-413.00,-368.00,-695.00,1621.00,14,16.00,4.00,2.00,0.00,0.00,-4.00,0,,,100,100,0,2,0,0,0,1,0,,,,,0.0,0.0,0.0,0.0,0.0,0.0,0
34.182640,-118.129089,1.60,1.70,0.30,0.20,1.60,1.60,0.50,0.21,2804,2022-06-05 22:55:19.320,2022-06-05 15:55:19.320,17,0,0,16.560,34.182639,-118.129091,0.00,0.00,-0.30,-0.90,-1.30,-48.50,0,1,0,91,100,-8745,3292,16560,3091.50,4,WP,1,0,0,0,0,0,0,1654469719320,4219,4217,4242,4239,0,0,27,,,,,,,0,0,0,9.00,-13.00,-485.00,-368.00,-695.00,1621.00,14,16.00,3.00,2.02,0.00,0.00,-3.00,0,,,100,100,0,2,0,0,0,1,0,,,,,0.0,0.0,0.0,0.0,0.0,0.0,0
34.182640,-118.129089,1.70,1.70,0.30,0.18,1.70,1.70,0.50,0.21,2906,2022-06-05 22:55:19.423,2022-06-05 15:55:19.423,17,0,0,16.560,34.182639,-118.129091,0.00,0.00,-0.30,-1.00,-1.20,-56.10,0,1,0,91,100,-8745,3292,16560,3091.50,4,WP,1,0,0,0,0,0,0,1654469719422,4219,4217,4242,4239,0,0,27,,,,,,,0,0,0,10.00,-12.00,-561.00,-368.00,-695.00,1621.00,14,17.00,3.00,1.85,0.00,0.00,-3.00,0,,,100,100,0,2,0,0,0,1,0,,,,,0.0,0.0,0.0,0.0,0.0,0.0,0
34.182640,-118.129089,1.70,1.80,0.20,0.18,1.70,1.70,0.50,0.21,3006,2022-06-05 22:55:19.522,2022-06-05 15:55:19.522,17,0,0,16.560,34.182639,-118.129091,0.00,0.00,-0.20,-0.80,-0.70,-63.50,0,1,0,91,100,-8745,3292,16560,3091.50,4,WP,1,0,0,0,0,0,0,1654469719522,4219,4217,4242,4239,0,0,27,,,,,,,0,0,0,8.00,-7.00,-635.00,-368.00,-695.00,1621.00,14,17.00,2.00,1.83,0.00,0.00,-2.00,0,,,100,100,0,2,0,0,0,1,0,,,,,0.0,0.0,0.0,0.0,0.0,0.0,0
34.182640,-118.129089,1.70,1.80,0.20,0.19,1.70,1.70,0.50,0.21,3111,2022-06-05 22:55:19.628,2022-06-05 15:55:19.628,17,0,0,16.560,34.182639,-118.129091,0.00,0.00,-0.20,-0.60,-0.20,-71.00,0,1,0,91,100,-8745,3292,16560,3091.50,4,WP,1,0,0,0,0,0,0,1654469719627,4219,4217,4242,4239,0,0,27,,,,,,,0,0,0,6.00,-2.00,-710.00,-368.00,-695.00,1621.00,14,17.00,2.00,1.91,0.00,0.00,-2.00,0,,,100,100,0,2,0,0,0,1,0,,,,,0.0,0.0,0.0,0.0,0.0,0.0,0
34.182640,-118.129089,1.70,1.80,0.20,0.19,1.70,1.70,0.50,0.21,3203,2022-06-05 22:55:19.720,2022-06-05 15:55:19.720,17,0,0,16.560,34.182639,-118.129091,0.00,0.00,-0.20,-0.50,0.10,-78.40,0,1,0,91,100,-8745,3292,16560,3091.50,4,WP,1,0,0,0,0,0,0,1654469719719,4219,4217,4242,4239,0,0,27,,,,,,,0,0,0,5.00,1.00,-784.00,-368.00,-695.00,1621.00,14,17.00,2.00,1.89,0.00,0.00,-2.00,0,,,100,100,0,2,0,0,0,1,0,,,,,0.0,0.0,0.0,0.0,0.0,0.0,0
34.182640,-118.129089,1.80,1.80,0.20,0.18,1.80,1.80,0.50,0.21,3303,2022-06-05 22:55:19.820,2022-06-05 15:55:19.820,17,0,0,16.560,34.182639,-118.129091,0.00,0.00,-0.20,-0.50,0.30,-85.90,0,1,0,91,100,-8745,3292,16560,3091.50,4,WP,1,0,0,0,0,0,0,1654469719819,4219,4217,4242,4239,0,0,27,,,,,,,0,0,0,5.00,3.00,-859.00,-368.00,-695.00,1621.00,14,18.00,2.00,1.82,0.00,0.00,-2.00,0,,,100,100,0,2,0,0,0,1,0,,,,,0.0,0.0,0.0,0.0,0.0,0.0,0
34.182640,-118.129089,1.80,1.80,0.10,0.18,1.80,1.80,0.50,0.21,3403,2022-06-05 22:55:19.920,2022-06-05 15:55:19.920,17,0,0,16.560,34.182639,-118.129091,0.00,0.00,-0.10,-0.70,0.40,-93.40,0,1,0,91,100,-8745,3292,16560,3091.50,4,WP,1,0,0,0,0,0,0,1654469719919,4219,4217,4242,4239,0,0,27,,,,,,,0,0,0,7.00,4.00,-934.00,-368.00,-695.00,1621.00,14,18.00,1.00,1.80,0.00,0.00,-1.00,0,,,100,100,0,2,0,0,0,1,0,,,,,0.0,0.0,0.0,0.0,0.0,0.0,0
34.182640,-118.129090,1.80,1.90,0.10,0.18,1.80,1.80,0.50,0.21,3504,2022-06-05 22:55:20.020,2022-06-05 15:55:20.020,17,0,0,16.560,34.182639,-118.129091,0.00,0.00,-0.10,-0.90,0.30,-101.00,0,1,0,91,100,-8745,3292,16560,3091.50,4,WP,1,0,0,0,0,0,0,1654469720020,4219,4217,4242,4239,0,0,27,,,,,,,0,0,0,9.00,3.00,-1010.00,-368.00,-695.00,1621.00,14,18.00,1.00,1.79,0.00,0.00,-1.00,0,,,100,100,0,2,0,0,0,1,0,,,,,0.0,0.0,0.0,0.0,0.0,0.0,0
34.182640,-118.129090,1.80,1.90,0.10,0.18,1.80,1.80,0.50,0.21,3621,2022-06-05 22:55:20.137,2022-06-05 15:55:20.138,17,0,0,16.560,34.182639,-118.129091,0.00,0.00,-0.10,-0.90,0.20,-108.50,0,1,0,91,100,-8745,3292,16560,3091.50,4,WP,1,0,0,0,0,0,0,1654469720137,4219,4217,4242,4239,0,0,27,,,,,,,0,0,0,9.00,2.00,-1085.00,-368.00,-695.00,1621.00,14,18.00,1.00,1.78,0.00,0.00,-1.00,0,,,100,100,0,2,0,0,0,1,0,,,,,0.0,0.0,0.0,0.0,0.0,0.0,0
34.182640,-118.129089,1.80,1.90,0.10,0.18,1.80,1.80,0.50,0.21,3705,2022-06-05 22:55:20.222,2022-06-05 15:55:20.222,17,0,0,16.560,34.182639,-118.129091,0.00,0.00,-0.10,-1.00,0.20,-116.10,0,1,0,91,100,-8745,3292,16560,3091.50,4,WP,1,0,0,0,0,0,0,1654469720221,4219,4217,4242,4239,0,0,27,,,,,,,0,0,0,10.00,2.00,-1161.00,-368.00,-695.00,1621.00,14,18.00,1.00,1.84,0.00,0.00,-1.00,0,,,100,100,0,2,0,0,0,1,0,,,,,0.0,0.0,0.0,0.0,0.0,0.0,0
34.182640,-118.129089,1.80,1.90,0.10,0.18,1.80,1.80,0.50,0.21,3806,2022-06-05 22:55:20.323,2022-06-05 15:55:20.323,17,0,0,16.560,34.182639,-118.129091,0.00,0.00,-0.10,-0.80,0.20,-123.60,0,1,0,91,100,-8745,3292,16560,3091.50,4,WP,1,0,0,0,0,0,0,1654469720322,4219,4217,4242,4239,0,0,27,,,,,,,0,0,0,8.00,2.00,-1236.00,-368.00,-695.00,1621.00,14,18.00,1.00,1.82,0.00,0.00,-1.00,0,,,100,100,0,2,0,0,0,1,0,,,,,0.0,0.0,0.0,0.0,0.0,0.0,0
34.182640,-118.129090,1.80,1.90,0.00,0.15,1.80,1.80,0.50,0.21,3905,2022-06-05 22:55:20.422,2022-06-05 15:55:20.422,17,0,0,16.556,34.182639,-118.129091,0.00,0.00,0.00,-0.60,0.50,-131.10,0,1,0,91,100,-8186,3287,16556,3091.50,4,WP,1,0,0,0,0,0,0,1654469720421,4219,4217,4242,4239,0,0,27,,,,,,,0,0,0,6.00,5.00,-1311.00,-368.00,-695.00,1621.00,14,18.00,0.00,1.50,0.00,0.00,0.00,0,,,100,100,0,2,0,0,0,1,0,,,,,0.0,0.0,0.0,0.0,0.0,0.0,0
34.182640,-118.129090,1.90,1.90,0.00,0.15,1.90,1.90,0.50,0.21,4006,2022-06-05 22:55:20.522,2022-06-05 15:55:20.522,17,0,0,16.556,34.182639,-118.129091,0.00,0.00,0.00,-0.50,0.80,-138.60,0,1,0,91,100,-8186,3287,16556,3091.50,4,WP,1,0,0,0,0,0,0,1654469720522,4219,4217,4242,4239,0,0,27,,,,,,,0,0,0,5.00,8.00,-1386.00,-368.00,-695.00,1621.00,14,19.00,0.00,1.46,0.00,0.00,0.00,0,,,100,100,0,2,0,0,0,1,0,,,,,0.0,0.0,0.0,0.0,0.0,0.0,0
34.182640,-118.129090,1.90,1.90,0.00,0.15,1.90,1.90,0.50,0.21,4106,2022-06-05 22:55:20.622,2022-06-05 15:55:20.622,17,0,0,16.556,34.182639,-118.129091,0.00,0.00,0.00,-0.50,1.00,-146.10,0,1,0,91,100,-8186,3287,16556,3091.50,4,WP,1,0,0,0,0,0,0,1654469720622,4219,4217,4242,4239,0,0,27,,,,,,,0,0,0,5.00,10.00,-1461.00,-368.00,-695.00,1621.00,14,19.00,0.00,1.46,0.00,0.00,0.00,0,,,100,100,0,2,0,0,0,1,0,,,,,0.0,0.0,0.0,0.0,0.0,0.0,0
34.182640,-118.129090,1.90,1.90,0.00,0.14,1.90,1.90,0.50,0.21,4258,2022-06-05 22:55:20.774,2022-06-05 15:55:20.774,17,0,0,16.556,34.182639,-118.129091,0.00,0.00,0.00,-0.40,1.10,-153.50,0,1,0,91,100,-8186,3287,16556,3091.50,4,WP,1,0,0,0,0,0,0,1654469720774,4219,4217,4242,4239,0,0,27,,,,,,,0,0,0,4.00,11.00,-1535.00,-368.00,-695.00,1621.00,14,19.00,0.00,1.41,0.00,0.00,0.00,0,,,100,100,0,2,0,0,0,1,0,,,,,0.0,0.0,0.0,0.0,0.0,0.0,0
34.182640,-118.129090,1.90,1.90,0.00,0.14,1.90,1.90,0.50,0.21,4306,2022-06-05 22:55:20.822,2022-06-05 15:55:20.822,17,0,0,16.556,34.182639,-118.129091,0.00,0.00,0.00,0.00,1.20,-160.90,0,1,0,91,100,-8186,3287,16556,3091.50,4,WP,1,0,0,0,0,0,0,1654469720822,4219,4217,4242,4239,0,0,27,,,,,,,0,0,0,-0.00,12.00,-1609.00,-368.00,-695.00,1621.00,14,19.00,0.00,1.38,0.00,0.00,0.00,0,,,100,100,0,2,0,0,0,1,0,,,,,0.0,0.0,0.0,0.0,0.0,0.0,0
34.182640,-118.129090,1.90,1.90,0.00,0.13,1.90,1.90,0.50,0.21,4405,2022-06-05 22:55:20.922,2022-06-05 15:55:20.922,17,0,0,16.556,34.182639,-118.129091,0.00,0.00,0.00,0.10,1.00,-167.30,0,1,0,91,100,-8186,3287,16556,3091.50,4,WP,1,0,0,0,0,0,0,1654469720921,4219,4217,4242,4239,0,0,27,,,,,,,0,0,0,-1.00,10.00,-1673.00,-368.00,-695.00,1621.00,14,19.00,0.00,1.32,0.00,0.00,0.00,0,,,100,100,0,2,0,0,0,1,0,,,,,0.0,0.0,0.0,0.0,0.0,0.0,0
34.182640,-118.129090,1.90,2.00,0.00,0.14,1.90,1.90,0.50,0.21,4506,2022-06-05 22:55:21.022,2022-06-05 15:55:21.023,17,0,0,16.556,34.182639,-118.129091,0.00,0.00,0.00,0.20,0.90,-171.70,0,1,0,91,100,-8186,3287,16556,3091.50,4,WP,1,0,0,0,0,0,0,1654469721022,4219,4217,4242,4239,0,0,27,,,,,,,0,0,0,-2.00,9.00,-1717.00,-368.00,-695.00,1621.00,14,19.00,0.00,1.38,0.00,0.00,0.00,0,,,100,100,0,2,0,0,0,1,0,,,,,0.0,0.0,0.0,0.0,0.0,0.0,0
34.182640,-118.129090,1.90,2.00,0.00,0.13,1.90,1.90,0.50,0.21,4622,2022-06-05 22:55:21.138,2022-06-05 15:55:21.138,17,0,0,16.556,34.182639,-118.129091,0.00,0.00,0.00,0.40,0.90,-174.60,0,1,0,91,100,-8186,3287,16556,3091.50,4,WP,1,0,0,0,0,0,0,1654469721138,4219,4217,4242,4239,0,0,27,,,,,,,0,0,0,-4.00,9.00,-1746.00,-368.00,-695.00,1621.00,14,19.00,0.00,1.35,0.00,0.00,0.00,0,,,100,100,0,2,0,0,0,1,0,,,,,0.0,0.0,0.0,0.0,0.0,0.0,0
34.182640,-118.129090,1.90,2.00,0.00,0.13,1.90,1.90,0.50,0.21,4705,2022-06-05 22:55:21.222,2022-06-05 15:55:21.222,17,0,0,16.556,34.182639,-118.129091,0.00,0.00,0.00,0.50,0.70,-176.40,0,1,0,91,100,-8186,3287,16556,3091.50,4,WP,1,0,0,0,0,0,0,1654469721221,4219,4217,4242,4239,0,0,27,,,,,,,0,0,0,-5.00,7.00,-1764.00,-368.00,-695.00,1621.00,14,19.00,0.00,1.27,0.00,0.00,0.00,0,,,100,100,0,2,0,0,0,1,0,,,,,0.0,0.0,0.0,0.0,0.0,0.0,0
34.182640,-118.129090,1.90,2.00,0.00,0.12,1.90,1.90,0.50,0.21,4806,2022-06-05 22:55:21.323,2022-06-05 15:55:21.323,17,0,0,16.556,34.182639,-118.129091,0.00,0.00,0.00,0.50,0.60,-177.50,0,1,0,91,100,-8186,3287,16556,3091.50,4,WP,1,0,0,0,0,0,0,1654469721322,4219,4217,4242,4239,0,0,27,,,,,,,0,0,0,-5.00,6.00,-1775.00,-368.00,-695.00,1621.00,14,19.00,0.00,1.24,0.00,0.00,0.00,0,,,100,100,0,2,0,0,0,1,0,,,,,0.0,0.0,0.0,0.0,0.0,0.0,0
34.182640,-118.129090,1.90,2.00,0.00,0.12,1.90,1.90,0.50,0.21,4909,2022-06-05 22:55:21.425,2022-06-05 15:55:21.425,17,0,0,16.556,34.182639,-118.129091,0.00,0.00,0.00,0.50,0.60,-178.00,0,1,0,91,100,-8186,3287,16556,3091.50,4,WP,1,0,0,0,0,0,0,1654469721425,4219,4217,4242,4239,0,0,27,,,,,,,0,0,0,-5.00,6.00,-1780.00,-368.00,-695.00,1621.00,14,19.00,0.00,1.20,0.00,0.00,0.00,0,,,100,100,0,2,0,0,0,1,0,,,,,0.0,0.0,0.0,0.0,0.0,0.0,0
34.182640,-118.129090,1.90,2.00,0.00,0.12,1.90,1.90,0.50,0.21,5005,2022-06-05 22:55:21.522,2022-06-05 15:55:21.522,17,0,0,16.556,34.182639,-118.129091,0.00,0.00,0.00,-1.90,0.60,-178.10,0,1,0,91,100,-8186,3287,16556,3091.50,4,WP,1,0,0,0,0,0,0,1654469721521,4219,4217,4242,4239,0,0,27,,,,,,,0,0,0,19.00,6.00,-1781.00,-368.00,-695.00,1621.00,14,19.00,0.00,1.18,0.00,0.00,0.00,0,,,100,100,0,2,0,0,0,1,0,,,,,0.0,0.0,0.0,0.0,0.0,0.0,0
34.182640,-118.129090,1.90,2.00,0.00,0.11,1.90,1.90,0.50,0.21,5106,2022-06-05 22:55:21.622,2022-06-05 15:55:21.623,17,0,0,16.556,34.182639,-118.129091,0.00,0.00,0.00,-7.10,0.50,-178.10,0,1,0,91,100,-8186,3287,16556,3091.50,4,WP,1,0,0,0,0,0,0,1654469721622,4219,4217,4242,4239,0,0,27,,,,,,,0,0,0,71.00,5.00,-1781.00,-368.00,-695.00,1621.00,14,19.00,0.00,1.11,0.00,0.00,0.00,0,,,100,100,0,2,0,0,0,1,0,,,,,0.0,0.0,0.0,0.0,0.0,0.0,0
34.182639,-118.129090,1.90,2.00,0.20,0.10,1.90,1.90,0.50,0.21,5204,2022-06-05 22:55:21.720,2022-06-05 15:55:21.720,17,0,0,16.556,34.182639,-118.129091,-0.20,0.00,0.00,-11.80,0.30,-178.10,0,1,0,91,100,-8186,3287,16556,3091.50,4,WP,1,0,0,0,0,0,0,1654469721720,4219,4217,4242,4239,0,0,27,,,,,,,0,0,0,118.00,3.00,-1781.00,-368.00,-695.00,1621.00,14,19.00,2.00,1.04,-2.00,0.00,0.00,0,,,100,100,0,2,0,0,0,1,0,,,,,0.0,0.0,0.0,0.0,0.0,0.0,0
34.182639,-118.129090,1.90,2.00,0.40,0.10,1.90,1.90,0.50,0.21,5305,2022-06-05 22:55:21.821,2022-06-05 15:55:21.821,17,0,0,16.556,34.182639,-118.129091,-0.40,0.00,0.00,-15.10,0.50,-178.20,0,1,0,91,100,-8186,3287,16556,3091.50,4,WP,1,0,0,0,0,0,0,1654469721821,4219,4217,4242,4239,0,0,27,,,,,,,0,0,0,151.00,5.00,-1782.00,-368.00,-695.00,1621.00,14,19.00,4.00,1.03,-4.00,0.00,0.00,0,,,100,100,0,2,0,0,0,1,0,,,,,0.0,0.0,0.0,0.0,0.0,0.0,0
34.182639,-118.129090,1.90,2.00,0.70,0.10,1.90,1.90,0.70,0.21,5406,2022-06-05 22:55:21.922,2022-06-05 15:55:21.922,17,0,0,16.556,34.182639,-118.129091,-0.70,0.00,0.00,-17.30,0.60,-178.20,0,1,0,91,100,-8186,3287,16556,3091.50,4,WP,1,0,0,0,0,0,0,1654469721922,4219,4217,4242,4239,0,0,27,,,,,,,0,0,0,173.00,6.00,-1782.00,-368.00,-695.00,1621.00,14,19.00,7.00,1.03,-7.00,0.00,0.00,0,,,100,100,0,2,0,0,0,1,0,,,,,0.0,0.0,0.0,0.0,0.0,0.0,0
34.182638,-118.129090,1.90,2.00,1.00,0.14,1.90,1.90,1.00,0.21,5506,2022-06-05 22:55:22.023,2022-06-05 15:55:22.023,17,0,0,16.556,34.182639,-118.129091,-1.00,0.00,0.00,-18.60,0.50,-178.20,0,1,0,91,100,-8186,3287,16556,3091.50,4,WP,1,0,0,0,0,0,0,1654469722022,4219,4217,4242,4239,0,0,27,,,,,,,0,0,0,186.00,5.00,-1782.00,-368.00,-695.00,1621.00,14,19.00,10.00,1.40,-10.00,0.00,0.00,0,,,100,100,0,2,0,0,0,1,0,,,,,0.0,0.0,0.0,0.0,0.0,0.0,0
34.182637,-118.129090,1.90,2.00,1.30,0.24,1.90,1.90,1.30,0.24,5612,2022-06-05 22:55:22.129,2022-06-05 15:55:22.129,17,0,0,16.556,34.182639,-118.129091,-1.30,0.00,0.00,-19.70,0.40,-178.20,0,1,0,91,100,-8186,3287,16556,3091.50,4,WP,1,0,0,0,0,0,0,1654469722128,4219,4217,4242,4239,0,0,27,,,,,,,0,0,0,197.00,4.00,-1782.00,-368.00,-695.00,1621.00,14,19.00,13.00,2.42,-13.00,0.00,0.00,0,,,100,100,0,2,0,0,0,1,0,,,,,0.0,0.0,0.0,0.0,0.0,0.0,0
34.182636,-118.129090,1.90,2.00,1.60,0.38,1.90,1.90,1.60,0.38,5705,2022-06-05 22:55:22.222,2022-06-05 15:55:22.222,17,0,0,16.556,34.182639,-118.129091,-1.60,0.00,0.00,-20.40,0.60,-178.20,0,1,0,91,100,-8186,3287,16556,3091.50,4,WP,1,0,0,0,0,0,0,1654469722221,4219,4217,4242,4239,0,0,27,,,,,,,0,0,0,204.00,6.00,-1782.00,-368.00,-695.00,1621.00,14,19.00,16.00,3.81,-16.00,0.00,0.00,0,,,100,100,0,2,0,0,0,1,0,,,,,0.0,0.0,0.0,0.0,0.0,0.0,0
34.182634,-118.129090,1.90,2.00,2.00,0.56,1.90,1.90,2.00,0.56,5806,2022-06-05 22:55:22.323,2022-06-05 15:55:22.323,17,0,0,16.556,34.182639,-118.129091,-2.00,0.00,0.00,-21.10,0.50,-177.40,0,1,0,91,100,-8186,3287,16556,3091.50,4,WP,1,0,0,0,0,0,0,1654469722322,4219,4217,4242,4239,0,0,27,,,,,,,0,0,0,211.00,5.00,-1774.00,-368.00,-695.00,1621.00,14,19.00,20.00,5.60,-20.00,0.00,0.00,0,,,100,100,0,2,0,0,0,1,0,,,,,0.0,0.0,0.0,0.0,0.0,0.0,0
34.182632,-118.129091,1.90,2.00,2.30,0.78,1.90,1.90,2.30,0.78,5905,2022-06-05 22:55:22.422,2022-06-05 15:55:22.422,17,0,0,16.525,34.182639,-118.129091,-2.30,0.00,0.00,-21.30,0.00,-177.50,0,1,0,91,100,-8225,3282,16525,3091.50,4,WP,1,0,0,0,0,0,0,1654469722421,4219,4217,4242,4239,0,0,27,,,,,,,0,0,0,213.00,0.00,-1775.00,-368.00,-695.00,1621.00,14,19.00,23.00,7.77,-23.00,0.00,0.00,0,,,100,100,0,2,0,0,0,1,0,,,,,0.0,0.0,0.0,0.0,0.0,0.0,0
34.182630,-118.129091,2.00,2.00,2.70,1.03,2.00,2.00,2.70,1.03,6006,2022-06-05 22:55:22.522,2022-06-05 15:55:22.522,17,0,0,16.525,34.182639,-118.129091,-2.70,0.00,0.00,-20.60,-0.40,-177.60,0,1,0,91,100,-8225,3282,16525,3091.50,4,WP,1,0,0,0,0,0,0,1654469722522,4219,4217,4242,4239,0,0,27,,,,,,,0,0,0,206.00,-4.00,-1776.00,-368.00,-695.00,1621.00,14,20.00,27.00,10.31,-27.00,0.00,0.00,0,,,100,100,0,2,0,0,0,1,0,,,,,0.0,0.0,0.0,0.0,0.0,0.0,0
34.182627,-118.129091,2.00,2.00,3.00,1.31,2.00,2.00,3.00,1.31,6107,2022-06-05 22:55:22.623,2022-06-05 15:55:22.623,17,0,0,16.525,34.182639,-118.129091,-3.00,0.00,0.00,-19.80,-0.60,-177.60,0,1,0,91,100,-8225,3282,16525,3091.50,4,WP,1,0,0,0,0,0,0,1654469722623,4219,4217,4242,4239,0,0,27,,,,,,,0,0,0,198.00,-6.00,-1776.00,-368.00,-695.00,1621.00,14,20.00,30.00,13.08,-30.00,0.00,0.00,0,,,100,100,0,2,0,0,0,1,0,,,,,0.0,0.0,0.0,0.0,0.0,0.0,0
34.182624,-118.129091,2.00,2.00,3.30,1.63,2.00,2.00,3.30,1.63,6208,2022-06-05 22:55:22.724,2022-06-05 15:55:22.724,17,0,0,16.525,34.182639,-118.129091,-3.30,-0.10,0.00,-19.10,-0.60,-177.20,0,1,0,91,100,-8225,3282,16525,3091.50,4,WP,1,0,0,0,0,0,0,1654469722724,4219,4217,4242,4239,0,0,27,,,,,,,0,0,0,191.00,-6.00,-1772.00,-368.00,-695.00,1621.00,14,20.00,33.02,16.26,-33.00,-1.00,0.00,0,,,100,100,0,2,0,0,0,1,0,,,,,0.0,0.0,0.0,0.0,0.0,0.0,0
34.182621,-118.129092,2.00,2.00,3.60,1.97,2.00,2.00,3.60,1.97,6307,2022-06-05 22:55:22.824,2022-06-05 15:55:22.824,17,0,0,16.525,34.182639,-118.129091,-3.60,-0.10,0.00,-19.10,-0.90,-177.40,0,1,0,91,100,-8225,3282,16525,3091.50,4,WP,1,0,0,0,0,0,0,1654469722823,4219,4217,4242,4239,0,0,27,,,,,,,0,0,0,191.00,-9.00,-1774.00,-368.00,-695.00,1621.00,14,20.00,36.01,19.73,-36.00,-1.00,0.00,0,,,100,100,0,2,0,0,0,1,0,,,,,0.0,0.0,0.0,0.0,0.0,0.0,0
34.182618,-118.129092,2.00,2.00,3.90,2.35,2.00,2.00,3.90,2.35,6406,2022-06-05 22:55:22.922,2022-06-05 15:55:22.922,17,0,0,16.525,34.182639,-118.129091,-3.90,-0.10,0.00,-16.30,-0.80,-177.50,0,1,0,91,100,-8225,3282,16525,3091.50,4,WP,1,0,0,0,0,0,0,1654469722922,4219,4217,4242,4239,0,0,27,,,,,,,0,0,0,163.00,-8.00,-1775.00,-368.00,-695.00,1621.00,14,20.00,39.01,23.48,-39.00,-1.00,0.00,0,,,100,100,0,2,0,0,0,1,0,,,,,0.0,0.0,0.0,0.0,0.0,0.0,0
34.182614,-118.129093,2.00,2.10,4.10,2.76,2.00,2.00,4.10,2.76,6505,2022-06-05 22:55:23.022,2022-06-05 15:55:23.022,17,0,0,16.525,34.182639,-118.129091,-4.10,0.00,0.00,-12.30,-0.70,-177.70,0,1,0,91,100,-8225,3282,16525,3091.50,4,WP,1,0,0,0,0,0,0,1654469723021,4219,4217,4242,4239,0,0,27,,,,,,,0,0,0,123.00,-7.00,-1777.00,-368.00,-695.00,1621.00,14,20.00,41.00,27.60,-41.00,0.00,0.00,0,,,100,100,0,2,0,0,0,1,0,,,,,0.0,0.0,0.0,0.0,0.0,0.0,0
34.182610,-118.129093,2.00,2.10,4.20,3.18,2.00,2.00,4.20,3.18,6617,2022-06-05 22:55:23.133,2022-06-05 15:55:23.133,17,0,0,16.525,34.182639,-118.129091,-4.20,0.00,0.00,-8.50,-0.80,-177.80,0,1,0,91,100,-8225,3282,16525,3091.50,4,WP,1,0,0,0,0,0,0,1654469723133,4219,4217,4242,4239,0,0,27,,,,,,,0,0,0,85.00,-8.00,-1778.00,-368.00,-695.00,1621.00,14,20.00,42.00,31.75,-42.00,0.00,0.00,0,,,100,100,0,2,0,0,0,1,0,,,,,0.0,0.0,0.0,0.0,0.0,0.0,0
34.182607,-118.129093,2.00,2.10,4.30,3.60,2.00,2.00,4.30,3.60,6706,2022-06-05 22:55:23.222,2022-06-05 15:55:23.222,17,0,0,16.525,34.182639,-118.129091,-4.30,0.00,0.00,-1.60,-1.00,-177.90,0,1,0,91,100,-8225,3282,16525,3091.50,4,WP,1,0,0,0,0,0,0,1654469723222,4219,4217,4242,4239,0,0,27,,,,,,,0,0,0,16.00,-10.00,-1779.00,-368.00,-695.00,1621.00,14,20.00,43.00,35.97,-43.00,0.00,0.00,0,,,100,100,0,2,0,0,0,1,0,,,,,0.0,0.0,0.0,0.0,0.0,0.0,0
34.182603,-118.129093,1.90,2.10,4.20,4.02,2.00,2.00,4.30,4.02,6806,2022-06-05 22:55:23.323,2022-06-05 15:55:23.323,17,0,0,16.525,34.182639,-118.129091,-4.20,0.00,0.00,4.30,-0.90,-177.70,0,1,0,91,100,-8225,3282,16525,3091.50,4,WP,1,0,0,0,0,0,0,1654469723322,4219,4217,4242,4239,0,0,27,,,,,,,0,0,0,-43.00,-9.00,-1777.00,-368.00,-695.00,1621.00,14,19.00,42.00,40.20,-42.00,0.00,0.00,0,,,100,100,0,2,0,0,0,1,0,,,,,0.0,0.0,0.0,0.0,0.0,0.0,0
34.182599,-118.129094,1.90,2.10,4.10,4.45,2.00,2.00,4.30,4.45,6906,2022-06-05 22:55:23.423,2022-06-05 15:55:23.423,17,0,0,16.525,34.182639,-118.129091,-4.10,0.00,0.00,8.70,-0.80,-177.90,0,1,0,91,100,-8225,3282,16525,3091.50,4,WP,1,0,0,0,0,0,0,1654469723422,4219,4217,4242,4239,0,0,27,,,,,,,0,0,0,-87.00,-8.00,-1779.00,-368.00,-695.00,1621.00,14,19.00,41.00,44.50,-41.00,0.00,0.00,0,,,100,100,0,2,0,0,0,1,0,,,,,0.0,0.0,0.0,0.0,0.0,0.0,0
34.182595,-118.129094,1.90,2.10,3.90,4.84,2.00,2.00,4.30,4.84,7007,2022-06-05 22:55:23.523,2022-06-05 15:55:23.523,17,0,0,16.525,34.182639,-118.129091,-3.90,0.00,0.00,11.70,-1.30,-177.90,0,1,0,91,100,-8225,3282,16525,3091.50,4,WP,1,0,0,0,0,0,0,1654469723523,4219,4217,4242,4239,0,0,27,,,,,,,0,0,0,-117.00,-13.00,-1779.00,-368.00,-695.00,1621.00,14,19.00,39.00,48.44,-39.00,0.00,0.00,0,,,100,100,0,2,0,0,0,1,0,,,,,0.0,0.0,0.0,0.0,0.0,0.0,0
34.182592,-118.129094,1.90,2.10,3.60,5.23,2.00,2.00,4.30,5.23,7108,2022-06-05 22:55:23.624,2022-06-05 15:55:23.624,17,0,0,16.525,34.182639,-118.129091,-3.60,0.00,0.10,13.30,-1.00,-178.00,0,1,0,91,100,-8225,3282,16525,3091.50,4,WP,1,0,0,0,0,0,0,1654469723624,4219,4217,4242,4239,0,0,27,,,,,,,0,0,0,-133.00,-10.00,-1780.00,-368.00,-695.00,1621.00,14,19.00,36.01,52.28,-36.00,0.00,1.00,0,,,100,100,0,2,0,0,0,1,0,,,,,0.0,0.0,0.0,0.0,0.0,0.0,0
34.182589,-118.129094,1.90,2.10,3.40,5.57,2.00,2.00,4.30,5.57,7207,2022-06-05 22:55:23.724,2022-06-05 15:55:23.724,17,0,0,16.525,34.182639,-118.129091,-3.40,0.10,0.10,13.70,-1.00,-177.20,0,1,0,91,100,-8225,3282,16525,3091.50,4,WP,1,0,0,0,0,0,0,1654469723723,4219,4217,4242,4239,0,0,27,,,,,,,0,0,0,-137.00,-10.00,-1772.00,-368.00,-695.00,1621.00,14,19.00,34.03,55.74,-34.00,1.00,1.00,0,,,100,100,0,2,0,0,0,1,0,,,,,0.0,0.0,0.0,0.0,0.0,0.0,0
34.182586,-118.129094,1.90,2.10,3.10,5.93,2.00,2.00,4.30,5.93,7307,2022-06-05 22:55:23.824,2022-06-05 15:55:23.824,17,0,0,16.525,34.182639,-118.129091,-3.10,0.10,0.10,15.20,-0.90,-177.70,0,1,0,91,100,-8225,3282,16525,3091.50,4,WP,1,0,0,0,0,0,0,1654469723823,4219,4217,4242,4239,0,0,27,,,,,,,0,0,0,-152.00,-9.00,-1777.00,-368.00,-695.00,1621.00,14,19.00,31.03,59.27,-31.00,1.00,1.00,0,,,100,100,0,2,0,0,0,1,0,,,,,0.0,0.0,0.0,0.0,0.0,0.0,0
34.182583,-118.129094,1.90,2.10,2.80,6.22,2.00,2.00,4.30,6.22,7407,2022-06-05 22:55:23.924,2022-06-05 15:55:23.924,17,0,0,16.525,34.182639,-118.129091,-2.80,0.10,0.10,15.90,-0.40,-177.50,0,1,0,91,100,-8225,3282,16525,3091.50,4,WP,1,0,0,0,0,0,0,1654469723923,4219,4217,4242,4239,0,0,27,,,,,,,0,0,0,-159.00,-4.00,-1775.00,-368.00,-695.00,1621.00,14,19.00,28.04,62.19,-28.00,1.00,1.00,0,,,100,100,0,2,0,0,0,1,0,,,,,0.0,0.0,0.0,0.0,0.0,0.0,0
34.182581,-118.129094,1.80,2.10,2.50,6.50,2.00,2.00,4.30,6.50,7509,2022-06-05 22:55:24.025,2022-06-05 15:55:24.026,17,0,0,16.525,34.182639,-118.129091,-2.50,0.10,0.00,16.00,0.10,-177.80,0,1,0,91,100,-8225,3282,16525,3091.50,4,WP,1,0,0,0,0,0,0,1654469724025,4219,4217,4242,4239,0,0,27,,,,,,,0,0,0,-160.00,1.00,-1778.00,-368.00,-695.00,1621.00,14,18.00,25.02,64.97,-25.00,1.00,0.00,0,,,100,100,0,2,0,0,0,1,0,,,,,0.0,0.0,0.0,0.0,0.0,0.0,0
34.182578,-118.129094,1.80,2.10,2.20,6.73,2.00,2.00,4.30,6.73,7620,2022-06-05 22:55:24.137,2022-06-05 15:55:24.137,17,0,0,16.525,34.182639,-118.129091,-2.20,0.10,0.00,15.20,0.30,-177.90,0,1,0,91,100,-8225,3282,16525,3091.50,4,WP,1,0,0,0,0,0,0,1654469724136,4219,4217,4242,4239,0,0,27,,,,,,,0,0,0,-152.00,3.00,-1779.00,-368.00,-695.00,1621.00,14,18.00,22.02,67.31,-22.00,1.00,0.00,0,,,100,100,0,2,0,0,0,1,0,,,,,0.0,0.0,0.0,0.0,0.0,0.0,0
34.182576,-118.129094,1.80,2.10,1.90,6.98,2.00,2.00,4.30,6.98,7706,2022-06-05 22:55:24.223,2022-06-05 15:55:24.223,17,0,0,16.525,34.182639,-118.129091,-1.90,0.10,0.00,13.80,0.30,-178.10,0,1,0,91,100,-8225,3282,16525,3091.50,4,WP,1,0,0,0,0,0,0,1654469724222,4219,4217,4242,4239,0,0,27,,,,,,,0,0,0,-138.00,3.00,-1781.00,-368.00,-695.00,1621.00,14,18.00,19.03,69.76,-19.00,1.00,0.00,0,,,100,100,0,2,0,0,0,1,0,,,,,0.0,0.0,0.0,0.0,0.0,0.0,0
34.182575,-118.129093,1.80,2.10,1.70,7.16,2.00,2.00,4.30,7.16,7808,2022-06-05 22:55:24.325,2022-06-05 15:55:24.325,17,0,0,16.525,34.182639,-118.129091,-1.70,0.10,0.00,12.10,-0.20,-178.20,0,1,0,91,100,-8225,3282,16525,3091.50,4,WP,1,0,0,0,0,0,0,1654469724324,4219,4217,4242,4239,0,0,27,,,,,,,0,0,0,-121.00,-2.00,-1782.00,-368.00,-695.00,1621.00,14,18.00,17.03,71.60,-17.00,1.00,0.00,0,,,100,100,0,2,0,0,0,1,0,,,,,0.0,0.0,0.0,0.0,0.0,0.0,0
34.182573,-118.129093,1.80,2.10,1.51,7.32,2.00,2.00,4.30,7.32,7906,2022-06-05 22:55:24.422,2022-06-05 15:55:24.422,17,0,0,16.552,34.182639,-118.129091,-1.50,0.10,0.10,10.30,-0.10,-178.20,0,1,0,90,100,-7830,3280,16552,3091.50,4,WP,1,0,0,0,0,0,0,1654469724422,4219,4217,4242,4239,0,0,27,,,,,,,0,0,0,-103.00,-1.00,-1782.00,-368.00,-695.00,1621.00,14,18.00,15.07,73.25,-15.00,1.00,1.00,0,,,100,100,0,2,0,0,0,1,0,,,,,0.0,0.0,0.0,0.0,0.0,0.0,0
34.182572,-118.129093,1.80,2.10,1.32,7.47,2.00,2.00,4.30,7.47,8007,2022-06-05 22:55:24.523,2022-06-05 15:55:24.523,17,0,0,16.552,34.182639,-118.129091,-1.30,0.20,0.10,8.80,0.10,-178.20,0,1,0,90,100,-7830,3280,16552,3091.50,4,WP,1,0,0,0,0,0,0,1654469724523,4219,4217,4242,4239,0,0,27,,,,,,,0,0,0,-88.00,1.00,-1782.00,-368.00,-695.00,1621.00,14,18.00,13.19,74.68,-13.00,2.00,1.00,0,,,100,100,0,2,0,0,0,1,0,,,,,0.0,0.0,0.0,0.0,0.0,0.0,0
34.182571,-118.129093,1.80,2.10,1.12,7.57,2.00,2.00,4.30,7.57,8108,2022-06-05 22:55:24.625,2022-06-05 15:55:24.625,17,0,0,16.552,34.182639,-118.129091,-1.10,0.20,0.10,7.30,0.50,-178.20,0,1,0,90,100,-7830,3280,16552,3091.50,4,WP,1,0,0,0,0,0,0,1654469724624,4219,4217,4242,4239,0,0,27,,,,,,,0,0,0,-73.00,5.00,-1782.00,-368.00,-695.00,1621.00,14,18.00,11.22,75.67,-11.00,2.00,1.00,0,,,100,100,0,2,0,0,0,1,0,,,,,0.0,0.0,0.0,0.0,0.0,0.0,0
34.182570,-118.129092,1.80,2.10,1.02,7.68,2.00,2.00,4.30,7.68,8208,2022-06-05 22:55:24.724,2022-06-05 15:55:24.725,17,0,0,16.552,34.182639,-118.129091,-1.00,0.20,0.10,5.90,1.00,-178.10,0,1,0,90,100,-7830,3280,16552,3091.50,4,WP,1,0,0,0,0,0,0,1654469724724,4219,4217,4242,4239,0,0,27,,,,,,,0,0,0,-59.00,10.00,-1781.00,-368.00,-695.00,1621.00,14,18.00,10.25,76.78,-10.00,2.00,1.00,0,,,100,100,0,2,0,0,0,1,0,,,,,0.0,0.0,0.0,0.0,0.0,0.0,0
34.182569,-118.129092,1.80,2.10,0.91,7.78,2.00,2.00,4.30,7.78,8309,2022-06-05 22:55:24.825,2022-06-05 15:55:24.825,17,0,0,16.552,34.182639,-118.129091,-0.90,0.10,0.00,5.10,1.30,-178.10,0,1,0,90,100,-7830,3280,16552,3091.50,4,WP,1,0,0,0,0,0,0,1654469724825,4219,4217,4242,4239,0,0,27,,,,,,,0,0,0,-51.00,13.00,-1781.00,-368.00,-695.00,1621.00,14,18.00,9.06,77.84,-9.00,1.00,0.00,0,,,100,100,0,2,0,0,0,1,0,,,,,0.0,0.0,0.0,0.0,0.0,0.0,0
34.182568,-118.129092,1.80,2.10,0.81,7.88,2.00,2.00,4.30,7.88,8410,2022-06-05 22:55:24.927,2022-06-05 15:55:24.927,17,0,0,16.552,34.182639,-118.129091,-0.80,0.10,0.00,4.60,1.60,-178.10,0,1,0,90,100,-7830,3280,16552,3091.50,4,WP,1,0,0,0,0,0,0,1654469724926,4219,4217,4242,4239,0,0,27,,,,,,,0,0,0,-46.00,16.00,-1781.00,-368.00,-695.00,1621.00,14,18.00,8.06,78.76,-8.00,1.00,0.00,0,,,100,100,0,2,0,0,0,1,0,,,,,0.0,0.0,0.0,0.0,0.0,0.0,0
34.182568,-118.129091,1.80,2.10,0.71,7.92,2.00,2.00,4.30,7.92,8510,2022-06-05 22:55:25.026,2022-06-05 15:55:25.026,17,0,0,16.552,34.182639,-118.129091,-0.70,0.10,0.00,3.70,1.80,-178.10,0,1,0,90,100,-7830,3280,16552,3091.50,4,WP,1,0,0,0,0,0,0,1654469725026,4219,4217,4242,4239,0,0,27,,,,,,,0,0,0,-37.00,18.00,-1781.00,-368.00,-695.00,1621.00,14,18.00,7.07,79.19,-7.00,1.00,0.00,0,,,100,100,0,2,0,0,0,1,0,,,,,0.0,0.0,0.0,0.0,0.0,0.0,0
34.182567,-118.129091,1.80,2.10,0.61,7.99,2.00,2.00,4.30,7.99,8615,2022-06-05 22:55:25.131,2022-06-05 15:55:25.131,17,0,0,16.552,34.182639,-118.129091,-0.60,0.10,0.00,2.90,2.30,-178.10,0,1,0,90,100,-7830,3280,16552,3091.50,4,WP,1,0,0,0,0,0,0,1654469725131,4219,4217,4242,4239,0,0,27,,,,,,,0,0,0,-29.00,23.00,-1781.00,-368.00,-695.00,1621.00,14,18.00,6.08,79.93,-6.00,1.00,0.00,0,,,100,100,0,2,0,0,0,1,0,,,,,0.0,0.0,0.0,0.0,0.0,0.0,0
34.182566,-118.129091,1.80,2.00,0.61,8.05,2.00,2.00,4.30,8.05,8707,2022-06-05 22:55:25.224,2022-06-05 15:55:25.224,17,0,0,16.552,34.182639,-118.129091,-0.60,0.10,0.00,3.10,2.50,-178.10,0,1,0,90,100,-7830,3280,16552,3091.50,4,WP,1,0,0,0,0,0,0,1654469725223,4219,4217,4242,4239,0,0,27,,,,,,,0,0,0,-31.00,25.00,-1781.00,-368.00,-695.00,1621.00,14,18.00,6.08,80.52,-6.00,1.00,0.00,0,,,100,100,0,2,0,0,0,1,0,,,,,0.0,0.0,0.0,0.0,0.0,0.0,0
34.182566,-118.129091,1.80,2.00,0.50,8.11,2.00,2.00,4.30,8.11,8808,2022-06-05 22:55:25.324,2022-06-05 15:55:25.324,17,0,0,16.552,34.182639,-118.129091,-0.50,0.00,0.00,3.30,2.60,-178.10,0,1,0,90,100,-7830,3280,16552,3091.50,4,WP,1,0,0,0,0,0,0,1654469725324,4219,4217,4242,4239,0,0,27,,,,,,,0,0,0,-33.00,26.00,-1781.00,-368.00,-695.00,1621.00,14,18.00,5.00,81.14,-5.00,0.00,0.00,0,,,100,100,0,2,0,0,0,1,0,,,,,0.0,0.0,0.0,0.0,0.0,0.0,0
34.182566,-118.129091,1.70,2.00,0.40,8.13,2.00,2.00,4.30,8.13,8910,2022-06-05 22:55:25.427,2022-06-05 15:55:25.427,17,0,0,16.552,34.182639,-118.129091,-0.40,0.00,0.00,3.50,2.40,-178.10,0,1,0,90,100,-7830,3280,16552,3091.50,4,WP,1,0,0,0,0,0,0,1654469725426,4219,4217,4242,4239,0,0,27,,,,,,,0,0,0,-35.00,24.00,-1781.00,-368.00,-695.00,1621.00,14,17.00,4.00,81.33,-4.00,0.00,0.00,0,,,100,100,0,2,0,0,0,1,0,,,,,0.0,0.0,0.0,0.0,0.0,0.0,0
34.182565,-118.129091,1.70,2.00,0.40,8.18,2.00,2.00,4.30,8.18,9013,2022-06-05 22:55:25.529,2022-06-05 15:55:25.529,17,0,0,16.552,34.182639,-118.129091,-0.40,0.00,0.00,3.20,2.00,-178.20,0,1,0,90,100,-7830,3280,16552,3091.50,4,WP,1,0,0,0,0,0,0,1654469725529,4219,4217,4242,4239,0,0,27,,,,,,,0,0,0,-32.00,20.00,-1782.00,-368.00,-695.00,1621.00,14,17.00,4.00,81.80,-4.00,0.00,0.00,0,,,100,100,0,2,0,0,0,1,0,,,,,0.0,0.0,0.0,0.0,0.0,0.0,0
34.182565,-118.129090,1.70,2.00,0.30,8.20,2.00,2.00,4.30,8.20,9110,2022-06-05 22:55:25.627,2022-06-05 15:55:25.627,17,0,0,16.552,34.182639,-118.129091,-0.30,0.00,0.00,2.90,1.90,-178.20,0,1,0,90,100,-7830,3280,16552,3091.50,4,WP,1,0,0,0,0,0,0,1654469725626,4219,4217,4242,4239,0,0,27,,,,,,,0,0,0,-29.00,19.00,-1782.00,-368.00,-695.00,1621.00,14,17.00,3.00,81.97,-3.00,0.00,0.00,0,,,100,100,0,2,0,0,0,1,0,,,,,0.0,0.0,0.0,0.0,0.0,0.0,0
34.182565,-118.129090,1.70,2.00,0.30,8.23,2.00,2.00,4.30,8.23,9208,2022-06-05 22:55:25.724,2022-06-05 15:55:25.724,17,0,0,16.552,34.182639,-118.129091,-0.30,0.00,0.00,6.90,0.90,-178.10,0,1,0,90,100,-7830,3280,16552,3091.50,4,WP,1,0,0,0,0,0,0,1654469725724,4219,4217,4242,4239,0,0,27,,,,,,,0,0,0,-69.00,9.00,-1781.00,-368.00,-695.00,1621.00,14,17.00,3.00,82.31,-3.00,0.00,0.00,0,,,100,100,0,2,0,0,0,1,0,,,,,0.0,0.0,0.0,0.0,0.0,0.0,0
34.182565,-118.129090,1.70,2.00,0.20,8.25,2.00,2.00,4.30,8.25,9308,2022-06-05 22:55:25.825,2022-06-05 15:55:25.825,17,0,0,16.552,34.182639,-118.129091,-0.20,0.00,0.00,5.60,0.90,-177.60,0,1,0,90,100,-7830,3280,16552,3091.50,4,WP,1,0,0,0,0,0,0,1654469725824,4219,4217,4242,4239,0,0,27,,,,,,,0,0,0,-56.00,9.00,-1776.00,-368.00,-695.00,1621.00,14,17.00,2.00,82.55,-2.00,0.00,0.00,0,,,100,100,0,2,0,0,0,1,0,,,,,0.0,0.0,0.0,0.0,0.0,0.0,0
34.182564,-118.129090,1.70,2.00,0.10,8.27,2.00,2.00,4.30,8.27,9396,2022-06-05 22:55:25.912,2022-06-05 15:55:25.912,17,0,0,16.552,34.182639,-118.129091,-0.10,0.00,0.00,4.20,1.00,-176.30,0,1,0,90,100,-7830,3280,16552,3091.50,4,WP,1,0,0,0,0,0,0,1654469725912,4219,4217,4242,4239,0,0,27,,,,,,,0,0,0,-42.00,10.00,-1763.00,-368.00,-695.00,1621.00,14,17.00,1.00,82.70,-1.00,0.00,0.00,0,,,100,100,0,2,0,0,0,1,0,,,,,0.0,0.0,0.0,0.0,0.0,0.0,0
34.182565,-118.129090,1.70,2.00,0.00,8.26,2.00,2.00,4.30,8.27,9514,2022-06-05 22:55:26.031,2022-06-05 15:55:26.031,17,0,0,16.552,34.182639,-118.129091,0.00,0.00,0.00,3.00,0.90,-174.60,0,1,0,90,100,-7830,3280,16552,3091.50,4,WP,1,0,0,0,0,0,0,1654469726030,4219,4217,4242,4239,0,0,27,,,,,,,0,0,0,-30.00,9.00,-1746.00,-368.00,-695.00,1621.00,14,17.00,0.00,82.62,0.00,0.00,0.00,0,,,100,100,0,2,0,0,0,1,0,,,,,0.0,0.0,0.0,0.0,0.0,0.0,0
34.182565,-118.129090,1.70,2.00,0.00,8.26,2.00,2.00,4.30,8.27,9616,2022-06-05 22:55:26.133,2022-06-05 15:55:26.133,17,0,0,16.552,34.182639,-118.129091,0.00,0.00,0.00,2.00,0.80,-172.30,0,1,0,90,100,-7830,3280,16552,3091.50,4,WP,1,0,0,0,0,0,0,1654469726132,4147,4125,4130,4137,0,0,27,,,,,,,0,0,0,-20.00,8.00,-1723.00,-368.00,-695.00,1621.00,14,17.00,0.00,82.63,0.00,0.00,0.00,0,,,100,100,0,2,0,0,0,1,0,,,,,0.0,0.0,0.0,0.0,0.0,0.0,0
34.182565,-118.129090,1.70,2.00,0.00,8.26,2.00,2.00,4.30,8.27,9711,2022-06-05 22:55:26.227,2022-06-05 15:55:26.227,17,0,0,16.552,34.182639,-118.129091,0.00,0.00,0.00,1.30,0.80,-169.30,0,1,0,90,100,-7830,3280,16552,3091.50,4,WP,1,0,0,0,0,0,0,1654469726227,4147,4125,4130,4137,0,0,27,,,,,,,0,0,0,-13.00,8.00,-1693.00,-368.00,-695.00,1621.00,14,17.00,0.00,82.60,0.00,0.00,0.00,0,,,100,100,0,2,0,0,0,1,0,,,,,0.0,0.0,0.0,0.0,0.0,0.0,0
34.182565,-118.129090,1.70,2.00,0.00,8.25,2.00,2.00,4.30,8.27,9811,2022-06-05 22:55:26.328,2022-06-05 15:55:26.328,17,0,0,16.552,34.182639,-118.129091,0.00,0.00,0.00,1.00,0.60,-165.80,0,1,0,90,100,-7830,3280,16552,3091.50,4,WP,1,0,0,0,0,0,0,1654469726327,4147,4125,4130,4137,0,0,27,,,,,,,0,0,0,-10.00,6.00,-1658.00,-368.00,-695.00,1621.00,14,17.00,0.00,82.54,0.00,0.00,0.00,0,,,100,100,0,2,0,0,0,1,0,,,,,0.0,0.0,0.0,0.0,0.0,0.0,0
34.182565,-118.129090,1.70,2.00,0.00,8.24,2.00,2.00,4.30,8.27,9914,2022-06-05 22:55:26.431,2022-06-05 15:55:26.431,17,0,0,16.535,34.182639,-118.129091,0.00,0.00,0.00,0.90,0.30,-161.80,0,1,0,90,100,-7516,3276,16535,3091.50,4,WP,1,0,0,0,0,0,0,1654469726430,4147,4125,4130,4137,0,0,27,,,,,,,0,0,0,-9.00,3.00,-1618.00,-368.00,-695.00,1621.00,14,17.00,0.00,82.43,0.00,0.00,0.00,0,,,100,100,0,2,0,0,0,1,0,,,,,0.0,0.0,0.0,0.0,0.0,0.0,0
34.182565,-118.129090,1.70,2.00,0.00,8.23,2.00,2.00,4.30,8.27,10011,2022-06-05 22:55:26.527,2022-06-05 15:55:26.527,17,0,0,16.535,34.182639,-118.129091,0.00,0.00,0.00,0.70,0.30,-157.30,0,1,0,90,100,-7516,3276,16535,3091.50,4,WP,1,0,0,0,0,0,0,1654469726527,4147,4125,4130,4137,0,0,27,,,,,,,0,0,0,-7.00,3.00,-1573.00,-368.00,-695.00,1621.00,14,17.00,0.00,82.33,0.00,0.00,0.00,0,,,100,100,0,2,0,0,0,1,0,,,,,0.0,0.0,0.0,0.0,0.0,0.0,0
34.182565,-118.129090,1.70,2.00,0.00,8.22,2.00,2.00,4.30,8.27,10111,2022-06-05 22:55:26.627,2022-06-05 15:55:26.627,17,0,0,16.535,34.182639,-118.129091,0.00,0.00,0.00,0.30,0.30,-152.10,0,1,0,90,100,-7516,3276,16535,3091.50,4,WP,1,0,0,0,0,0,0,1654469726627,4147,4125,4130,4137,0,0,27,,,,,,,0,0,0,-3.00,3.00,-1521.00,-368.00,-695.00,1621.00,14,17.00,0.00,82.16,0.00,0.00,0.00,0,,,100,100,0,2,0,0,0,1,0,,,,,0.0,0.0,0.0,0.0,0.0,0.0,0
34.182565,-118.129090,1.70,2.00,0.00,8.20,2.00,2.00,4.30,8.27,10212,2022-06-05 22:55:26.728,2022-06-05 15:55:26.728,17,0,0,16.535,34.182639,-118.129091,0.00,0.00,0.00,0.00,0.20,-146.20,0,1,0,90,100,-7516,3276,16535,3091.50,4,WP,1,0,0,0,0,0,0,1654469726728,4147,4125,4130,4137,0,0,27,,,,,,,0,0,0,-0.00,2.00,-1462.00,-368.00,-695.00,1621.00,14,17.00,0.00,82.04,0.00,0.00,0.00,0,,,100,100,0,2,0,0,0,1,0,,,,,0.0,0.0,0.0,0.0,0.0,0.0,0
34.182565,-118.129090,1.70,2.00,0.00,8.19,2.00,2.00,4.30,8.27,10311,2022-06-05 22:55:26.828,2022-06-05 15:55:26.828,17,0,0,16.535,34.182639,-118.129091,0.00,0.00,0.00,-0.20,0.20,-139.90,0,1,0,90,100,-7516,3276,16535,3091.50,4,WP,1,0,0,0,0,0,0,1654469726827,4147,4125,4130,4137,0,0,27,,,,,,,0,0,0,2.00,2.00,-1399.00,-368.00,-695.00,1621.00,14,17.00,0.00,81.87,0.00,0.00,0.00,0,,,100,100,0,2,0,0,0,1,0,,,,,0.0,0.0,0.0,0.0,0.0,0.0,0
34.182565,-118.129090,1.70,2.00,0.00,8.17,2.00,2.00,4.30,8.27,10413,2022-06-05 22:55:26.930,2022-06-05 15:55:26.930,17,0,0,16.535,34.182639,-118.129091,0.00,0.00,0.00,-0.40,0.20,-132.90,0,1,0,90,100,-7516,3276,16535,3091.50,4,WP,1,0,0,0,0,0,0,1654469726929,4147,4125,4130,4137,0,0,27,,,,,,,0,0,0,4.00,2.00,-1329.00,-368.00,-695.00,1621.00,14,17.00,0.00,81.75,0.00,0.00,0.00,0,,,100,100,0,2,0,0,0,1,0,,,,,0.0,0.0,0.0,0.0,0.0,0.0,0
34.182566,-118.129090,1.70,2.00,0.00,8.15,2.00,2.00,4.30,8.27,10512,2022-06-05 22:55:27.028,2022-06-05 15:55:27.028,17,0,0,16.535,34.182639,-118.129091,0.00,0.00,0.00,-0.20,0.10,-125.40,0,1,0,90,100,-7516,3276,16535,3091.50,4,WP,1,0,0,0,0,0,0,1654469727028,4147,4125,4130,4137,0,0,27,,,,,,,0,0,0,2.00,1.00,-1254.00,-368.00,-695.00,1621.00,14,17.00,0.00,81.54,0.00,0.00,0.00,0,,,100,100,0,2,0,0,0,1,0,,,,,0.0,0.0,0.0,0.0,0.0,0.0,0
34.182566,-118.129090,1.70,2.00,0.00,8.14,2.00,2.00,4.30,8.27,10612,2022-06-05 22:55:27.128,2022-06-05 15:55:27.128,17,0,0,16.535,34.182639,-118.129091,0.00,0.00,0.00,0.00,0.10,-117.90,0,1,0,90,100,-7516,3276,16535,3091.50,4,WP,1,0,0,0,0,0,0,1654469727128,4147,4125,4130,4137,0,0,27,,,,,,,0,0,0,-0.00,1.00,-1179.00,-368.00,-695.00,1621.00,14,17.00,0.00,81.42,0.00,0.00,0.00,0,,,100,100,0,2,0,0,0,1,0,,,,,0.0,0.0,0.0,0.0,0.0,0.0,0
34.182566,-118.129090,1.70,2.00,0.00,8.13,2.00,2.00,4.30,8.27,10761,2022-06-05 22:55:27.277,2022-06-05 15:55:27.277,17,0,0,16.535,34.182639,-118.129091,0.00,0.00,0.00,0.10,0.00,-110.40,0,1,0,90,100,-7516,3276,16535,3091.50,4,WP,1,0,0,0,0,0,0,1654469727277,4147,4125,4130,4137,0,0,27,,,,,,,0,0,0,-1.00,0.00,-1104.00,-368.00,-695.00,1621.00,14,17.00,0.00,81.25,0.00,0.00,0.00,0,,,100,100,0,2,0,0,0,1,0,,,,,0.0,0.0,0.0,0.0,0.0,0.0,0
34.182566,-118.129090,1.70,2.00,0.00,8.11,2.00,2.00,4.30,8.27,10813,2022-06-05 22:55:27.330,2022-06-05 15:55:27.330,17,0,0,16.535,34.182639,-118.129091,0.00,0.00,0.00,0.20,0.00,-103.00,0,1,0,90,100,-7516,3276,16535,3091.50,4,WP,1,0,0,0,0,0,0,1654469727329,4147,4125,4130,4137,0,0,27,,,,,,,0,0,0,-2.00,0.00,-1030.00,-368.00,-695.00,1621.00,14,17.00,0.00,81.12,0.00,0.00,0.00,0,,,100,100,0,2,0,0,0,1,0,,,,,0.0,0.0,0.0,0.0,0.0,0.0,0
34.182566,-118.129090,1.70,2.00,0.00,8.10,2.00,2.00,4.30,8.27,10913,2022-06-05 22:55:27.429,2022-06-05 15:55:27.429,17,0,0,16.535,34.182639,-118.129091,0.00,0.00,0.00,0.30,-0.10,-95.60,0,1,0,90,100,-7516,3276,16535,3091.50,4,WP,1,0,0,0,0,0,0,1654469727429,4147,4125,4130,4137,0,0,27,,,,,,,0,0,0,-3.00,-1.00,-956.00,-368.00,-695.00,1621.00,14,17.00,0.00,81.00,0.00,0.00,0.00,0,,,100,100,0,2,0,0,0,1,0,,,,,0.0,0.0,0.0,0.0,0.0,0.0,0
34.182566,-118.129090,1.70,2.00,0.00,8.09,2.00,2.00,4.30,8.27,11012,2022-06-05 22:55:27.529,2022-06-05 15:55:27.529,17,0,0,16.535,34.182639,-118.129091,0.00,0.00,0.00,0.20,-0.20,-88.20,0,1,0,90,100,-7516,3276,16535,3091.50,4,WP,1,0,0,0,0,0,0,1654469727528,4147,4125,4130,4137,0,0,27,,,,,,,0,0,0,-2.00,-2.00,-882.00,-368.00,-695.00,1621.00,14,17.00,0.00,80.87,0.00,0.00,0.00,0,,,100,100,0,2,0,0,0,1,0,,,,,0.0,0.0,0.0,0.0,0.0,0.0,0
34.182566,-118.129090,1.70,2.00,0.00,8.08,2.00,2.00,4.30,8.27,11113,2022-06-05 22:55:27.630,2022-06-05 15:55:27.630,17,0,0,16.535,34.182639,-118.129091,0.00,0.00,0.00,0.20,-0.30,-80.70,0,1,0,90,100,-7516,3276,16535,3091.50,4,WP,1,0,0,0,0,0,0,1654469727629,4147,4125,4130,4137,0,0,27,,,,,,,0,0,0,-2.00,-3.00,-807.00,-368.00,-695.00,1621.00,14,17.00,0.00,80.77,0.00,0.00,0.00,0,,,100,100,0,2,0,0,0,1,0,,,,,0.0,0.0,0.0,0.0,0.0,0.0,0
34.182566,-118.129090,1.70,2.00,0.00,8.06,2.00,2.00,4.30,8.27,11215,2022-06-05 22:55:27.732,2022-06-05 15:55:27.732,17,0,0,16.535,34.182639,-118.129091,0.00,0.00,0.00,0.20,-0.60,-73.30,0,1,0,90,100,-7516,3276,16535,3091.50,4,WP,1,0,0,0,0,0,0,1654469727731,4147,4125,4130,4137,0,0,27,,,,,,,0,0,0,-2.00,-6.00,-733.00,-368.00,-695.00,1621.00,14,17.00,0.00,80.64,0.00,0.00,0.00,0,,,100,100,0,2,0,0,0,1,0,,,,,0.0,0.0,0.0,0.0,0.0,0.0,0
34.182566,-118.129090,1.70,2.00,0.00,8.05,2.00,2.00,4.30,8.27,11312,2022-06-05 22:55:27.828,2022-06-05 15:55:27.829,17,0,0,16.535,34.182639,-118.129091,0.00,0.00,0.00,0.40,-0.80,-65.80,0,1,0,90,100,-7516,3276,16535,3091.50,4,WP,1,0,0,0,0,0,0,1654469727828,4147,4125,4130,4137,0,0,27,,,,,,,0,0,0,-4.00,-8.00,-658.00,-368.00,-695.00,1621.00,14,17.00,0.00,80.53,0.00,0.00,0.00,0,,,100,100,0,2,0,0,0,1,0,,,,,0.0,0.0,0.0,0.0,0.0,0.0,0
34.182567,-118.129090,1.70,2.00,0.00,8.04,2.00,2.00,4.30,8.27,11412,2022-06-05 22:55:27.928,2022-06-05 15:55:27.928,17,0,0,16.535,34.182639,-118.129091,0.00,0.00,0.00,0.50,-0.70,-58.30,0,1,0,90,100,-7516,3276,16535,3091.50,4,WP,1,0,0,0,0,0,0,1654469727928,4147,4125,4130,4137,0,0,27,,,,,,,0,0,0,-5.00,-7.00,-583.00,-368.00,-695.00,1621.00,14,17.00,0.00,80.41,0.00,0.00,0.00,0,,,100,100,0,2,0,0,0,1,0,,,,,0.0,0.0,0.0,0.0,0.0,0.0,0
34.182567,-118.129090,1.70,2.00,0.00,8.04,2.00,2.00,4.30,8.27,11514,2022-06-05 22:55:28.031,2022-06-05 15:55:28.031,17,0,0,16.535,34.182639,-118.129091,0.00,0.00,0.00,0.60,-0.70,-50.70,0,1,0,90,100,-7516,3276,16535,3091.50,4,WP,1,0,0,0,0,0,0,1654469728030,4147,4125,4130,4137,0,0,27,,,,,,,0,0,0,-6.00,-7.00,-507.00,-368.00,-695.00,1621.00,14,17.00,0.00,80.35,0.00,0.00,0.00,0,,,100,100,0,2,0,0,0,1,0,,,,,0.0,0.0,0.0,0.0,0.0,0.0,0
34.182567,-118.129090,1.70,2.00,0.00,8.02,2.00,2.00,4.30,8.27,11640,2022-06-05 22:55:28.157,2022-06-05 15:55:28.157,17,0,0,16.535,34.182639,-118.129091,0.00,0.00,0.00,0.80,-0.80,-43.10,0,1,0,90,100,-7516,3276,16535,3091.50,4,WP,1,0,0,0,0,0,0,1654469728156,4147,4125,4130,4137,0,0,27,,,,,,,0,0,0,-8.00,-8.00,-431.00,-368.00,-695.00,1621.00,14,17.00,0.00,80.24,0.00,0.00,0.00,0,,,100,100,0,2,0,0,0,1,0,,,,,0.0,0.0,0.0,0.0,0.0,0.0,0
34.182567,-118.129090,1.70,2.00,0.00,8.00,2.00,2.00,4.30,8.27,11711,2022-06-05 22:55:28.228,2022-06-05 15:55:28.228,17,0,0,16.535,34.182639,-118.129091,0.00,0.00,0.00,0.90,-1.00,-35.50,0,1,0,90,100,-7516,3276,16535,3091.50,4,WP,1,0,0,0,0,0,0,1654469728227,4147,4125,4130,4137,0,0,27,,,,,,,0,0,0,-9.00,-10.00,-355.00,-368.00,-695.00,1621.00,14,17.00,0.00,79.99,0.00,0.00,0.00,0,,,100,100,0,2,0,0,0,1,0,,,,,0.0,0.0,0.0,0.0,0.0,0.0,0
34.182567,-118.129090,1.70,2.00,0.00,7.99,2.00,2.00,4.30,8.27,11811,2022-06-05 22:55:28.328,2022-06-05 15:55:28.328,17,0,0,16.535,34.182639,-118.129091,0.00,0.00,0.00,1.10,-1.00,-27.80,0,1,0,90,100,-7516,3276,16535,3091.50,4,WP,1,0,0,0,0,0,0,1654469728327,4147,4125,4130,4137,0,0,27,,,,,,,0,0,0,-11.00,-10.00,-278.00,-368.00,-695.00,1621.00,14,17.00,0.00,79.87,0.00,0.00,0.00,0,,,100,100,0,2,0,0,0,1,0,,,,,0.0,0.0,0.0,0.0,0.0,0.0,0
34.182567,-118.129090,1.70,2.00,0.00,7.98,2.00,2.00,4.30,8.27,11912,2022-06-05 22:55:28.429,2022-06-05 15:55:28.429,17,0,0,16.529,34.182639,-118.129091,0.00,0.00,0.00,0.90,-0.90,-20.20,0,1,0,90,100,-7299,3272,16529,3091.50,4,WP,1,0,0,0,0,0,0,1654469728428,4147,4125,4130,4137,0,0,27,,,,,,,0,0,0,-9.00,-9.00,-202.00,-368.00,-695.00,1621.00,14,17.00,0.00,79.78,0.00,0.00,0.00,0,,,100,100,0,2,0,0,0,1,0,,,,,0.0,0.0,0.0,0.0,0.0,0.0,0
34.182567,-118.129090,1.70,2.00,0.00,7.97,2.00,2.00,4.30,8.27,12011,2022-06-05 22:55:28.528,2022-06-05 15:55:28.528,17,0,0,16.529,34.182639,-118.129091,0.00,0.00,0.00,0.90,-0.80,-12.90,0,1,0,90,100,-7299,3272,16529,3091.50,4,WP,1,0,0,0,0,0,0,1654469728527,4147,4125,4130,4137,0,0,27,,,,,,,0,0,0,-9.00,-8.00,-129.00,-368.00,-695.00,1621.00,14,17.00,0.00,79.70,0.00,0.00,0.00,0,,,100,100,0,2,0,0,0,1,0,,,,,0.0,0.0,0.0,0.0,0.0,0.0,0
34.182567,-118.129090,1.70,2.00,0.00,7.96,2.00,2.00,4.30,8.27,12114,2022-06-05 22:55:28.630,2022-06-05 15:55:28.630,17,0,0,16.529,34.182639,-118.129091,0.00,0.00,0.00,1.10,-1.00,-7.40,0,1,0,90,100,-7299,3272,16529,3091.50,4,WP,1,0,0,0,0,0,0,1654469728630,4147,4125,4130,4137,0,0,27,,,,,,,0,0,0,-11.00,-10.00,-74.00,-368.00,-695.00,1621.00,14,17.00,0.00,79.61,0.00,0.00,0.00,0,,,100,100,0,2,0,0,0,1,0,,,,,0.0,0.0,0.0,0.0,0.0,0.0,0
34.182567,-118.129090,1.70,2.00,0.00,7.95,2.00,2.00,4.30,8.27,12212,2022-06-05 22:55:28.729,2022-06-05 15:55:28.729,17,0,0,16.529,34.182639,-118.129091,0.00,0.00,0.00,1.40,-0.90,-3.90,0,1,0,90,100,-7299,3272,16529,3091.50,4,WP,1,0,0,0,0,0,0,1654469728728,4147,4125,4130,4137,0,0,27,,,,,,,0,0,0,-14.00,-9.00,-39.00,-368.00,-695.00,1621.00,14,17.00,0.00,79.53,0.00,0.00,0.00,0,,,100,100,0,2,0,0,0,1,0,,,,,0.0,0.0,0.0,0.0,0.0,0.0,0
34.182568,-118.129090,1.70,2.00,0.00,7.92,2.00,2.00,4.30,8.27,12314,2022-06-05 22:55:28.830,2022-06-05 15:55:28.830,17,0,0,16.529,34.182639,-118.129091,0.00,0.00,0.00,1.70,-0.80,-1.70,0,1,0,90,100,-7299,3272,16529,3091.50,4,WP,1,0,0,0,0,0,0,1654469728830,4147,4125,4130,4137,0,0,27,,,,,,,0,0,0,-17.00,-8.00,-17.00,-368.00,-695.00,1621.00,14,17.00,0.00,79.19,0.00,0.00,0.00,0,,,100,100,0,2,0,0,0,1,0,,,,,0.0,0.0,0.0,0.0,0.0,0.0,0
34.182568,-118.129090,1.70,2.00,0.00,7.91,2.00,2.00,4.30,8.27,12413,2022-06-05 22:55:28.929,2022-06-05 15:55:28.929,17,0,0,16.529,34.182639,-118.129091,0.00,0.00,0.00,1.70,-0.40,-0.30,0,1,0,90,100,-7299,3272,16529,3091.50,4,WP,1,0,0,0,0,0,0,1654469728929,4147,4125,4130,4137,0,0,27,,,,,,,0,0,0,-17.00,-4.00,-3.00,-368.00,-695.00,1621.00,14,17.00,0.00,79.12,0.00,0.00,0.00,0,,,100,100,0,2,0,0,0,1,0,,,,,0.0,0.0,0.0,0.0,0.0,0.0,0
34.182568,-118.129090,1.70,2.00,0.00,7.92,2.00,2.00,4.30,8.27,12513,2022-06-05 22:55:29.030,2022-06-05 15:55:29.030,17,0,0,16.529,34.182639,-118.129091,0.00,0.00,0.00,1.30,-0.30,0.30,0,1,0,90,100,-7299,3272,16529,3091.50,4,WP,1,0,0,0,0,0,0,1654469729029,4147,4125,4130,4137,0,0,27,,,,,,,0,0,0,-13.00,-3.00,3.00,-368.00,-695.00,1621.00,14,17.00,0.00,79.24,0.00,0.00,0.00,0,,,100,100,0,2,0,0,0,1,0,,,,,0.0,0.0,0.0,0.0,0.0,0.0,0
34.182568,-118.129090,1.70,2.00,0.00,7.92,2.00,2.00,4.30,8.27,12624,2022-06-05 22:55:29.140,2022-06-05 15:55:29.140,17,0,0,16.529,34.182639,-118.129091,0.00,0.00,0.00,1.10,-0.40,0.50,0,1,0,90,100,-7299,3272,16529,3091.50,4,WP,1,0,0,0,0,0,0,1654469729140,4147,4125,4130,4137,0,0,27,,,,,,,0,0,0,-11.00,-4.00,5.00,-368.00,-695.00,1621.00,14,17.00,0.00,79.21,0.00,0.00,0.00,0,,,100,100,0,2,0,0,0,1,0,,,,,0.0,0.0,0.0,0.0,0.0,0.0,0
34.182568,-118.129090,1.70,2.00,0.00,7.92,2.00,2.00,4.30,8.27,12713,2022-06-05 22:55:29.230,2022-06-05 15:55:29.230,17,0,0,16.529,34.182639,-118.129091,0.00,0.00,0.00,1.30,-0.30,0.40,0,1,0,90,100,-7299,3272,16529,3091.50,4,WP,1,0,0,0,0,0,0,1654469729229,4147,4125,4130,4137,0,0,27,,,,,,,0,0,0,-13.00,-3.00,4.00,-368.00,-695.00,1621.00,14,17.00,0.00,79.24,0.00,0.00,0.00,0,,,100,100,0,2,0,0,0,1,0,,,,,0.0,0.0,0.0,0.0,0.0,0.0,0
34.182568,-118.129090,1.70,2.00,0.00,7.92,2.00,2.00,4.30,8.27,12815,2022-06-05 22:55:29.332,2022-06-05 15:55:29.332,17,0,0,16.529,34.182639,-118.129091,0.00,0.00,0.00,1.40,0.10,0.30,0,1,0,90,100,-7299,3272,16529,3091.50,4,WP,1,0,0,0,0,0,0,1654469729331,4147,4125,4130,4137,0,0,27,,,,,,,0,0,0,-14.00,1.00,3.00,-368.00,-695.00,1621.00,14,17.00,0.00,79.22,0.00,0.00,0.00,0,,,100,100,0,2,0,0,0,1,0,,,,,0.0,0.0,0.0,0.0,0.0,0.0,0
34.182568,-118.129089,1.70,2.00,0.00,7.93,2.00,2.00,4.30,8.27,12912,2022-06-05 22:55:29.429,2022-06-05 15:55:29.429,17,0,0,16.529,34.182639,-118.129091,0.00,0.00,0.00,-1.50,-0.60,0.40,0,1,0,90,100,-7299,3272,16529,3091.50,4,WP,1,0,0,0,0,0,0,1654469729428,4147,4125,4130,4137,0,0,27,,,,,,,0,0,0,15.00,-6.00,4.00,-368.00,-695.00,1621.00,14,17.00,0.00,79.33,0.00,0.00,0.00,0,,,100,100,0,2,0,0,0,1,0,,,,,0.0,0.0,0.0,0.0,0.0,0.0,0
34.182568,-118.129089,1.70,2.00,0.00,7.93,2.00,2.00,4.30,8.27,13012,2022-06-05 22:55:29.528,2022-06-05 15:55:29.528,17,0,0,16.529,34.182639,-118.129091,0.00,0.00,0.00,-0.80,-0.90,0.30,0,1,0,90,100,-7299,3272,16529,3091.50,4,WP,1,0,0,0,0,0,0,1654469729528,4147,4125,4130,4137,0,0,27,,,,,,,0,0,0,8.00,-9.00,3.00,-368.00,-695.00,1621.00,14,17.00,0.00,79.30,0.00,0.00,0.00,0,,,100,100,0,2,0,0,0,1,0,,,,,0.0,0.0,0.0,0.0,0.0,0.0,0
34.182568,-118.129089,1.70,2.00,0.00,7.93,2.00,2.00,4.30,8.27,13114,2022-06-05 22:55:29.630,2022-06-05 15:55:29.630,17,0,0,16.529,34.182639,-118.129091,0.00,0.00,0.00,0.90,-0.90,0.20,0,1,0,90,100,-7299,3272,16529,3091.50,4,WP,1,0,0,0,0,0,0,1654469729630,4147,4125,4130,4137,0,0,27,,,,,,,0,0,0,-9.00,-9.00,2.00,-368.00,-695.00,1621.00,14,17.00,0.00,79.28,0.00,0.00,0.00,0,,,100,100,0,2,0,0,0,1,0,,,,,0.0,0.0,0.0,0.0,0.0,0.0,0
34.182568,-118.129089,1.70,2.00,0.00,7.92,2.00,2.00,4.30,8.27,13213,2022-06-05 22:55:29.729,2022-06-05 15:55:29.729,17,0,0,16.529,34.182639,-118.129091,0.00,0.00,0.00,2.40,-0.70,0.10,0,1,0,90,100,-7299,3272,16529,3091.50,4,WP,1,0,0,0,0,0,0,1654469729729,4147,4125,4130,4137,0,0,27,,,,,,,0,0,0,-24.00,-7.00,1.00,-368.00,-695.00,1621.00,14,17.00,0.00,79.22,0.00,0.00,0.00,0,,,100,100,0,2,0,0,0,1,0,,,,,0.0,0.0,0.0,0.0,0.0,0.0,0
34.182567,-118.129089,1.70,2.00,0.00,7.94,2.00,2.00,4.30,8.27,13312,2022-06-05 22:55:29.829,2022-06-05 15:55:29.829,17,0,0,16.529,34.182639,-118.129091,0.00,0.00,0.00,3.50,-0.60,0.10,0,1,0,90,100,-7299,3272,16529,3091.50,4,WP,1,0,0,0,0,0,0,1654469729828,4147,4125,4130,4137,0,0,27,,,,,,,0,0,0,-35.00,-6.00,1.00,-368.00,-695.00,1621.00,14,17.00,0.00,79.38,0.00,0.00,0.00,0,,,100,100,0,2,0,0,0,1,0,,,,,0.0,0.0,0.0,0.0,0.0,0.0,0
34.182567,-118.129089,1.70,2.00,0.00,7.94,2.00,2.00,4.30,8.27,13415,2022-06-05 22:55:29.932,2022-06-05 15:55:29.932,17,0,0,16.529,34.182639,-118.129091,0.00,0.00,0.00,4.00,-0.70,0.10,0,1,0,90,100,-7299,3272,16529,3091.50,4,WP,1,0,0,0,0,0,0,1654469729931,4147,4125,4130,4137,0,0,27,,,,,,,0,0,0,-40.00,-7.00,1.00,-368.00,-695.00,1621.00,14,17.00,0.00,79.40,0.00,0.00,0.00,0,,,100,100,0,2,0,0,0,1,0,,,,,0.0,0.0,0.0,0.0,0.0,0.0,0
