latitude,longitude,altitude(m),ultrasonicHeight(m),speed(mps),distance(m),max_altitude(m),max_ascent(m),max_speed(mps),max_distance(m),time(millisecond),datetime(utc),datetime(local),satellites,pressure(Pa),temperature(F),voltage(v),home_latitude,home_longitude,velocityX(mps),velocityY(mps),velocityZ(mps),pitch(deg),roll(deg),yaw(deg),powerlevel,isflying,istakingphoto,remainPowerPercent,remainLifePercent,currentCurrent,currentElectricity,currentVoltage,batteryTemperature,dischargeCount,flightmode,isMotorsOn,isTakingVideo,Rc_elevator,Rc_aileron,Rc_throttle,Rc_rudder,Rc_gyro,timestamp,Battery_Cell1,Battery_Cell2,Battery_Cell3,Battery_Cell4,Battery_Cell5,Battery_Cell6,Dronetype,AppVersion,Planename,FlyControllerSerialNumber,RemoteSerialNumber,BatterySerialNumber,CENTER_BATTERY.productDate,CENTER_BATTERY.serialNo,CENTER_BATTERY.fullCapacity,CENTER_BATTERY.productDateRaw,pitchRaw,rollRaw,yawRaw,gimbalPitchRaw,gimbalRollRaw,gimbalYawRaw,flyState,altitudeRaw,speedRaw,distanceRaw,velocityXRaw,velocityYRaw,velocityZRaw,data_reuse,App_Tip,App_Warning,downlinkSignalQuality,uplinkSignalQuality,transmissionChannel,rcModeSwitch,rcHome,rcPause,rcTransform,rcJoystickMode,appMode,FlyControllerSerialNumber_legacy,RemoteSerialNumber_legacy,BatterySerialNumber_legacy,Battery2SerialNumber,frontAvoidDist,backAvoidDist,rightAvoidDist,leftAvoidDist,upAvoidDist,downAvoidDist,isBrakingToAvoid
34.182640,-118.129100,0.30,0.40,0.40,0.05,0.30,0.30,0.40,0.05,1,2022-06-05 23:06:35.739,2022-06-05 16:06:35.739,17,0,0,16.134,34.182639,-118.129100,0.00,0.00,-0.40,1.30,-1.10,-14.90,0,1,0,69,100,-1917,2481,16134,3181.50,4,TakeOff,1,0,0,0,0,0,0,1654470395738,4041,4031,4041,4040,0,0,27,Litchi_iOS_2.14.0,Brian-MAVIC 2,163DFCK001S13F,1DUCFB800104PR,0P2AG3L53400KG,,0,3645,0,-13.00,-11.00,-149.00,0.00,0.00,-318.00,11,3.00,4.00,0.54,0.00,0.00,-4.00,0,,,100,100,0,2,0,0,0,1,0,(null),(null),,,0.0,0.0,0.0,0.0,0.0,0.0,0
34.182640,-118.129100,0.40,0.40,0.40,0.09,0.40,0.40,0.40,0.09,99,2022-06-05 23:06:35.837,2022-06-05 16:06:35.837,17,0,0,16.134,34.182639,-118.129100,0.00,0.00,-0.40,1.30,-0.90,-14.80,0,1,0,69,100,-1917,2481,16134,3181.50,4,TakeOff,1,0,0,0,0,0,0,1654470395836,4041,4031,4041,4040,0,0,27,,,,,,,0,0,0,-13.00,-9.00,-148.00,0.00,0.00,-318.00,11,4.00,4.00,0.87,0.00,0.00,-4.00,0,,,100,100,0,2,0,0,0,1,0,,,,,0.0,0.0,0.0,0.0,0.0,0.0,0
34.182640,-118.129100,0.40,0.50,0.40,0.09,0.40,0.40,0.40,0.09,200,2022-06-05 23:06:35.937,2022-06-05 16:06:35.937,17,0,0,16.134,34.182639,-118.129100,0.00,0.00,-0.40,1.60,-0.80,-14.80,0,1,0,69,100,-1917,2481,16134,3181.50,4,TakeOff,1,0,0,0,0,0,0,1654470395937,4041,4031,4041,4040,0,0,27,,,,,,,0,0,0,-16.00,-8.00,-148.00,0.00,0.00,-317.00,11,4.00,4.00,0.94,0.00,0.00,-4.00,0,,,100,100,0,2,0,0,0,1,0,,,,,0.0,0.0,0.0,0.0,0.0,0.0,0
34.182640,-118.129100,0.50,0.50,0.40,0.06,0.50,0.50,0.40,0.09,300,2022-06-05 23:06:36.037,2022-06-05 16:06:36.037,17,0,0,15.923,34.182639,-118.129100,0.00,0.00,-0.40,1.80,-1.10,-14.80,0,1,0,69,100,-6131,2479,15923,3181.50,4,TakeOff,1,0,0,0,0,0,0,1654470396037,4041,4031,4041,4040,0,0,27,,,,,,,0,0,0,-18.00,-11.00,-148.00,0.00,0.00,-317.00,11,5.00,4.00,0.64,0.00,0.00,-4.00,0,,,100,100,0,2,0,0,0,1,0,,,,,0.0,0.0,0.0,0.0,0.0,0.0,0
34.182640,-118.129100,0.50,0.60,0.40,0.07,0.50,0.50,0.40,0.09,402,2022-06-05 23:06:36.139,2022-06-05 16:06:36.140,17,0,0,15.923,34.182639,-118.129100,0.00,0.00,-0.40,1.60,-1.10,-14.80,0,1,0,69,100,-6131,2479,15923,3181.50,4,TakeOff,1,0,0,0,0,0,0,1654470396139,4041,4031,4041,4040,0,0,27,,,,,,,0,0,0,-16.00,-11.00,-148.00,0.00,0.00,-317.00,11,5.00,4.00,0.66,0.00,0.00,-4.00,0,,,100,100,0,2,0,0,0,1,0,,,,,0.0,0.0,0.0,0.0,0.0,0.0,0
34.182640,-118.129100,0.60,0.60,0.50,0.09,0.60,0.60,0.50,0.09,500,2022-06-05 23:06:36.237,2022-06-05 16:06:36.237,17,0,0,15.923,34.182639,-118.129100,0.00,0.00,-0.50,1.50,-1.10,-14.80,0,1,0,69,100,-6131,2479,15923,3181.50,4,TakeOff,1,0,0,0,0,0,0,1654470396237,4041,4031,4041,4040,0,0,27,,,,,,,0,0,0,-15.00,-11.00,-148.00,0.00,0.00,-317.00,11,6.00,5.00,0.86,0.00,0.00,-5.00,0,,,100,100,0,2,0,0,0,1,0,,,,,0.0,0.0,0.0,0.0,0.0,0.0,0
34.182640,-118.129100,0.60,0.70,0.50,0.09,0.60,0.60,0.50,0.09,601,2022-06-05 23:06:36.338,2022-06-05 16:06:36.338,17,0,0,15.923,34.182639,-118.129100,0.00,0.00,-0.50,1.50,-0.90,-14.80,0,1,0,69,100,-6131,2479,15923,3181.50,4,TakeOff,1,0,0,0,0,0,0,1654470396338,4041,4031,4041,4040,0,0,27,,,,,,,0,0,0,-15.00,-9.00,-148.00,0.00,0.00,-317.00,11,6.00,5.00,0.90,0.00,0.00,-5.00,0,,,100,100,0,2,0,0,0,1,0,,,,,0.0,0.0,0.0,0.0,0.0,0.0,0
34.182640,-118.129100,0.70,0.70,0.50,0.10,0.70,0.70,0.50,0.10,700,2022-06-05 23:06:36.438,2022-06-05 16:06:36.438,17,0,0,15.923,34.182639,-118.129100,0.00,0.00,-0.50,1.70,-1.00,-14.90,0,1,0,69,100,-6131,2479,15923,3181.50,4,TakeOff,1,0,0,0,0,0,0,1654470396437,4041,4031,4041,4040,0,0,27,,,,,,,0,0,0,-17.00,-10.00,-149.00,0.00,0.00,-317.00,11,7.00,5.00,0.99,0.00,0.00,-5.00,0,,,100,100,0,2,0,0,0,1,0,,,,,0.0,0.0,0.0,0.0,0.0,0.0,0
34.182640,-118.129100,0.70,0.80,0.50,0.10,0.70,0.70,0.50,0.10,801,2022-06-05 23:06:36.538,2022-06-05 16:06:36.538,17,0,0,15.923,34.182639,-118.129100,0.00,0.00,-0.50,1.70,-1.00,-14.90,0,1,0,69,100,-6131,2479,15923,3181.50,4,TakeOff,1,0,0,0,0,0,0,1654470396538,4041,4031,4041,4040,0,0,27,,,,,,,0,0,0,-17.00,-10.00,-149.00,0.00,0.00,-317.00,11,7.00,5.00,1.01,0.00,0.00,-5.00,0,,,100,100,0,2,0,0,0,1,0,,,,,0.0,0.0,0.0,0.0,0.0,0.0,0
34.182640,-118.129100,0.80,0.80,0.50,0.12,0.80,0.80,0.50,0.12,901,2022-06-05 23:06:36.638,2022-06-05 16:06:36.638,17,0,0,15.923,34.182639,-118.129100,0.00,0.00,-0.50,1.60,-1.00,-14.90,0,1,0,69,100,-6131,2479,15923,3181.50,4,TakeOff,1,0,0,0,0,0,0,1654470396638,4041,4031,4041,4040,0,0,27,,,,,,,0,0,0,-16.00,-10.00,-149.00,0.00,0.00,-317.00,11,8.00,5.00,1.19,0.00,0.00,-5.00,0,,,100,100,0,2,0,0,0,1,0,,,,,0.0,0.0,0.0,0.0,0.0,0.0,0
34.182641,-118.129100,0.80,0.90,0.50,0.12,0.80,0.80,0.50,0.12,1000,2022-06-05 23:06:36.737,2022-06-05 16:06:36.737,17,0,0,15.923,34.182639,-118.129100,0.00,0.00,-0.50,1.50,-1.10,-14.90,0,1,0,69,100,-6131,2479,15923,3181.50,4,TakeOff,1,0,0,0,0,0,0,1654470396737,4041,4031,4041,4040,0,0,27,,,,,,,0,0,0,-15.00,-11.00,-149.00,0.00,0.00,-316.00,11,8.00,5.00,1.22,0.00,0.00,-5.00,0,,,100,100,0,2,0,0,0,1,0,,,,,0.0,0.0,0.0,0.0,0.0,0.0,0
34.182641,-118.129100,0.90,0.90,0.50,0.13,0.90,0.90,0.50,0.13,1100,2022-06-05 23:06:36.838,2022-06-05 16:06:36.838,17,0,0,15.923,34.182639,-118.129100,0.00,0.00,-0.50,1.40,-0.90,-15.00,0,1,0,69,100,-6131,2479,15923,3181.50,4,TakeOff,1,0,0,0,0,0,0,1654470396837,4041,4031,4041,4040,0,0,27,,,,,,,0,0,0,-14.00,-9.00,-150.00,0.00,0.00,-316.00,11,9.00,5.00,1.28,0.00,0.00,-5.00,0,,,100,100,0,2,0,0,0,1,0,,,,,0.0,0.0,0.0,0.0,0.0,0.0,0
34.182641,-118.129100,0.90,1.00,0.50,0.13,0.90,0.90,0.50,0.13,1200,2022-06-05 23:06:36.938,2022-06-05 16:06:36.938,17,0,0,15.923,34.182639,-118.129100,0.00,0.00,-0.50,1.50,-0.70,-15.00,0,1,0,69,100,-6131,2479,15923,3181.50,4,TakeOff,1,0,0,0,0,0,0,1654470396937,4041,4031,4041,4040,0,0,27,,,,,,,0,0,0,-15.00,-7.00,-150.00,0.00,0.00,-316.00,11,9.00,5.00,1.30,0.00,0.00,-5.00,0,,,100,100,0,2,0,0,0,1,0,,,,,0.0,0.0,0.0,0.0,0.0,0.0,0
34.182641,-118.129100,1.00,1.00,0.50,0.14,1.00,1.00,0.50,0.14,1300,2022-06-05 23:06:37.038,2022-06-05 16:06:37.038,17,0,0,15.923,34.182639,-118.129100,0.00,0.00,-0.50,1.60,-0.40,-15.00,0,1,0,69,100,-6131,2479,15923,3181.50,4,TakeOff,1,0,0,0,0,0,0,1654470397037,4041,4031,4041,4040,0,0,27,,,,,,,0,0,0,-16.00,-4.00,-150.00,0.00,0.00,-316.00,11,10.00,5.00,1.37,0.00,0.00,-5.00,0,,,100,100,0,2,0,0,0,1,0,,,,,0.0,0.0,0.0,0.0,0.0,0.0,0
34.182641,-118.129100,1.00,1.10,0.50,0.14,1.00,1.00,0.50,0.14,1401,2022-06-05 23:06:37.139,2022-06-05 16:06:37.139,17,0,0,15.923,34.182639,-118.129100,0.00,0.00,-0.50,1.50,-0.20,-14.90,0,1,0,69,100,-6131,2479,15923,3181.50,4,WP,1,0,0,0,0,0,0,1654470397138,4041,4031,4041,4040,0,0,27,,,,,,,0,0,0,-15.00,-2.00,-149.00,0.00,0.00,-316.00,14,10.00,5.00,1.39,0.00,0.00,-5.00,0,,,100,100,0,2,0,0,0,1,0,,,,,0.0,0.0,0.0,0.0,0.0,0.0,0
34.182641,-118.129100,1.10,1.10,0.40,0.15,1.10,1.10,0.50,0.15,1500,2022-06-05 23:06:37.238,2022-06-05 16:06:37.238,17,0,0,15.923,34.182639,-118.129100,0.00,0.00,-0.40,0.70,0.20,-14.90,0,1,0,69,100,-6131,2479,15923,3181.50,4,WP,1,0,0,0,0,0,0,1654470397237,4041,4031,4041,4040,0,0,27,,,,,,,0,0,0,-7.00,2.00,-149.00,0.00,0.00,-316.00,14,11.00,4.00,1.47,0.00,0.00,-4.00,0,,,100,100,0,2,0,0,0,1,0,,,,,0.0,0.0,0.0,0.0,0.0,0.0,0
34.182641,-118.129100,1.10,1.20,0.40,0.15,1.10,1.10,0.50,0.15,1600,2022-06-05 23:06:37.337,2022-06-05 16:06:37.337,17,0,0,15.923,34.182639,-118.129100,0.00,0.00,-0.40,0.90,0.10,-15.00,0,1,0,69,100,-6131,2479,15923,3181.50,4,WP,1,0,0,0,0,0,0,1654470397337,4041,4031,4041,4040,0,0,27,,,,,,,0,0,0,-9.00,1.00,-150.00,0.00,0.00,-316.00,14,11.00,4.00,1.51,0.00,0.00,-4.00,0,,,100,100,0,2,0,0,0,1,0,,,,,0.0,0.0,0.0,0.0,0.0,0.0,0
34.182641,-118.129100,1.20,1.20,0.40,0.18,1.20,1.20,0.50,0.18,1700,2022-06-05 23:06:37.437,2022-06-05 16:06:37.437,17,0,0,15.923,34.182639,-118.129100,0.00,0.00,-0.40,1.20,-0.20,-15.00,0,1,0,69,100,-6131,2479,15923,3181.50,4,WP,1,0,0,0,0,0,0,1654470397437,4041,4031,4041,4040,0,0,27,,,,,,,0,0,0,-12.00,-2.00,-150.00,0.00,0.00,-316.00,14,12.00,4.00,1.84,0.00,0.00,-4.00,0,,,100,100,0,2,0,0,0,1,0,,,,,0.0,0.0,0.0,0.0,0.0,0.0,0
34.182641,-118.129100,1.20,1.30,0.50,0.19,1.20,1.20,0.50,0.19,1801,2022-06-05 23:06:37.539,2022-06-05 16:06:37.539,17,0,0,15.923,34.182639,-118.129100,0.00,0.00,-0.50,2.20,-0.50,-15.10,0,1,0,69,100,-6131,2479,15923,3181.50,4,WP,1,0,0,0,0,0,0,1654470397538,4041,4031,4041,4040,0,0,27,,,,,,,0,0,0,-22.00,-5.00,-151.00,0.00,0.00,-316.00,14,12.00,5.00,1.92,0.00,0.00,-5.00,0,,,100,100,0,2,0,0,0,1,0,,,,,0.0,0.0,0.0,0.0,0.0,0.0,0
34.182641,-118.129100,1.30,1.30,0.50,0.20,1.30,1.30,0.50,0.20,1900,2022-06-05 23:06:37.638,2022-06-05 16:06:37.638,17,0,0,15.923,34.182639,-118.129100,0.00,0.00,-0.50,2.30,-0.60,-15.20,0,1,0,69,100,-6131,2479,15923,3181.50,4,WP,1,0,0,0,0,0,0,1654470397637,4041,4031,4041,4040,0,0,27,,,,,,,0,0,0,-23.00,-6.00,-152.00,0.00,0.00,-316.00,14,13.00,5.00,1.98,0.00,0.00,-5.00,0,,,100,100,0,2,0,0,0,1,0,,,,,0.0,0.0,0.0,0.0,0.0,0.0,0
34.182641,-118.129100,1.30,1.40,0.50,0.20,1.30,1.30,0.50,0.20,2000,2022-06-05 23:06:37.737,2022-06-05 16:06:37.737,17,0,0,15.923,34.182639,-118.129100,0.00,0.00,-0.50,2.30,-0.70,-15.10,0,1,0,69,100,-6131,2479,15923,3181.50,4,WP,1,0,0,0,0,0,0,1654470397737,4041,4031,4041,4040,0,0,27,,,,,,,0,0,0,-23.00,-7.00,-151.00,0.00,0.00,-316.00,14,13.00,5.00,2.04,0.00,0.00,-5.00,0,,,100,100,0,2,0,0,0,1,0,,,,,0.0,0.0,0.0,0.0,0.0,0.0,0
34.182641,-118.129100,1.40,1.40,0.40,0.20,1.40,1.40,0.50,0.20,2100,2022-06-05 23:06:37.838,2022-06-05 16:06:37.838,17,0,0,15.923,34.182639,-118.129100,0.00,0.00,-0.40,2.20,-0.80,-15.10,0,1,0,69,100,-6131,2479,15923,3181.50,4,WP,1,0,0,0,0,0,0,1654470397837,4041,4031,4041,4040,0,0,27,,,,,,,0,0,0,-22.00,-8.00,-151.00,0.00,0.00,-316.00,14,14.00,4.00,2.02,0.00,0.00,-4.00,0,,,100,100,0,2,0,0,0,1,0,,,,,0.0,0.0,0.0,0.0,0.0,0.0,0
34.182641,-118.129100,1.40,1.50,0.40,0.21,1.40,1.40,0.50,0.21,2201,2022-06-05 23:06:37.939,2022-06-05 16:06:37.939,17,0,0,15.923,34.182639,-118.129100,0.00,0.00,-0.40,2.10,-0.90,-15.10,0,1,0,69,100,-6131,2479,15923,3181.50,4,WP,1,0,0,0,0,0,0,1654470397938,4041,4031,4041,4040,0,0,27,,,,,,,0,0,0,-21.00,-9.00,-151.00,0.00,0.00,-316.00,14,14.00,4.00,2.06,0.00,0.00,-4.00,0,,,100,100,0,2,0,0,0,1,0,,,,,0.0,0.0,0.0,0.0,0.0,0.0,0
34.182641,-118.129100,1.50,1.50,0.40,0.22,1.50,1.50,0.50,0.22,2301,2022-06-05 23:06:38.039,2022-06-05 16:06:38.039,17,0,0,15.879,34.182639,-118.129100,0.00,0.00,-0.40,2.20,-0.70,-15.00,0,1,0,68,100,-7917,2474,15879,3181.50,4,WP,1,0,0,0,0,0,0,1654470398038,4041,4031,4041,4040,0,0,27,,,,,,,0,0,0,-22.00,-7.00,-150.00,0.00,0.00,-316.00,14,15.00,4.00,2.24,0.00,0.00,-4.00,0,,,100,100,0,2,0,0,0,1,0,,,,,0.0,0.0,0.0,0.0,0.0,0.0,0
34.182641,-118.129100,1.50,1.60,0.40,0.23,1.50,1.50,0.50,0.23,2404,2022-06-05 23:06:38.141,2022-06-05 16:06:38.141,17,0,0,15.879,34.182639,-118.129100,0.00,0.00,-0.40,2.50,-0.40,-14.90,0,1,0,68,100,-7917,2474,15879,3181.50,4,WP,1,0,0,0,0,0,0,1654470398141,4041,4031,4041,4040,0,0,27,,,,,,,0,0,0,-25.00,-4.00,-149.00,0.00,0.00,-316.00,14,15.00,4.00,2.27,0.00,0.00,-4.00,0,,,100,100,0,2,0,0,0,1,0,,,,,0.0,0.0,0.0,0.0,0.0,0.0,0
34.182641,-118.129100,1.60,1.60,0.40,0.21,1.60,1.60,0.50,0.23,2501,2022-06-05 23:06:38.239,2022-06-05 16:06:38.239,17,0,0,15.879,34.182639,-118.129100,0.00,0.00,-0.40,2.40,-0.40,-14.90,0,1,0,68,100,-7917,2474,15879,3181.50,4,WP,1,0,0,0,0,0,0,1654470398238,4041,4031,4041,4040,0,0,27,,,,,,,0,0,0,-24.00,-4.00,-149.00,0.00,0.00,-316.00,14,16.00,4.00,2.13,0.00,0.00,-4.00,0,,,100,100,0,2,0,0,0,1,0,,,,,0.0,0.0,0.0,0.0,0.0,0.0,0
34.182641,-118.129100,1.60,1.70,0.40,0.21,1.60,1.60,0.50,0.23,2603,2022-06-05 23:06:38.341,2022-06-05 16:06:38.341,17,0,0,15.879,34.182639,-118.129100,0.00,0.00,-0.40,0.80,-0.10,-14.90,0,1,0,68,100,-7917,2474,15879,3181.50,4,WP,1,0,0,0,0,0,0,1654470398340,4041,4031,4041,4040,0,0,27,,,,,,,0,0,0,-8.00,-1.00,-149.00,0.00,0.00,-316.00,14,16.00,4.00,2.12,0.00,0.00,-4.00,0,,,100,100,0,2,0,0,0,1,0,,,,,0.0,0.0,0.0,0.0,0.0,0.0,0
34.182641,-118.129100,1.60,1.70,0.30,0.22,1.60,1.60,0.50,0.23,2702,2022-06-05 23:06:38.440,2022-06-05 16:06:38.440,17,0,0,15.879,34.182639,-118.129100,0.00,0.00,-0.30,0.20,0.10,-15.20,0,1,0,68,100,-7917,2474,15879,3181.50,4,WP,1,0,0,0,0,0,0,1654470398439,4041,4031,4041,4040,0,0,27,,,,,,,0,0,0,-2.00,1.00,-152.00,0.00,0.00,-316.00,14,16.00,3.00,2.20,0.00,0.00,-3.00,0,,,100,100,0,2,0,0,0,1,0,,,,,0.0,0.0,0.0,0.0,0.0,0.0,0
34.182641,-118.129100,1.70,1.70,0.30,0.22,1.70,1.70,0.50,0.23,2804,2022-06-05 23:06:38.542,2022-06-05 16:06:38.542,17,0,0,15.879,34.182639,-118.129100,0.00,0.00,-0.30,0.50,0.20,-16.10,0,1,0,68,100,-7917,2474,15879,3181.50,4,WP,1,0,0,0,0,0,0,1654470398541,4041,4031,4041,4040,0,0,27,,,,,,,0,0,0,-5.00,2.00,-161.00,0.00,0.00,-316.00,14,17.00,3.00,2.23,0.00,0.00,-3.00,0,,,100,100,0,2,0,0,0,1,0,,,,,0.0,0.0,0.0,0.0,0.0,0.0,0
34.182641,-118.129100,1.70,1.80,0.20,0.21,1.70,1.70,0.50,0.23,2904,2022-06-05 23:06:38.642,2022-06-05 16:06:38.642,17,0,0,15.879,34.182639,-118.129100,0.00,0.00,-0.20,0.80,0.10,-17.70,0,1,0,68,100,-7917,2474,15879,3181.50,4,WP,1,0,0,0,0,0,0,1654470398641,4041,4031,4041,4040,0,0,27,,,,,,,0,0,0,-8.00,1.00,-177.00,0.00,0.00,-317.00,14,17.00,2.00,2.05,0.00,0.00,-2.00,0,,,100,100,0,2,0,0,0,1,0,,,,,0.0,0.0,0.0,0.0,0.0,0.0,0
34.182641,-118.129100,1.70,1.80,0.20,0.21,1.70,1.70,0.50,0.23,3007,2022-06-05 23:06:38.745,2022-06-05 16:06:38.745,17,0,0,15.879,34.182639,-118.129100,0.00,0.00,-0.20,1.00,0.00,-19.90,0,1,0,68,100,-7917,2474,15879,3181.50,4,WP,1,0,0,0,0,0,0,1654470398744,4041,4031,4041,4040,0,0,27,,,,,,,0,0,0,-10.00,0.00,-199.00,0.00,0.00,-322.00,14,17.00,2.00,2.08,0.00,0.00,-2.00,0,,,100,100,0,2,0,0,0,1,0,,,,,0.0,0.0,0.0,0.0,0.0,0.0,0
34.182641,-118.129100,1.80,1.80,0.20,0.22,1.80,1.80,0.50,0.23,3107,2022-06-05 23:06:38.845,2022-06-05 16:06:38.845,17,0,0,15.879,34.182639,-118.129100,0.00,0.00,-0.20,1.00,0.00,-22.60,0,1,0,68,100,-7917,2474,15879,3181.50,4,WP,1,0,0,0,0,0,0,1654470398844,4041,4031,4041,4040,0,0,27,,,,,,,0,0,0,-10.00,0.00,-226.00,0.00,0.00,-336.00,14,18.00,2.00,2.17,0.00,0.00,-2.00,0,,,100,100,0,2,0,0,0,1,0,,,,,0.0,0.0,0.0,0.0,0.0,0.0,0
34.182641,-118.129100,1.80,1.80,0.20,0.22,1.80,1.80,0.50,0.23,3203,2022-06-05 23:06:38.941,2022-06-05 16:06:38.941,17,0,0,15.879,34.182639,-118.129100,0.00,0.00,-0.20,1.10,0.10,-26.10,0,1,0,68,100,-7917,2474,15879,3181.50,4,WP,1,0,0,0,0,0,0,1654470398940,4041,4031,4041,4040,0,0,27,,,,,,,0,0,0,-11.00,1.00,-261.00,0.00,0.00,-361.00,14,18.00,2.00,2.21,0.00,0.00,-2.00,0,,,100,100,0,2,0,0,0,1,0,,,,,0.0,0.0,0.0,0.0,0.0,0.0,0
34.182641,-118.129100,1.80,1.80,0.10,0.22,1.80,1.80,0.50,0.23,3302,2022-06-05 23:06:39.040,2022-06-05 16:06:39.040,17,0,0,15.879,34.182639,-118.129100,0.00,0.00,-0.10,1.20,0.30,-30.00,0,1,0,68,100,-7917,2474,15879,3181.50,4,WP,1,0,0,0,0,0,0,1654470399039,4041,4031,4041,4040,0,0,27,,,,,,,0,0,0,-12.00,3.00,-300.00,0.00,0.00,-396.00,14,18.00,1.00,2.18,0.00,0.00,-1.00,0,,,100,100,0,2,0,0,0,1,0,,,,,0.0,0.0,0.0,0.0,0.0,0.0,0
34.182641,-118.129100,1.80,1.90,0.10,0.22,1.80,1.80,0.50,0.23,3407,2022-06-05 23:06:39.144,2022-06-05 16:06:39.144,17,0,0,15.879,34.182639,-118.129100,0.00,0.00,-0.10,1.20,0.40,-34.70,0,1,0,68,100,-7917,2474,15879,3181.50,4,WP,1,0,0,0,0,0,0,1654470399144,3971,3960,3968,3967,0,0,27,,,,,,,0,0,0,-12.00,4.00,-347.00,0.00,0.00,-439.00,14,18.00,1.00,2.21,0.00,0.00,-1.00,0,,,100,100,0,2,0,0,0,1,0,,,,,0.0,0.0,0.0,0.0,0.0,0.0,0
34.182641,-118.129100,1.80,1.90,0.10,0.22,1.80,1.80,0.50,0.23,3503,2022-06-05 23:06:39.240,2022-06-05 16:06:39.240,17,0,0,15.879,34.182639,-118.129100,0.00,0.00,-0.10,1.20,0.20,-39.70,0,1,0,68,100,-7917,2474,15879,3181.50,4,WP,1,0,0,0,0,0,0,1654470399240,3971,3960,3968,3967,0,0,27,,,,,,,0,0,0,-12.00,2.00,-397.00,0.00,0.00,-488.00,14,18.00,1.00,2.19,0.00,0.00,-1.00,0,,,100,100,0,2,0,0,0,1,0,,,,,0.0,0.0,0.0,0.0,0.0,0.0,0
34.182641,-118.129100,1.80,1.90,0.10,0.22,1.80,1.80,0.50,0.23,3603,2022-06-05 23:06:39.340,2022-06-05 16:06:39.340,17,0,0,15.879,34.182639,-118.129100,0.00,0.00,-0.10,1.20,-0.20,-45.50,0,1,0,68,100,-7917,2474,15879,3181.50,4,WP,1,0,0,0,0,0,0,1654470399340,3971,3960,3968,3967,0,0,27,,,,,,,0,0,0,-12.00,-2.00,-455.00,0.00,0.00,-542.00,14,18.00,1.00,2.24,0.00,0.00,-1.00,0,,,100,100,0,2,0,0,0,1,0,,,,,0.0,0.0,0.0,0.0,0.0,0.0,0
34.182641,-118.129100,1.90,1.90,0.10,0.21,1.90,1.90,0.50,0.23,3702,2022-06-05 23:06:39.440,2022-06-05 16:06:39.440,17,0,0,15.879,34.182639,-118.129100,0.00,0.00,-0.10,1.10,-0.60,-51.70,0,1,0,68,100,-7917,2474,15879,3181.50,4,WP,1,0,0,0,0,0,0,1654470399439,3971,3960,3968,3967,0,0,27,,,,,,,0,0,0,-11.00,-6.00,-517.00,0.00,0.00,-602.00,14,19.00,1.00,2.12,0.00,0.00,-1.00,0,,,100,100,0,2,0,0,0,1,0,,,,,0.0,0.0,0.0,0.0,0.0,0.0,0
34.182641,-118.129100,1.90,1.90,0.00,0.22,1.90,1.90,0.50,0.23,3802,2022-06-05 23:06:39.540,2022-06-05 16:06:39.540,17,0,0,15.879,34.182639,-118.129100,0.00,0.00,0.00,1.10,-0.80,-58.50,0,1,0,68,100,-7917,2474,15879,3181.50,4,WP,1,0,0,0,0,0,0,1654470399539,3971,3960,3968,3967,0,0,27,,,,,,,0,0,0,-11.00,-8.00,-585.00,0.00,0.00,-667.00,14,19.00,0.00,2.16,0.00,0.00,0.00,0,,,100,100,0,2,0,0,0,1,0,,,,,0.0,0.0,0.0,0.0,0.0,0.0,0
34.182641,-118.129100,1.90,1.90,0.00,0.22,1.90,1.90,0.50,0.23,3903,2022-06-05 23:06:39.640,2022-06-05 16:06:39.640,17,0,0,15.879,34.182639,-118.129100,0.00,0.00,0.00,1.10,-0.70,-65.90,0,1,0,68,100,-7917,2474,15879,3181.50,4,WP,1,0,0,0,0,0,0,1654470399640,3971,3960,3968,3967,0,0,27,,,,,,,0,0,0,-11.00,-7.00,-659.00,0.00,0.00,-739.00,14,19.00,0.00,2.21,0.00,0.00,0.00,0,,,100,100,0,2,0,0,0,1,0,,,,,0.0,0.0,0.0,0.0,0.0,0.0,0
34.182641,-118.129100,1.90,1.90,0.00,0.23,1.90,1.90,0.50,0.23,4004,2022-06-05 23:06:39.741,2022-06-05 16:06:39.741,17,0,0,15.879,34.182639,-118.129100,0.00,0.00,0.00,1.20,-0.80,-73.40,0,1,0,68,100,-7917,2474,15879,3181.50,4,WP,1,0,0,0,0,0,0,1654470399741,3971,3960,3968,3967,0,0,27,,,,,,,0,0,0,-12.00,-8.00,-734.00,0.00,0.00,-815.00,14,19.00,0.00,2.26,0.00,0.00,0.00,0,,,100,100,0,2,0,0,0,1,0,,,,,0.0,0.0,0.0,0.0,0.0,0.0,0
34.182642,-118.129100,1.90,1.90,0.00,0.25,1.90,1.90,0.50,0.25,4103,2022-06-05 23:06:39.840,2022-06-05 16:06:39.840,17,0,0,15.879,34.182639,-118.129100,0.00,0.00,0.00,1.20,-1.30,-81.00,0,1,0,68,100,-7917,2474,15879,3181.50,4,WP,1,0,0,0,0,0,0,1654470399840,3971,3960,3968,3967,0,0,27,,,,,,,0,0,0,-12.00,-13.00,-810.00,0.00,0.00,-891.00,14,19.00,0.00,2.50,0.00,0.00,0.00,0,,,100,100,0,2,0,0,0,1,0,,,,,0.0,0.0,0.0,0.0,0.0,0.0,0
34.182642,-118.129100,1.90,1.90,0.00,0.26,1.90,1.90,0.50,0.26,4203,2022-06-05 23:06:39.941,2022-06-05 16:06:39.941,17,0,0,15.879,34.182639,-118.129100,0.00,0.00,0.00,1.00,-1.90,-88.50,0,1,0,68,100,-7917,2474,15879,3181.50,4,WP,1,0,0,0,0,0,0,1654470399940,3971,3960,3968,3967,0,0,27,,,,,,,0,0,0,-10.00,-19.00,-885.00,0.00,0.00,-967.00,14,19.00,0.00,2.58,0.00,0.00,0.00,0,,,100,100,0,2,0,0,0,1,0,,,,,0.0,0.0,0.0,0.0,0.0,0.0,0
34.182642,-118.129100,1.90,1.90,0.00,0.25,1.90,1.90,0.50,0.26,4303,2022-06-05 23:06:40.040,2022-06-05 16:06:40.040,17,0,0,15.863,34.182639,-118.129100,0.00,0.00,0.00,0.90,-2.10,-96.00,0,1,0,68,100,-7533,2470,15863,3181.50,4,WP,1,0,0,0,0,0,0,1654470400040,3971,3960,3968,3967,0,0,27,,,,,,,0,0,0,-9.00,-21.00,-960.00,0.00,0.00,-1043.00,14,19.00,0.00,2.46,0.00,0.00,0.00,0,,,100,100,0,2,0,0,0,1,0,,,,,0.0,0.0,0.0,0.0,0.0,0.0,0
34.182642,-118.129100,1.90,1.90,0.00,0.25,1.90,1.90,0.50,0.26,4407,2022-06-05 23:06:40.144,2022-06-05 16:06:40.145,17,0,0,15.863,34.182639,-118.129100,0.00,0.00,0.00,0.50,-2.20,-103.40,0,1,0,68,100,-7533,2470,15863,3181.50,4,WP,1,0,0,0,0,0,0,1654470400144,3971,3960,3968,3967,0,0,27,,,,,,,0,0,0,-5.00,-22.00,-1034.00,0.00,0.00,-1120.00,14,19.00,0.00,2.51,0.00,0.00,0.00,0,,,100,100,0,2,0,0,0,1,0,,,,,0.0,0.0,0.0,0.0,0.0,0.0,0
34.182642,-118.129100,1.90,1.90,0.00,0.24,1.90,1.90,0.50,0.26,4503,2022-06-05 23:06:40.241,2022-06-05 16:06:40.241,17,0,0,15.863,34.182639,-118.129100,0.00,0.00,0.00,0.30,-2.00,-111.00,0,1,0,68,100,-7533,2470,15863,3181.50,4,WP,1,0,0,0,0,0,0,1654470400240,3971,3960,3968,3967,0,0,27,,,,,,,0,0,0,-3.00,-20.00,-1110.00,0.00,0.00,-1196.00,14,19.00,0.00,2.38,0.00,0.00,0.00,0,,,100,100,0,2,0,0,0,1,0,,,,,0.0,0.0,0.0,0.0,0.0,0.0,0
34.182642,-118.129100,1.90,2.00,0.00,0.24,1.90,1.90,0.50,0.26,4603,2022-06-05 23:06:40.341,2022-06-05 16:06:40.341,17,0,0,15.863,34.182639,-118.129100,0.00,0.00,0.00,0.10,-2.00,-118.50,0,1,0,68,100,-7533,2470,15863,3181.50,4,WP,1,0,0,0,0,0,0,1654470400340,3971,3960,3968,3967,0,0,27,,,,,,,0,0,0,-1.00,-20.00,-1185.00,0.00,0.00,-1272.00,14,19.00,0.00,2.41,0.00,0.00,0.00,0,,,100,100,0,2,0,0,0,1,0,,,,,0.0,0.0,0.0,0.0,0.0,0.0,0
34.182641,-118.129100,1.90,2.00,0.00,0.23,1.90,1.90,0.50,0.26,4704,2022-06-05 23:06:40.441,2022-06-05 16:06:40.441,17,0,0,15.863,34.182639,-118.129100,0.00,0.00,0.00,0.00,-2.00,-126.10,0,1,0,68,100,-7533,2470,15863,3181.50,4,WP,1,0,0,0,0,0,0,1654470400441,3971,3960,3968,3967,0,0,27,,,,,,,0,0,0,-0.00,-20.00,-1261.00,0.00,0.00,-1347.00,14,19.00,0.00,2.30,0.00,0.00,0.00,0,,,100,100,0,2,0,0,0,1,0,,,,,0.0,0.0,0.0,0.0,0.0,0.0,0
34.182641,-118.129100,1.90,2.00,0.00,0.23,1.90,1.90,0.50,0.26,4803,2022-06-05 23:06:40.541,2022-06-05 16:06:40.541,17,0,0,15.863,34.182639,-118.129100,0.00,0.00,0.00,-0.20,-2.00,-133.70,0,1,0,68,100,-7533,2470,15863,3181.50,4,WP,1,0,0,0,0,0,0,1654470400540,3971,3960,3968,3967,0,0,27,,,,,,,0,0,0,2.00,-20.00,-1337.00,0.00,0.00,-1423.00,14,19.00,0.00,2.30,0.00,0.00,0.00,0,,,100,100,0,2,0,0,0,1,0,,,,,0.0,0.0,0.0,0.0,0.0,0.0,0
34.182642,-118.129100,1.90,2.00,0.00,0.24,1.90,1.90,0.50,0.26,4904,2022-06-05 23:06:40.641,2022-06-05 16:06:40.641,17,0,0,15.863,34.182639,-118.129100,0.00,0.00,0.00,-0.40,-1.80,-141.30,0,1,0,68,100,-7533,2470,15863,3181.50,4,WP,1,0,0,0,0,0,0,1654470400641,3971,3960,3968,3967,0,0,27,,,,,,,0,0,0,4.00,-18.00,-1413.00,0.00,0.00,-1500.00,14,19.00,0.00,2.36,0.00,0.00,0.00,0,,,100,100,0,2,0,0,0,1,0,,,,,0.0,0.0,0.0,0.0,0.0,0.0,0
34.182642,-118.129100,1.90,2.00,0.00,0.24,1.90,1.90,0.50,0.26,5004,2022-06-05 23:06:40.741,2022-06-05 16:06:40.741,17,0,0,15.863,34.182639,-118.129100,0.00,0.00,0.00,-0.50,-1.70,-148.90,0,1,0,68,100,-7533,2470,15863,3181.50,4,WP,1,0,0,0,0,0,0,1654470400741,3971,3960,3968,3967,0,0,27,,,,,,,0,0,0,5.00,-17.00,-1489.00,0.00,0.00,-1577.00,14,19.00,0.00,2.35,0.00,0.00,0.00,0,,,100,100,0,2,0,0,0,1,0,,,,,0.0,0.0,0.0,0.0,0.0,0.0,0
34.182641,-118.129100,1.90,2.00,0.00,0.22,1.90,1.90,0.50,0.26,5105,2022-06-05 23:06:40.843,2022-06-05 16:06:40.843,17,0,0,15.863,34.182639,-118.129100,0.00,0.00,0.00,-0.70,-1.50,-156.50,0,1,0,68,100,-7533,2470,15863,3181.50,4,WP,1,0,0,0,0,0,0,1654470400842,3971,3960,3968,3967,0,0,27,,,,,,,0,0,0,7.00,-15.00,-1565.00,0.00,0.00,-1653.00,14,19.00,0.00,2.23,0.00,0.00,0.00,0,,,100,100,0,2,0,0,0,1,0,,,,,0.0,0.0,0.0,0.0,0.0,0.0,0
34.182641,-118.129100,1.90,2.00,0.00,0.22,1.90,1.90,0.50,0.26,5205,2022-06-05 23:06:40.942,2022-06-05 16:06:40.942,17,0,0,15.863,34.182639,-118.129100,0.00,0.00,0.00,-0.60,-1.40,-164.00,0,1,0,68,100,-7533,2470,15863,3181.50,4,WP,1,0,0,0,0,0,0,1654470400942,3971,3960,3968,3967,0,0,27,,,,,,,0,0,0,6.00,-14.00,-1640.00,0.00,0.00,-1728.00,14,19.00,0.00,2.19,0.00,0.00,0.00,0,,,100,100,0,2,0,0,0,1,0,,,,,0.0,0.0,0.0,0.0,0.0,0.0,0
34.182641,-118.129100,1.90,2.00,0.00,0.21,1.90,1.90,0.50,0.26,5304,2022-06-05 23:06:41.041,2022-06-05 16:06:41.041,17,0,0,15.863,34.182639,-118.129100,0.00,0.00,0.00,-0.80,-1.20,-171.20,0,1,0,68,100,-7533,2470,15863,3181.50,4,WP,1,0,0,0,0,0,0,1654470401041,3971,3960,3968,3967,0,0,27,,,,,,,0,0,0,8.00,-12.00,-1712.00,0.00,0.00,1795.00,14,19.00,0.00,2.09,0.00,0.00,0.00,0,,,100,100,0,2,0,0,0,1,0,,,,,0.0,0.0,0.0,0.0,0.0,0.0,0
34.182641,-118.129100,1.90,2.00,0.00,0.20,1.90,1.90,0.50,0.26,5407,2022-06-05 23:06:41.144,2022-06-05 16:06:41.144,17,0,0,15.863,34.182639,-118.129100,0.00,0.00,0.00,-0.80,-1.20,-176.50,0,1,0,68,100,-7533,2470,15863,3181.50,4,WP,1,0,0,0,0,0,0,1654470401144,3971,3960,3968,3967,0,0,27,,,,,,,0,0,0,8.00,-12.00,-1765.00,0.00,0.00,1727.00,14,19.00,0.00,2.03,0.00,0.00,0.00,0,,,100,100,0,2,0,0,0,1,0,,,,,0.0,0.0,0.0,0.0,0.0,0.0,0
34.182641,-118.129100,1.90,2.00,0.00,0.19,1.90,1.90,0.50,0.26,5504,2022-06-05 23:06:41.241,2022-06-05 16:06:41.241,17,0,0,15.863,34.182639,-118.129100,0.00,0.00,0.00,-0.70,-1.20,179.80,0,1,0,68,100,-7533,2470,15863,3181.50,4,WP,1,0,0,0,0,0,0,1654470401241,3971,3960,3968,3967,0,0,27,,,,,,,0,0,0,7.00,-12.00,1798.00,0.00,0.00,1675.00,14,19.00,0.00,1.94,0.00,0.00,0.00,0,,,100,100,0,2,0,0,0,1,0,,,,,0.0,0.0,0.0,0.0,0.0,0.0,0
34.182641,-118.129100,1.90,2.00,0.00,0.19,1.90,1.90,0.50,0.26,5604,2022-06-05 23:06:41.341,2022-06-05 16:06:41.341,17,0,0,15.863,34.182639,-118.129100,0.00,0.00,0.00,-0.70,-1.30,177.50,0,1,0,68,100,-7533,2470,15863,3181.50,4,WP,1,0,0,0,0,0,0,1654470401341,3971,3960,3968,3967,0,0,27,,,,,,,0,0,0,7.00,-13.00,1775.00,0.00,0.00,1640.00,14,19.00,0.00,1.87,0.00,0.00,0.00,0,,,100,100,0,2,0,0,0,1,0,,,,,0.0,0.0,0.0,0.0,0.0,0.0,0
34.182641,-118.129100,1.90,2.00,0.00,0.18,1.90,1.90,0.50,0.26,5705,2022-06-05 23:06:41.442,2022-06-05 16:06:41.443,17,0,0,15.863,34.182639,-118.129100,0.00,0.00,0.00,-0.70,-1.30,176.10,0,1,0,68,100,-7533,2470,15863,3181.50,4,WP,1,0,0,0,0,0,0,1654470401442,3971,3960,3968,3967,0,0,27,,,,,,,0,0,0,7.00,-13.00,1761.00,0.00,0.00,1617.00,14,19.00,0.00,1.78,0.00,0.00,0.00,0,,,100,100,0,2,0,0,0,1,0,,,,,0.0,0.0,0.0,0.0,0.0,0.0,0
34.182641,-118.129100,1.90,2.00,0.00,0.17,1.90,1.90,0.50,0.26,5805,2022-06-05 23:06:41.542,2022-06-05 16:06:41.542,17,0,0,15.863,34.182639,-118.129100,0.00,0.00,0.00,-0.60,-1.30,175.20,0,1,0,68,100,-7533,2470,15863,3181.50,4,WP,1,0,0,0,0,0,0,1654470401542,3971,3960,3968,3967,0,0,27,,,,,,,0,0,0,6.00,-13.00,1752.00,0.00,0.00,1602.00,14,19.00,0.00,1.70,0.00,0.00,0.00,0,,,100,100,0,2,0,0,0,1,0,,,,,0.0,0.0,0.0,0.0,0.0,0.0,0
34.182641,-118.129100,1.90,2.00,0.00,0.16,1.90,1.90,0.50,0.26,5904,2022-06-05 23:06:41.642,2022-06-05 16:06:41.642,17,0,0,15.863,34.182639,-118.129100,0.00,0.00,0.00,-0.50,-1.60,174.70,0,1,0,68,100,-7533,2470,15863,3181.50,4,WP,1,0,0,0,0,0,0,1654470401641,3971,3960,3968,3967,0,0,27,,,,,,,0,0,0,5.00,-16.00,1747.00,0.00,0.00,1593.00,14,19.00,0.00,1.62,0.00,0.00,0.00,0,,,100,100,0,2,0,0,0,1,0,,,,,0.0,0.0,0.0,0.0,0.0,0.0,0
34.182641,-118.129100,1.90,2.00,0.00,0.15,1.90,1.90,0.50,0.26,6005,2022-06-05 23:06:41.742,2022-06-05 16:06:41.742,17,0,0,15.863,34.182639,-118.129100,0.00,0.00,0.00,-0.60,-1.90,174.50,0,1,0,68,100,-7533,2470,15863,3181.50,4,WP,1,0,0,0,0,0,0,1654470401742,3971,3960,3968,3967,0,0,27,,,,,,,0,0,0,6.00,-19.00,1745.00,0.00,0.00,1588.00,14,19.00,0.00,1.54,0.00,0.00,0.00,0,,,100,100,0,2,0,0,0,1,0,,,,,0.0,0.0,0.0,0.0,0.0,0.0,0
34.182641,-118.129100,1.90,2.00,0.00,0.15,1.90,1.90,0.50,0.26,6105,2022-06-05 23:06:41.843,2022-06-05 16:06:41.843,17,0,0,15.863,34.182639,-118.129100,0.00,0.00,0.00,-0.50,-2.00,174.30,0,1,0,68,100,-7533,2470,15863,3181.50,4,WP,1,0,0,0,0,0,0,1654470401842,3971,3960,3968,3967,0,0,27,,,,,,,0,0,0,5.00,-20.00,1743.00,0.00,0.00,1584.00,14,19.00,0.00,1.53,0.00,0.00,0.00,0,,,100,100,0,2,0,0,0,1,0,,,,,0.0,0.0,0.0,0.0,0.0,0.0,0
34.182641,-118.129100,1.90,2.00,0.00,0.15,1.90,1.90,0.50,0.26,6205,2022-06-05 23:06:41.942,2022-06-05 16:06:41.942,17,0,0,15.863,34.182639,-118.129100,0.00,0.00,0.00,-0.90,-1.50,174.30,0,1,0,68,100,-7533,2470,15863,3181.50,4,WP,1,0,0,0,0,0,0,1654470401942,3971,3960,3968,3967,0,0,27,,,,,,,0,0,0,9.00,-15.00,1743.00,0.00,0.00,1582.00,14,19.00,0.00,1.48,0.00,0.00,0.00,0,,,100,100,0,2,0,0,0,1,0,,,,,0.0,0.0,0.0,0.0,0.0,0.0,0
34.182641,-118.129100,1.90,2.00,0.00,0.16,1.90,1.90,0.50,0.26,6305,2022-06-05 23:06:42.042,2022-06-05 16:06:42.042,17,0,0,15.840,34.182639,-118.129100,0.00,0.00,0.00,-6.10,-1.30,174.30,0,1,0,68,100,-7559,2464,15840,3181.50,4,WP,1,0,0,0,0,0,0,1654470402042,3971,3960,3968,3967,0,0,27,,,,,,,0,0,0,61.00,-13.00,1743.00,0.00,0.00,1581.00,14,19.00,0.00,1.64,0.00,0.00,0.00,0,,,100,100,0,2,0,0,0,1,0,,,,,0.0,0.0,0.0,0.0,0.0,0.0,0
34.182641,-118.129100,1.90,2.00,0.10,0.15,1.90,1.90,0.50,0.26,6410,2022-06-05 23:06:42.147,2022-06-05 16:06:42.147,17,0,0,15.840,34.182639,-118.129100,-0.10,0.00,0.00,-11.20,-1.00,174.40,0,1,0,68,100,-7559,2464,15840,3181.50,4,WP,1,0,0,0,0,0,0,1654470402147,3971,3960,3968,3967,0,0,27,,,,,,,0,0,0,112.00,-10.00,1744.00,0.00,0.00,1580.00,14,19.00,1.00,1.54,-1.00,0.00,0.00,0,,,100,100,0,2,0,0,0,1,0,,,,,0.0,0.0,0.0,0.0,0.0,0.0,0
34.182641,-118.129100,1.90,2.00,0.30,0.13,1.90,1.90,0.50,0.26,6504,2022-06-05 23:06:42.241,2022-06-05 16:06:42.241,17,0,0,15.840,34.182639,-118.129100,-0.30,0.00,0.00,-15.10,-1.00,174.40,0,1,0,68,100,-7559,2464,15840,3181.50,4,WP,1,0,0,0,0,0,0,1654470402241,3971,3960,3968,3967,0,0,27,,,,,,,0,0,0,151.00,-10.00,1744.00,0.00,0.00,1579.00,14,19.00,3.00,1.25,-3.00,0.00,0.00,0,,,100,100,0,2,0,0,0,1,0,,,,,0.0,0.0,0.0,0.0,0.0,0.0,0
34.182640,-118.129100,1.90,2.00,0.50,0.08,1.90,1.90,0.50,0.26,6607,2022-06-05 23:06:42.344,2022-06-05 16:06:42.344,17,0,0,15.840,34.182639,-118.129100,-0.50,0.00,0.00,-17.70,-0.90,174.50,0,1,0,68,100,-7559,2464,15840,3181.50,4,WP,1,0,0,0,0,0,0,1654470402344,3971,3960,3968,3967,0,0,27,,,,,,,0,0,0,177.00,-9.00,1745.00,0.00,0.00,1579.00,14,19.00,5.00,0.77,-5.00,0.00,0.00,0,,,100,100,0,2,0,0,0,1,0,,,,,0.0,0.0,0.0,0.0,0.0,0.0,0
34.182639,-118.129099,1.90,2.00,0.80,0.02,1.90,1.90,0.80,0.26,6705,2022-06-05 23:06:42.442,2022-06-05 16:06:42.442,17,0,0,15.840,34.182639,-118.129100,-0.80,0.00,0.00,-19.30,-0.90,174.50,0,1,0,68,100,-7559,2464,15840,3181.50,4,WP,1,0,0,0,0,0,0,1654470402442,3971,3960,3968,3967,0,0,27,,,,,,,0,0,0,193.00,-9.00,1745.00,0.00,0.00,1579.00,14,19.00,8.00,0.20,-8.00,0.00,0.00,0,,,100,100,0,2,0,0,0,1,0,,,,,0.0,0.0,0.0,0.0,0.0,0.0,0
34.182639,-118.129099,1.90,2.00,1.10,0.10,1.90,1.90,1.10,0.26,6805,2022-06-05 23:06:42.542,2022-06-05 16:06:42.542,17,0,0,15.840,34.182639,-118.129100,-1.10,0.00,0.00,-20.50,-0.80,174.60,0,1,0,68,100,-7559,2464,15840,3181.50,4,WP,1,0,0,0,0,0,0,1654470402542,3971,3960,3968,3967,0,0,27,,,,,,,0,0,0,205.00,-8.00,1746.00,0.00,0.00,1579.00,14,19.00,11.00,1.05,-11.00,0.00,0.00,0,,,100,100,0,2,0,0,0,1,0,,,,,0.0,0.0,0.0,0.0,0.0,0.0,0
34.182638,-118.129099,1.90,2.00,1.40,0.21,1.90,1.90,1.40,0.26,6904,2022-06-05 23:06:42.642,2022-06-05 16:06:42.642,17,0,0,15.840,34.182639,-118.129100,-1.40,0.10,0.00,-21.90,-0.60,174.50,0,1,0,68,100,-7559,2464,15840,3181.50,4,WP,1,0,0,0,0,0,0,1654470402641,3971,3960,3968,3967,0,0,27,,,,,,,0,0,0,219.00,-6.00,1745.00,0.00,0.00,1579.00,14,19.00,14.04,2.11,-14.00,1.00,0.00,0,,,100,100,0,2,0,0,0,1,0,,,,,0.0,0.0,0.0,0.0,0.0,0.0,0
34.182636,-118.129099,1.90,2.00,1.70,0.38,1.90,1.90,1.70,0.38,7005,2022-06-05 23:06:42.743,2022-06-05 16:06:42.743,17,0,0,15.840,34.182639,-118.129100,-1.70,0.10,0.00,-22.90,-0.50,174.50,0,1,0,68,100,-7559,2464,15840,3181.50,4,WP,1,0,0,0,0,0,0,1654470402742,3971,3960,3968,3967,0,0,27,,,,,,,0,0,0,229.00,-5.00,1745.00,0.00,0.00,1579.00,14,19.00,17.03,3.78,-17.00,1.00,0.00,0,,,100,100,0,2,0,0,0,1,0,,,,,0.0,0.0,0.0,0.0,0.0,0.0,0
34.182635,-118.129099,1.90,2.00,2.10,0.54,1.90,1.90,2.10,0.54,7105,2022-06-05 23:06:42.842,2022-06-05 16:06:42.842,17,0,0,15.840,34.182639,-118.129100,-2.10,0.10,0.00,-23.40,-1.00,174.60,0,1,0,68,100,-7559,2464,15840,3181.50,4,WP,1,0,0,0,0,0,0,1654470402842,3971,3960,3968,3967,0,0,27,,,,,,,0,0,0,234.00,-10.00,1746.00,0.00,0.00,1578.00,14,19.00,21.02,5.44,-21.00,1.00,0.00,0,,,100,100,0,2,0,0,0,1,0,,,,,0.0,0.0,0.0,0.0,0.0,0.0,0
34.182632,-118.129099,1.90,2.00,2.41,0.78,1.90,1.90,2.41,0.78,7205,2022-06-05 23:06:42.942,2022-06-05 16:06:42.942,17,0,0,15.840,34.182639,-118.129100,-2.40,0.20,0.00,-22.80,-1.20,174.60,0,1,0,68,100,-7559,2464,15840,3181.50,4,WP,1,0,0,0,0,0,0,1654470402942,3971,3960,3968,3967,0,0,27,,,,,,,0,0,0,228.00,-12.00,1746.00,0.00,0.00,1578.00,14,19.00,24.08,7.78,-24.00,2.00,0.00,0,,,100,100,0,2,0,0,0,1,0,,,,,0.0,0.0,0.0,0.0,0.0,0.0,0
34.182630,-118.129099,1.90,2.00,2.81,1.03,1.90,1.90,2.81,1.03,7305,2022-06-05 23:06:43.042,2022-06-05 16:06:43.043,17,0,0,15.840,34.182639,-118.129100,-2.80,0.20,0.00,-22.30,-1.40,174.60,0,1,0,68,100,-7559,2464,15840,3181.50,4,WP,1,0,0,0,0,0,0,1654470403042,3971,3960,3968,3967,0,0,27,,,,,,,0,0,0,223.00,-14.00,1746.00,0.00,0.00,1578.00,14,19.00,28.07,10.31,-28.00,2.00,0.00,0,,,100,100,0,2,0,0,0,1,0,,,,,0.0,0.0,0.0,0.0,0.0,0.0,0
34.182627,-118.129099,1.90,2.00,3.11,1.33,1.90,1.90,3.11,1.33,7405,2022-06-05 23:06:43.143,2022-06-05 16:06:43.143,17,0,0,15.840,34.182639,-118.129100,-3.10,0.20,0.00,-21.90,-1.90,174.80,0,1,0,68,100,-7559,2464,15840,3181.50,4,WP,1,0,0,0,0,0,0,1654470403142,3971,3960,3968,3967,0,0,27,,,,,,,0,0,0,219.00,-19.00,1748.00,0.00,0.00,1578.00,14,19.00,31.06,13.28,-31.00,2.00,0.00,0,,,100,100,0,2,0,0,0,1,0,,,,,0.0,0.0,0.0,0.0,0.0,0.0,0
34.182624,-118.129099,1.90,2.00,3.41,1.67,1.90,1.90,3.41,1.67,7504,2022-06-05 23:06:43.242,2022-06-05 16:06:43.242,17,0,0,15.840,34.182639,-118.129100,-3.40,0.20,0.00,-21.40,-2.40,174.90,0,1,0,68,100,-7559,2464,15840,3181.50,4,WP,1,0,0,0,0,0,0,1654470403241,3971,3960,3968,3967,0,0,27,,,,,,,0,0,0,214.00,-24.00,1749.00,0.00,0.00,1578.00,14,19.00,34.06,16.73,-34.00,2.00,0.00,0,,,100,100,0,2,0,0,0,1,0,,,,,0.0,0.0,0.0,0.0,0.0,0.0,0
34.182621,-118.129099,1.90,2.00,3.71,2.03,1.90,1.90,3.71,2.03,7606,2022-06-05 23:06:43.344,2022-06-05 16:06:43.344,17,0,0,15.840,34.182639,-118.129100,-3.70,0.20,0.00,-20.80,-3.30,174.90,0,1,0,68,100,-7559,2464,15840,3181.50,4,WP,1,0,0,0,0,0,0,1654470403343,3971,3960,3968,3967,0,0,27,,,,,,,0,0,0,208.00,-33.00,1749.00,0.00,0.00,1578.00,14,19.00,37.05,20.30,-37.00,2.00,0.00,0,,,100,100,0,2,0,0,0,1,0,,,,,0.0,0.0,0.0,0.0,0.0,0.0,0
34.182618,-118.129100,1.90,2.00,3.91,2.38,1.90,1.90,3.91,2.38,7705,2022-06-05 23:06:43.442,2022-06-05 16:06:43.442,17,0,0,15.840,34.182639,-118.129100,-3.90,0.20,0.00,-17.30,-3.40,175.00,0,1,0,68,100,-7559,2464,15840,3181.50,4,WP,1,0,0,0,0,0,0,1654470403442,3971,3960,3968,3967,0,0,27,,,,,,,0,0,0,173.00,-34.00,1750.00,0.00,0.00,1578.00,14,19.00,39.05,23.76,-39.00,2.00,0.00,0,,,100,100,0,2,0,0,0,1,0,,,,,0.0,0.0,0.0,0.0,0.0,0.0,0
34.182614,-118.129099,1.90,2.10,4.11,2.78,1.90,1.90,4.11,2.78,7805,2022-06-05 23:06:43.543,2022-06-05 16:06:43.543,17,0,0,15.840,34.182639,-118.129100,-4.10,0.30,0.00,-13.70,-3.60,174.70,0,1,0,68,100,-7559,2464,15840,3181.50,4,WP,1,0,0,0,0,0,0,1654470403542,3971,3960,3968,3967,0,0,27,,,,,,,0,0,0,137.00,-36.00,1747.00,0.00,0.00,1578.00,14,19.00,41.11,27.75,-41.00,3.00,0.00,0,,,100,100,0,2,0,0,0,1,0,,,,,0.0,0.0,0.0,0.0,0.0,0.0,0
34.182611,-118.129100,2.00,2.10,4.21,3.20,2.00,2.00,4.21,3.20,7905,2022-06-05 23:06:43.643,2022-06-05 16:06:43.643,17,0,0,15.840,34.182639,-118.129100,-4.20,0.30,0.00,-10.70,-3.20,174.90,0,1,0,68,100,-7559,2464,15840,3181.50,4,WP,1,0,0,0,0,0,0,1654470403642,3971,3960,3968,3967,0,0,27,,,,,,,0,0,0,107.00,-32.00,1749.00,0.00,0.00,1578.00,14,20.00,42.11,31.96,-42.00,3.00,0.00,0,,,100,100,0,2,0,0,0,1,0,,,,,0.0,0.0,0.0,0.0,0.0,0.0,0
34.182607,-118.129099,2.00,2.10,4.32,3.62,2.00,2.00,4.32,3.62,8005,2022-06-05 23:06:43.743,2022-06-05 16:06:43.743,17,0,0,15.840,34.182639,-118.129100,-4.30,0.40,0.00,-4.50,-3.80,174.40,0,1,0,68,100,-7559,2464,15840,3181.50,4,WP,1,0,0,0,0,0,0,1654470403742,3971,3960,3968,3967,0,0,27,,,,,,,0,0,0,45.00,-38.00,1744.00,0.00,0.00,1578.00,14,20.00,43.19,36.17,-43.00,4.00,0.00,0,,,100,100,0,2,0,0,0,1,0,,,,,0.0,0.0,0.0,0.0,0.0,0.0,0
34.182603,-118.129100,2.00,2.10,4.21,4.07,2.00,2.00,4.32,4.07,8105,2022-06-05 23:06:43.842,2022-06-05 16:06:43.842,17,0,0,15.840,34.182639,-118.129100,-4.20,0.30,0.00,2.10,-5.10,174.40,0,1,0,68,100,-7559,2464,15840,3181.50,4,WP,1,0,0,0,0,0,0,1654470403842,3971,3960,3968,3967,0,0,27,,,,,,,0,0,0,-21.00,-51.00,1744.00,0.00,0.00,1578.00,14,20.00,42.11,40.66,-42.00,3.00,0.00,0,,,100,100,0,2,0,0,0,1,0,,,,,0.0,0.0,0.0,0.0,0.0,0.0,0
34.182599,-118.129100,1.90,2.10,4.12,4.48,2.00,2.00,4.32,4.48,8205,2022-06-05 23:06:43.943,2022-06-05 16:06:43.943,17,0,0,15.840,34.182639,-118.129100,-4.10,0.40,0.00,6.80,-6.00,173.70,0,1,0,68,100,-7559,2464,15840,3181.50,4,WP,1,0,0,0,0,0,0,1654470403942,3971,3960,3968,3967,0,0,27,,,,,,,0,0,0,-68.00,-60.00,1737.00,0.00,0.00,1578.00,14,19.00,41.19,44.79,-41.00,4.00,0.00,0,,,100,100,0,2,0,0,0,1,0,,,,,0.0,0.0,0.0,0.0,0.0,0.0,0
34.182595,-118.129100,1.90,2.00,3.92,4.92,2.00,2.00,4.32,4.92,8305,2022-06-05 23:06:44.043,2022-06-05 16:06:44.043,17,0,0,15.840,34.182639,-118.129100,-3.90,0.40,0.00,9.40,-5.70,174.00,0,1,0,68,100,-7559,2464,15840,3181.50,4,WP,1,0,0,0,0,0,0,1654470404042,3971,3960,3968,3967,0,0,27,,,,,,,0,0,0,-94.00,-57.00,1740.00,0.00,0.00,1578.00,14,19.00,39.20,49.19,-39.00,4.00,0.00,0,,,100,100,0,2,0,0,0,1,0,,,,,0.0,0.0,0.0,0.0,0.0,0.0,0
34.182592,-118.129100,1.90,2.00,3.63,5.29,2.00,2.00,4.32,5.29,8407,2022-06-05 23:06:44.144,2022-06-05 16:06:44.144,17,0,0,15.796,34.182639,-118.129100,-3.60,0.50,0.00,10.60,-5.20,174.00,0,1,0,68,100,-8360,2459,15796,3191.50,4,WP,1,0,0,0,0,0,0,1654470404144,3971,3960,3968,3967,0,0,27,,,,,,,0,0,0,-106.00,-52.00,1740.00,0.00,0.00,1578.00,14,19.00,36.35,52.93,-36.00,5.00,0.00,0,,,100,100,0,2,0,0,0,1,0,,,,,0.0,0.0,0.0,0.0,0.0,0.0,0
34.182588,-118.129100,1.90,2.10,3.44,5.66,2.00,2.00,4.32,5.66,8505,2022-06-05 23:06:44.243,2022-06-05 16:06:44.243,17,0,0,15.796,34.182639,-118.129100,-3.40,0.50,0.00,11.50,-3.70,174.40,0,1,0,68,100,-8360,2459,15796,3191.50,4,WP,1,0,0,0,0,0,0,1654470404242,3971,3960,3968,3967,0,0,27,,,,,,,0,0,0,-115.00,-37.00,1744.00,0.00,0.00,1578.00,14,19.00,34.37,56.55,-34.00,5.00,0.00,0,,,100,100,0,2,0,0,0,1,0,,,,,0.0,0.0,0.0,0.0,0.0,0.0,0
34.182585,-118.129099,1.90,2.10,3.24,5.98,2.00,2.00,4.32,5.98,8605,2022-06-05 23:06:44.343,2022-06-05 16:06:44.343,17,0,0,15.796,34.182639,-118.129100,-3.20,0.50,0.00,14.30,-3.90,174.10,0,1,0,68,100,-8360,2459,15796,3191.50,4,WP,1,0,0,0,0,0,0,1654470404342,3971,3960,3968,3967,0,0,27,,,,,,,0,0,0,-143.00,-39.00,1741.00,0.00,0.00,1578.00,14,19.00,32.39,59.82,-32.00,5.00,0.00,0,,,100,100,0,2,0,0,0,1,0,,,,,0.0,0.0,0.0,0.0,0.0,0.0,0
34.182582,-118.129099,1.90,2.10,2.94,6.34,2.00,2.00,4.32,6.34,8705,2022-06-05 23:06:44.443,2022-06-05 16:06:44.443,17,0,0,15.796,34.182639,-118.129100,-2.90,0.50,0.00,16.40,-4.50,174.20,0,1,0,68,100,-8360,2459,15796,3191.50,4,WP,1,0,0,0,0,0,0,1654470404442,3971,3960,3968,3967,0,0,27,,,,,,,0,0,0,-164.00,-45.00,1742.00,0.00,0.00,1578.00,14,19.00,29.43,63.44,-29.00,5.00,0.00,0,,,100,100,0,2,0,0,0,1,0,,,,,0.0,0.0,0.0,0.0,0.0,0.0,0
34.182580,-118.129099,1.90,2.10,2.55,6.62,2.00,2.00,4.32,6.62,8805,2022-06-05 23:06:44.543,2022-06-05 16:06:44.543,17,0,0,15.796,34.182639,-118.129100,-2.50,0.50,0.00,16.50,-4.90,173.90,0,1,0,68,100,-8360,2459,15796,3191.50,4,WP,1,0,0,0,0,0,0,1654470404542,3971,3960,3968,3967,0,0,27,,,,,,,0,0,0,-165.00,-49.00,1739.00,0.00,0.00,1578.00,14,19.00,25.50,66.15,-25.00,5.00,0.00,0,,,100,100,0,2,0,0,0,1,0,,,,,0.0,0.0,0.0,0.0,0.0,0.0,0
34.182578,-118.129099,1.90,2.10,2.26,6.84,2.00,2.00,4.32,6.84,8905,2022-06-05 23:06:44.643,2022-06-05 16:06:44.643,17,0,0,15.796,34.182639,-118.129100,-2.20,0.50,0.10,15.10,-5.20,174.00,0,1,0,68,100,-8360,2459,15796,3191.50,4,WP,1,0,0,0,0,0,0,1654470404642,3971,3960,3968,3967,0,0,27,,,,,,,0,0,0,-151.00,-52.00,1740.00,0.00,0.00,1578.00,14,19.00,22.58,68.36,-22.00,5.00,1.00,0,,,100,100,0,2,0,0,0,1,0,,,,,0.0,0.0,0.0,0.0,0.0,0.0,0
34.182576,-118.129098,1.80,2.10,1.99,7.04,2.00,2.00,4.32,7.04,9005,2022-06-05 23:06:44.743,2022-06-05 16:06:44.743,17,0,0,15.796,34.182639,-118.129100,-1.90,0.60,0.10,13.80,-4.00,173.80,0,1,0,68,100,-8360,2459,15796,3191.50,4,WP,1,0,0,0,0,0,0,1654470404742,3971,3960,3968,3967,0,0,27,,,,,,,0,0,0,-138.00,-40.00,1738.00,0.00,0.00,1578.00,14,18.00,19.95,70.44,-19.00,6.00,1.00,0,,,100,100,0,2,0,0,0,1,0,,,,,0.0,0.0,0.0,0.0,0.0,0.0,0
34.182574,-118.129097,1.80,2.00,1.71,7.27,2.00,2.00,4.32,7.27,9105,2022-06-05 23:06:44.843,2022-06-05 16:06:44.843,17,0,0,15.796,34.182639,-118.129100,-1.60,0.60,0.10,12.80,-3.20,173.80,0,1,0,68,100,-8360,2459,15796,3191.50,4,WP,1,0,0,0,0,0,0,1654470404842,3971,3960,3968,3967,0,0,27,,,,,,,0,0,0,-128.00,-32.00,1738.00,0.00,0.00,1578.00,14,18.00,17.12,72.73,-16.00,6.00,1.00,0,,,100,100,0,2,0,0,0,1,0,,,,,0.0,0.0,0.0,0.0,0.0,0.0,0
34.182572,-118.129097,1.80,2.00,1.45,7.43,2.00,2.00,4.32,7.43,9205,2022-06-05 23:06:44.943,2022-06-05 16:06:44.943,17,0,0,15.796,34.182639,-118.129100,-1.30,0.60,0.20,11.80,-3.30,173.60,0,1,0,68,100,-8360,2459,15796,3191.50,4,WP,1,0,0,0,0,0,0,1654470404942,3971,3960,3968,3967,0,0,27,,,,,,,0,0,0,-118.00,-33.00,1736.00,0.00,0.00,1578.00,14,18.00,14.46,74.32,-13.00,6.00,2.00,0,,,100,100,0,2,0,0,0,1,0,,,,,0.0,0.0,0.0,0.0,0.0,0.0,0
34.182571,-118.129096,1.80,2.00,1.27,7.57,2.00,2.00,4.32,7.57,9306,2022-06-05 23:06:45.044,2022-06-05 16:06:45.044,17,0,0,15.796,34.182639,-118.129100,-1.10,0.60,0.20,8.90,-2.80,173.50,0,1,0,68,100,-8360,2459,15796,3191.50,4,WP,1,0,0,0,0,0,0,1654470405043,3971,3960,3968,3967,0,0,27,,,,,,,0,0,0,-89.00,-28.00,1735.00,0.00,0.00,1578.00,14,18.00,12.69,75.75,-11.00,6.00,2.00,0,,,100,100,0,2,0,0,0,1,0,,,,,0.0,0.0,0.0,0.0,0.0,0.0,0
34.182570,-118.129096,1.80,2.00,1.09,7.69,2.00,2.00,4.32,7.69,9408,2022-06-05 23:06:45.145,2022-06-05 16:06:45.145,17,0,0,15.796,34.182639,-118.129100,-0.90,0.60,0.10,5.20,-0.50,173.70,0,1,0,68,100,-8360,2459,15796,3191.50,4,WP,1,0,0,0,0,0,0,1654470405145,3971,3960,3968,3967,0,0,27,,,,,,,0,0,0,-52.00,-5.00,1737.00,0.00,0.00,1578.00,14,18.00,10.86,76.86,-9.00,6.00,1.00,0,,,100,100,0,2,0,0,0,1,0,,,,,0.0,0.0,0.0,0.0,0.0,0.0,0
34.182569,-118.129095,1.70,2.00,0.87,7.81,2.00,2.00,4.32,7.81,9506,2022-06-05 23:06:45.243,2022-06-05 16:06:45.243,17,0,0,15.796,34.182639,-118.129100,-0.70,0.50,0.10,1.80,0.50,174.00,0,1,0,68,100,-8360,2459,15796,3191.50,4,WP,1,0,0,0,0,0,0,1654470405243,3971,3960,3968,3967,0,0,27,,,,,,,0,0,0,-18.00,5.00,1740.00,0.00,0.00,1578.00,14,17.00,8.66,78.08,-7.00,5.00,1.00,0,,,100,100,0,2,0,0,0,1,0,,,,,0.0,0.0,0.0,0.0,0.0,0.0,0
34.182568,-118.129094,1.70,2.00,0.81,7.90,2.00,2.00,4.32,7.90,9606,2022-06-05 23:06:45.344,2022-06-05 16:06:45.344,17,0,0,15.796,34.182639,-118.129100,-0.70,0.40,0.00,0.20,1.20,174.10,0,1,0,68,100,-8360,2459,15796,3191.50,4,WP,1,0,0,0,0,0,0,1654470405343,3971,3960,3968,3967,0,0,27,,,,,,,0,0,0,-2.00,12.00,1741.00,0.00,0.00,1578.00,14,17.00,8.06,78.98,-7.00,4.00,0.00,0,,,100,100,0,2,0,0,0,1,0,,,,,0.0,0.0,0.0,0.0,0.0,0.0,0
34.182568,-118.129093,1.70,2.00,0.72,7.99,2.00,2.00,4.32,7.99,9707,2022-06-05 23:06:45.444,2022-06-05 16:06:45.444,17,0,0,15.796,34.182639,-118.129100,-0.60,0.40,0.00,-0.40,0.90,174.20,0,1,0,68,100,-8360,2459,15796,3191.50,4,WP,1,0,0,0,0,0,0,1654470405444,3971,3960,3968,3967,0,0,27,,,,,,,0,0,0,4.00,9.00,1742.00,0.00,0.00,1578.00,14,17.00,7.21,79.88,-6.00,4.00,0.00,0,,,100,100,0,2,0,0,0,1,0,,,,,0.0,0.0,0.0,0.0,0.0,0.0,0
34.182567,-118.129093,1.70,2.00,0.67,8.07,2.00,2.00,4.32,8.07,9806,2022-06-05 23:06:45.544,2022-06-05 16:06:45.544,17,0,0,15.796,34.182639,-118.129100,-0.60,0.30,0.00,-0.30,0.40,174.30,0,1,0,68,100,-8360,2459,15796,3191.50,4,WP,1,0,0,0,0,0,0,1654470405543,3971,3960,3968,3967,0,0,27,,,,,,,0,0,0,3.00,4.00,1743.00,0.00,0.00,1578.00,14,17.00,6.71,80.68,-6.00,3.00,0.00,0,,,100,100,0,2,0,0,0,1,0,,,,,0.0,0.0,0.0,0.0,0.0,0.0,0
34.182566,-118.129093,1.70,2.00,0.54,8.12,2.00,2.00,4.32,8.12,9906,2022-06-05 23:06:45.644,2022-06-05 16:06:45.644,17,0,0,15.796,34.182639,-118.129100,-0.50,0.20,0.00,-0.30,0.00,174.20,0,1,0,68,100,-8360,2459,15796,3191.50,4,WP,1,0,0,0,0,0,0,1654470405643,3971,3960,3968,3967,0,0,27,,,,,,,0,0,0,3.00,0.00,1742.00,0.00,0.00,1578.00,14,17.00,5.39,81.22,-5.00,2.00,0.00,0,,,100,100,0,2,0,0,0,1,0,,,,,0.0,0.0,0.0,0.0,0.0,0.0,0
34.182566,-118.129092,1.70,1.90,0.54,8.19,2.00,2.00,4.32,8.19,10009,2022-06-05 23:06:45.746,2022-06-05 16:06:45.746,17,0,0,15.796,34.182639,-118.129100,-0.50,0.20,0.00,0.10,-0.30,174.30,0,1,0,68,100,-8360,2459,15796,3191.50,4,WP,1,0,0,0,0,0,0,1654470405746,3971,3960,3968,3967,0,0,27,,,,,,,0,0,0,-1.00,-3.00,1743.00,0.00,0.00,1578.00,14,17.00,5.39,81.92,-5.00,2.00,0.00,0,,,100,100,0,2,0,0,0,1,0,,,,,0.0,0.0,0.0,0.0,0.0,0.0,0
34.182566,-118.129092,1.70,1.90,0.41,8.22,2.00,2.00,4.32,8.22,10106,2022-06-05 23:06:45.844,2022-06-05 16:06:45.844,17,0,0,15.796,34.182639,-118.129100,-0.40,0.10,0.00,0.70,-0.70,174.40,0,1,0,68,100,-8360,2459,15796,3191.50,4,WP,1,0,0,0,0,0,0,1654470405843,3971,3960,3968,3967,0,0,27,,,,,,,0,0,0,-7.00,-7.00,1744.00,0.00,0.00,1578.00,14,17.00,4.12,82.20,-4.00,1.00,0.00,0,,,100,100,0,2,0,0,0,1,0,,,,,0.0,0.0,0.0,0.0,0.0,0.0,0
34.182565,-118.129092,1.70,1.90,0.41,8.28,2.00,2.00,4.32,8.28,10205,2022-06-05 23:06:45.943,2022-06-05 16:06:45.943,17,0,0,15.796,34.182639,-118.129100,-0.40,0.10,0.00,0.80,-0.40,174.40,0,1,0,68,100,-8360,2459,15796,3191.50,4,WP,1,0,0,0,0,0,0,1654470405942,3971,3960,3968,3967,0,0,27,,,,,,,0,0,0,-8.00,-4.00,1744.00,0.00,0.00,1578.00,14,17.00,4.12,82.77,-4.00,1.00,0.00,0,,,100,100,0,2,0,0,0,1,0,,,,,0.0,0.0,0.0,0.0,0.0,0.0,0
34.182565,-118.129091,1.70,2.00,0.32,8.29,2.00,2.00,4.32,8.29,10307,2022-06-05 23:06:46.044,2022-06-05 16:06:46.044,17,0,0,15.787,34.182639,-118.129100,-0.30,0.10,0.00,1.10,-0.60,174.30,0,1,0,68,100,-7605,2455,15787,3191.50,4,WP,1,0,0,0,0,0,0,1654470406044,3971,3960,3968,3967,0,0,27,,,,,,,0,0,0,-11.00,-6.00,1743.00,0.00,0.00,1578.00,14,17.00,3.16,82.92,-3.00,1.00,0.00,0,,,100,100,0,2,0,0,0,1,0,,,,,0.0,0.0,0.0,0.0,0.0,0.0,0
34.182565,-118.129091,1.70,1.90,0.30,8.33,2.00,2.00,4.32,8.33,10407,2022-06-05 23:06:46.144,2022-06-05 16:06:46.144,17,0,0,15.787,34.182639,-118.129100,-0.30,0.00,0.00,0.80,-0.40,174.30,0,1,0,68,100,-7605,2455,15787,3191.50,4,WP,1,0,0,0,0,0,0,1654470406144,3971,3960,3968,3967,0,0,27,,,,,,,0,0,0,-8.00,-4.00,1743.00,0.00,0.00,1578.00,14,17.00,3.00,83.35,-3.00,0.00,0.00,0,,,100,100,0,2,0,0,0,1,0,,,,,0.0,0.0,0.0,0.0,0.0,0.0,0
34.182564,-118.129091,1.70,1.90,0.20,8.37,2.00,2.00,4.32,8.37,10507,2022-06-05 23:06:46.244,2022-06-05 16:06:46.244,17,0,0,15.787,34.182639,-118.129100,-0.20,0.00,0.00,4.70,-0.20,174.40,0,1,0,68,100,-7605,2455,15787,3191.50,4,WP,1,0,0,0,0,0,0,1654470406244,3971,3960,3968,3967,0,0,27,,,,,,,0,0,0,-47.00,-2.00,1744.00,0.00,0.00,1578.00,14,17.00,2.00,83.67,-2.00,0.00,0.00,0,,,100,100,0,2,0,0,0,1,0,,,,,0.0,0.0,0.0,0.0,0.0,0.0,0
34.182564,-118.129091,1.70,1.90,0.10,8.39,2.00,2.00,4.32,8.39,10607,2022-06-05 23:06:46.344,2022-06-05 16:06:46.344,17,0,0,15.787,34.182639,-118.129100,-0.10,0.00,0.00,2.90,-0.80,174.50,0,1,0,68,100,-7605,2455,15787,3191.50,4,WP,1,0,0,0,0,0,0,1654470406344,3971,3960,3968,3967,0,0,27,,,,,,,0,0,0,-29.00,-8.00,1745.00,0.00,0.00,1578.00,14,17.00,1.00,83.92,-1.00,0.00,0.00,0,,,100,100,0,2,0,0,0,1,0,,,,,0.0,0.0,0.0,0.0,0.0,0.0,0
34.182564,-118.129091,1.70,1.90,0.00,8.39,2.00,2.00,4.32,8.39,10707,2022-06-05 23:06:46.444,2022-06-05 16:06:46.444,17,0,0,15.787,34.182639,-118.129100,0.00,0.00,0.00,1.00,-1.20,174.50,0,1,0,68,100,-7605,2455,15787,3191.50,4,WP,1,0,0,0,0,0,0,1654470406444,3971,3960,3968,3967,0,0,27,,,,,,,0,0,0,-10.00,-12.00,1745.00,0.00,0.00,1578.00,14,17.00,0.00,83.86,0.00,0.00,0.00,0,,,100,100,0,2,0,0,0,1,0,,,,,0.0,0.0,0.0,0.0,0.0,0.0,0
34.182564,-118.129091,1.70,1.90,0.00,8.39,2.00,2.00,4.32,8.39,10807,2022-06-05 23:06:46.545,2022-06-05 16:06:46.545,17,0,0,15.787,34.182639,-118.129100,0.00,0.00,0.00,-0.50,-0.90,168.30,0,1,0,68,100,-7605,2455,15787,3191.50,4,WP,1,0,0,0,0,0,0,1654470406544,3971,3960,3968,3967,0,0,27,,,,,,,0,0,0,5.00,-9.00,1683.00,0.00,0.00,1577.00,14,17.00,0.00,83.93,0.00,0.00,0.00,0,,,100,100,0,2,0,0,0,1,0,,,,,0.0,0.0,0.0,0.0,0.0,0.0,0
34.182564,-118.129091,1.70,1.90,0.00,8.37,2.00,2.00,4.32,8.39,10907,2022-06-05 23:06:46.645,2022-06-05 16:06:46.645,17,0,0,15.787,34.182639,-118.129100,0.00,0.00,0.00,-1.00,-1.40,160.90,0,1,0,68,100,-7605,2455,15787,3191.50,4,WP,1,0,0,0,0,0,0,1654470406644,3971,3960,3968,3967,0,0,27,,,,,,,0,0,0,10.00,-14.00,1609.00,0.00,0.00,1555.00,14,17.00,0.00,83.71,0.00,0.00,0.00,0,,,100,100,0,2,0,0,0,1,0,,,,,0.0,0.0,0.0,0.0,0.0,0.0,0
34.182564,-118.129091,1.70,1.90,0.00,8.37,2.00,2.00,4.32,8.39,11008,2022-06-05 23:06:46.745,2022-06-05 16:06:46.745,17,0,0,15.787,34.182639,-118.129100,0.00,0.00,0.00,-1.10,-1.70,153.50,0,1,0,68,100,-7605,2455,15787,3191.50,4,WP,1,0,0,0,0,0,0,1654470406745,3971,3960,3968,3967,0,0,27,,,,,,,0,0,0,11.00,-17.00,1535.00,0.00,0.00,1483.00,14,17.00,0.00,83.70,0.00,0.00,0.00,0,,,100,100,0,2,0,0,0,1,0,,,,,0.0,0.0,0.0,0.0,0.0,0.0,0
34.182564,-118.129091,1.70,1.90,0.00,8.37,2.00,2.00,4.32,8.39,11108,2022-06-05 23:06:46.845,2022-06-05 16:06:46.845,17,0,0,15.787,34.182639,-118.129100,0.00,0.00,0.00,-1.30,-1.60,146.00,0,1,0,68,100,-7605,2455,15787,3191.50,4,WP,1,0,0,0,0,0,0,1654470406845,3971,3960,3968,3967,0,0,27,,,,,,,0,0,0,13.00,-16.00,1460.00,0.00,0.00,1399.00,14,17.00,0.00,83.70,0.00,0.00,0.00,0,,,100,100,0,2,0,0,0,1,0,,,,,0.0,0.0,0.0,0.0,0.0,0.0,0
34.182564,-118.129091,1.70,1.90,0.00,8.36,2.00,2.00,4.32,8.39,11207,2022-06-05 23:06:46.945,2022-06-05 16:06:46.945,17,0,0,15.787,34.182639,-118.129100,0.00,0.00,0.00,-1.70,-1.40,138.60,0,1,0,68,100,-7605,2455,15787,3191.50,4,WP,1,0,0,0,0,0,0,1654470406944,3971,3960,3968,3967,0,0,27,,,,,,,0,0,0,17.00,-14.00,1386.00,0.00,0.00,1317.00,14,17.00,0.00,83.63,0.00,0.00,0.00,0,,,100,100,0,2,0,0,0,1,0,,,,,0.0,0.0,0.0,0.0,0.0,0.0,0
34.182565,-118.129091,1.70,1.90,0.00,8.34,2.00,2.00,4.32,8.39,11307,2022-06-05 23:06:47.045,2022-06-05 16:06:47.045,17,0,0,15.787,34.182639,-118.129100,0.00,0.00,0.00,-2.30,-1.40,131.30,0,1,0,68,100,-7605,2455,15787,3191.50,4,WP,1,0,0,0,0,0,0,1654470407044,3971,3960,3968,3967,0,0,27,,,,,,,0,0,0,23.00,-14.00,1313.00,0.00,0.00,1237.00,14,17.00,0.00,83.44,0.00,0.00,0.00,0,,,100,100,0,2,0,0,0,1,0,,,,,0.0,0.0,0.0,0.0,0.0,0.0,0
34.182565,-118.129091,1.70,1.90,0.00,8.33,2.00,2.00,4.32,8.39,11408,2022-06-05 23:06:47.145,2022-06-05 16:06:47.145,17,0,0,15.787,34.182639,-118.129100,0.00,0.00,0.00,-2.90,-0.20,124.20,0,1,0,68,100,-7605,2455,15787,3191.50,4,WP,1,0,0,0,0,0,0,1654470407145,3971,3960,3968,3967,0,0,27,,,,,,,0,0,0,29.00,-2.00,1242.00,0.00,0.00,1161.00,14,17.00,0.00,83.33,0.00,0.00,0.00,0,,,100,100,0,2,0,0,0,1,0,,,,,0.0,0.0,0.0,0.0,0.0,0.0,0
34.182565,-118.129091,1.70,1.90,0.00,8.33,2.00,2.00,4.32,8.39,11507,2022-06-05 23:06:47.244,2022-06-05 16:06:47.244,17,0,0,15.787,34.182639,-118.129100,0.00,0.00,0.00,-2.50,0.60,117.00,0,1,0,68,100,-7605,2455,15787,3191.50,4,WP,1,0,0,0,0,0,0,1654470407244,3971,3960,3968,3967,0,0,27,,,,,,,0,0,0,25.00,6.00,1170.00,0.00,0.00,1087.00,14,17.00,0.00,83.31,0.00,0.00,0.00,0,,,100,100,0,2,0,0,0,1,0,,,,,0.0,0.0,0.0,0.0,0.0,0.0,0
34.182565,-118.129091,1.70,1.90,0.00,8.32,2.00,2.00,4.32,8.39,11609,2022-06-05 23:06:47.346,2022-06-05 16:06:47.346,17,0,0,15.787,34.182639,-118.129100,0.00,0.00,0.00,-1.70,0.50,109.80,0,1,0,68,100,-7605,2455,15787,3191.50,4,WP,1,0,0,0,0,0,0,1654470407346,3971,3960,3968,3967,0,0,27,,,,,,,0,0,0,17.00,5.00,1098.00,0.00,0.00,1014.00,14,17.00,0.00,83.23,0.00,0.00,0.00,0,,,100,100,0,2,0,0,0,1,0,,,,,0.0,0.0,0.0,0.0,0.0,0.0,0
34.182565,-118.129090,1.70,1.90,0.00,8.29,2.00,2.00,4.32,8.39,11708,2022-06-05 23:06:47.445,2022-06-05 16:06:47.445,17,0,0,15.787,34.182639,-118.129100,0.00,0.00,0.00,-1.60,0.50,102.50,0,1,0,68,100,-7605,2455,15787,3191.50,4,WP,1,0,0,0,0,0,0,1654470407445,3971,3960,3968,3967,0,0,27,,,,,,,0,0,0,16.00,5.00,1025.00,0.00,0.00,941.00,14,17.00,0.00,82.89,0.00,0.00,0.00,0,,,100,100,0,2,0,0,0,1,0,,,,,0.0,0.0,0.0,0.0,0.0,0.0,0
34.182565,-118.129090,1.70,1.90,0.00,8.28,2.00,2.00,4.32,8.39,11809,2022-06-05 23:06:47.547,2022-06-05 16:06:47.547,17,0,0,15.787,34.182639,-118.129100,0.00,0.00,0.00,-1.70,1.10,95.00,0,1,0,68,100,-7605,2455,15787,3191.50,4,WP,1,0,0,0,0,0,0,1654470407546,3971,3960,3968,3967,0,0,27,,,,,,,0,0,0,17.00,11.00,950.00,0.00,0.00,866.00,14,17.00,0.00,82.78,0.00,0.00,0.00,0,,,100,100,0,2,0,0,0,1,0,,,,,0.0,0.0,0.0,0.0,0.0,0.0,0
34.182565,-118.129090,1.70,1.90,0.00,8.27,2.00,2.00,4.32,8.39,11909,2022-06-05 23:06:47.647,2022-06-05 16:06:47.647,17,0,0,15.787,34.182639,-118.129100,0.00,0.00,0.00,-1.50,1.40,87.50,0,1,0,68,100,-7605,2455,15787,3191.50,4,WP,1,0,0,0,0,0,0,1654470407646,3971,3960,3968,3967,0,0,27,,,,,,,0,0,0,15.00,14.00,875.00,0.00,0.00,790.00,14,17.00,0.00,82.68,0.00,0.00,0.00,0,,,100,100,0,2,0,0,0,1,0,,,,,0.0,0.0,0.0,0.0,0.0,0.0,0
34.182565,-118.129090,1.70,1.90,0.00,8.26,2.00,2.00,4.32,8.39,12008,2022-06-05 23:06:47.745,2022-06-05 16:06:47.745,17,0,0,15.787,34.182639,-118.129100,0.00,0.00,0.00,-0.80,1.70,80.10,0,1,0,68,100,-7605,2455,15787,3191.50,4,WP,1,0,0,0,0,0,0,1654470407745,3971,3960,3968,3967,0,0,27,,,,,,,0,0,0,8.00,17.00,801.00,0.00,0.00,715.00,14,17.00,0.00,82.58,0.00,0.00,0.00,0,,,100,100,0,2,0,0,0,1,0,,,,,0.0,0.0,0.0,0.0,0.0,0.0,0
34.182565,-118.129090,1.70,1.90,0.00,8.25,2.00,2.00,4.32,8.39,12108,2022-06-05 23:06:47.845,2022-06-05 16:06:47.845,17,0,0,15.787,34.182639,-118.129100,0.00,0.00,0.00,-0.50,1.10,72.60,0,1,0,68,100,-7605,2455,15787,3191.50,4,WP,1,0,0,0,0,0,0,1654470407845,3971,3960,3968,3967,0,0,27,,,,,,,0,0,0,5.00,11.00,726.00,0.00,0.00,639.00,14,17.00,0.00,82.50,0.00,0.00,0.00,0,,,100,100,0,2,0,0,0,1,0,,,,,0.0,0.0,0.0,0.0,0.0,0.0,0
34.182566,-118.129090,1.70,1.90,0.00,8.24,2.00,2.00,4.32,8.39,12209,2022-06-05 23:06:47.947,2022-06-05 16:06:47.947,17,0,0,15.787,34.182639,-118.129100,0.00,0.00,0.00,-0.20,0.90,65.10,0,1,0,68,100,-7605,2455,15787,3191.50,4,WP,1,0,0,0,0,0,0,1654470407946,3971,3960,3968,3967,0,0,27,,,,,,,0,0,0,2.00,9.00,651.00,0.00,0.00,564.00,14,17.00,0.00,82.42,0.00,0.00,0.00,0,,,100,100,0,2,0,0,0,1,0,,,,,0.0,0.0,0.0,0.0,0.0,0.0,0
34.182566,-118.129090,1.70,1.90,0.00,8.23,2.00,2.00,4.32,8.39,12309,2022-06-05 23:06:48.046,2022-06-05 16:06:48.046,17,0,0,15.787,34.182639,-118.129100,0.00,0.00,0.00,0.10,0.80,57.40,0,1,0,68,100,-7605,2455,15787,3191.50,4,WP,1,0,0,0,0,0,0,1654470408046,3971,3960,3968,3967,0,0,27,,,,,,,0,0,0,-1.00,8.00,574.00,0.00,0.00,488.00,14,17.00,0.00,82.34,0.00,0.00,0.00,0,,,100,100,0,2,0,0,0,1,0,,,,,0.0,0.0,0.0,0.0,0.0,0.0,0
34.182566,-118.129090,1.70,1.90,0.00,8.23,2.00,2.00,4.32,8.39,12410,2022-06-05 23:06:48.147,2022-06-05 16:06:48.147,17,0,0,15.760,34.182639,-118.129100,0.00,0.00,0.00,0.30,1.00,49.90,0,1,0,68,100,-8205,2451,15760,3191.50,4,WP,1,0,0,0,0,0,0,1654470408147,3971,3960,3968,3967,0,0,27,,,,,,,0,0,0,-3.00,10.00,499.00,0.00,0.00,412.00,14,17.00,0.00,82.26,0.00,0.00,0.00,0,,,100,100,0,2,0,0,0,1,0,,,,,0.0,0.0,0.0,0.0,0.0,0.0,0
34.182566,-118.129090,1.70,1.90,0.00,8.21,2.00,2.00,4.32,8.39,12508,2022-06-05 23:06:48.245,2022-06-05 16:06:48.245,17,0,0,15.760,34.182639,-118.129100,0.00,0.00,0.00,0.20,1.20,42.30,0,1,0,68,100,-8205,2451,15760,3191.50,4,WP,1,0,0,0,0,0,0,1654470408245,3971,3960,3968,3967,0,0,27,,,,,,,0,0,0,-2.00,12.00,423.00,0.00,0.00,335.00,14,17.00,0.00,82.12,0.00,0.00,0.00,0,,,100,100,0,2,0,0,0,1,0,,,,,0.0,0.0,0.0,0.0,0.0,0.0,0
34.182566,-118.129090,1.70,1.90,0.00,8.21,2.00,2.00,4.32,8.39,12609,2022-06-05 23:06:48.346,2022-06-05 16:06:48.346,17,0,0,15.760,34.182639,-118.129100,0.00,0.00,0.00,0.50,0.90,34.80,0,1,0,68,100,-8205,2451,15760,3191.50,4,WP,1,0,0,0,0,0,0,1654470408346,3971,3960,3968,3967,0,0,27,,,,,,,0,0,0,-5.00,9.00,348.00,0.00,0.00,259.00,14,17.00,0.00,82.05,0.00,0.00,0.00,0,,,100,100,0,2,0,0,0,1,0,,,,,0.0,0.0,0.0,0.0,0.0,0.0,0
34.182566,-118.129090,1.70,1.90,0.00,8.20,2.00,2.00,4.32,8.39,12708,2022-06-05 23:06:48.446,2022-06-05 16:06:48.446,17,0,0,15.760,34.182639,-118.129100,0.00,0.00,0.00,0.70,0.10,28.00,0,1,0,68,100,-8205,2451,15760,3191.50,4,WP,1,0,0,0,0,0,0,1654470408445,3971,3960,3968,3967,0,0,27,,,,,,,0,0,0,-7.00,1.00,280.00,0.00,0.00,185.00,14,17.00,0.00,82.02,0.00,0.00,0.00,0,,,100,100,0,2,0,0,0,1,0,,,,,0.0,0.0,0.0,0.0,0.0,0.0,0
34.182566,-118.129090,1.70,1.90,0.00,8.20,2.00,2.00,4.32,8.39,12811,2022-06-05 23:06:48.548,2022-06-05 16:06:48.548,17,0,0,15.760,34.182639,-118.129100,0.00,0.00,0.00,0.80,-0.30,22.60,0,1,0,68,100,-8205,2451,15760,3191.50,4,WP,1,0,0,0,0,0,0,1654470408548,3971,3960,3968,3967,0,0,27,,,,,,,0,0,0,-8.00,-3.00,226.00,0.00,0.00,120.00,14,17.00,0.00,81.95,0.00,0.00,0.00,0,,,100,100,0,2,0,0,0,1,0,,,,,0.0,0.0,0.0,0.0,0.0,0.0,0
34.182566,-118.129089,1.70,1.90,0.00,8.17,2.00,2.00,4.32,8.39,12908,2022-06-05 23:06:48.645,2022-06-05 16:06:48.646,17,0,0,15.760,34.182639,-118.129100,0.00,0.00,0.00,1.10,-0.30,18.20,0,1,0,68,100,-8205,2451,15760,3191.50,4,WP,1,0,0,0,0,0,0,1654470408645,3971,3960,3968,3967,0,0,27,,,,,,,0,0,0,-11.00,-3.00,182.00,0.00,0.00,67.00,14,17.00,0.00,81.72,0.00,0.00,0.00,0,,,100,100,0,2,0,0,0,1,0,,,,,0.0,0.0,0.0,0.0,0.0,0.0,0
34.182566,-118.129089,1.70,1.90,0.00,8.16,2.00,2.00,4.32,8.39,13008,2022-06-05 23:06:48.745,2022-06-05 16:06:48.745,17,0,0,15.760,34.182639,-118.129100,0.00,0.00,0.00,1.30,0.00,14.60,0,1,0,68,100,-8205,2451,15760,3191.50,4,WP,1,0,0,0,0,0,0,1654470408745,3971,3960,3968,3967,0,0,27,,,,,,,0,0,0,-13.00,0.00,146.00,0.00,0.00,24.00,14,17.00,0.00,81.61,0.00,0.00,0.00,0,,,100,100,0,2,0,0,0,1,0,,,,,0.0,0.0,0.0,0.0,0.0,0.0,0
34.182566,-118.129090,1.70,1.90,0.00,8.16,2.00,2.00,4.32,8.39,13108,2022-06-05 23:06:48.846,2022-06-05 16:06:48.846,17,0,0,15.760,34.182639,-118.129100,0.00,0.00,0.00,1.50,0.20,11.60,0,1,0,68,100,-8205,2451,15760,3191.50,4,WP,1,0,0,0,0,0,0,1654470408845,3971,3960,3968,3967,0,0,27,,,,,,,0,0,0,-15.00,2.00,116.00,0.00,0.00,-10.00,14,17.00,0.00,81.63,0.00,0.00,0.00,0,,,100,100,0,2,0,0,0,1,0,,,,,0.0,0.0,0.0,0.0,0.0,0.0,0
34.182566,-118.129089,1.70,1.90,0.00,8.15,2.00,2.00,4.32,8.39,13208,2022-06-05 23:06:48.946,2022-06-05 16:06:48.946,17,0,0,15.760,34.182639,-118.129100,0.00,0.00,0.00,1.60,0.30,9.20,0,1,0,68,100,-8205,2451,15760,3191.50,4,WP,1,0,0,0,0,0,0,1654470408945,3971,3960,3968,3967,0,0,27,,,,,,,0,0,0,-16.00,3.00,92.00,0.00,0.00,-39.00,14,17.00,0.00,81.52,0.00,0.00,0.00,0,,,100,100,0,2,0,0,0,1,0,,,,,0.0,0.0,0.0,0.0,0.0,0.0,0
34.182567,-118.129090,1.70,1.90,0.00,8.14,2.00,2.00,4.32,8.39,13308,2022-06-05 23:06:49.045,2022-06-05 16:06:49.045,17,0,0,15.760,34.182639,-118.129100,0.00,0.00,0.00,1.80,0.30,7.30,0,1,0,68,100,-8205,2451,15760,3191.50,4,WP,1,0,0,0,0,0,0,1654470409045,3971,3960,3968,3967,0,0,27,,,,,,,0,0,0,-18.00,3.00,73.00,0.00,0.00,-63.00,14,17.00,0.00,81.37,0.00,0.00,0.00,0,,,100,100,0,2,0,0,0,1,0,,,,,0.0,0.0,0.0,0.0,0.0,0.0,0
34.182567,-118.129089,1.70,1.90,0.00,8.13,2.00,2.00,4.32,8.39,13409,2022-06-05 23:06:49.146,2022-06-05 16:06:49.146,17,0,0,15.760,34.182639,-118.129100,0.00,0.00,0.00,2.00,0.00,5.90,0,1,0,68,100,-8205,2451,15760,3191.50,4,WP,1,0,0,0,0,0,0,1654470409146,3971,3960,3968,3967,0,0,27,,,,,,,0,0,0,-20.00,0.00,59.00,0.00,0.00,-81.00,14,17.00,0.00,81.25,0.00,0.00,0.00,0,,,100,100,0,2,0,0,0,1,0,,,,,0.0,0.0,0.0,0.0,0.0,0.0,0
34.182567,-118.129089,1.70,1.90,0.00,8.13,2.00,2.00,4.32,8.39,13510,2022-06-05 23:06:49.247,2022-06-05 16:06:49.247,17,0,0,15.760,34.182639,-118.129100,0.00,0.00,0.00,2.20,-0.40,4.80,0,1,0,68,100,-8205,2451,15760,3191.50,4,WP,1,0,0,0,0,0,0,1654470409247,3971,3960,3968,3967,0,0,27,,,,,,,0,0,0,-22.00,-4.00,48.00,0.00,0.00,-95.00,14,17.00,0.00,81.30,0.00,0.00,0.00,0,,,100,100,0,2,0,0,0,1,0,,,,,0.0,0.0,0.0,0.0,0.0,0.0,0
34.182567,-118.129089,1.70,1.90,0.00,8.12,2.00,2.00,4.32,8.39,13609,2022-06-05 23:06:49.346,2022-06-05 16:06:49.346,17,0,0,15.760,34.182639,-118.129100,0.00,0.00,0.00,1.00,0.40,4.60,0,1,0,68,100,-8205,2451,15760,3191.50,4,WP,1,0,0,0,0,0,0,1654470409346,3971,3960,3968,3967,0,0,27,,,,,,,0,0,0,-10.00,4.00,46.00,0.00,0.00,-107.00,14,17.00,0.00,81.19,0.00,0.00,0.00,0,,,100,100,0,2,0,0,0,1,0,,,,,0.0,0.0,0.0,0.0,0.0,0.0,0
