latitude,longitude,altitude(m),ultrasonicHeight(m),speed(mps),distance(m),max_altitude(m),max_ascent(m),max_speed(mps),max_distance(m),time(millisecond),datetime(utc),datetime(local),satellites,pressure(Pa),temperature(F),voltage(v),home_latitude,home_longitude,velocityX(mps),velocityY(mps),velocityZ(mps),pitch(deg),roll(deg),yaw(deg),powerlevel,isflying,istakingphoto,remainPowerPercent,remainLifePercent,currentCurrent,currentElectricity,currentVoltage,batteryTemperature,dischargeCount,flightmode,isMotorsOn,isTakingVideo,Rc_elevator,Rc_aileron,Rc_throttle,Rc_rudder,Rc_gyro,timestamp,Battery_Cell1,Battery_Cell2,Battery_Cell3,Battery_Cell4,Battery_Cell5,Battery_Cell6,Dronetype,AppVersion,Planename,FlyControllerSerialNumber,RemoteSerialNumber,BatterySerialNumber,CENTER_BATTERY.productDate,CENTER_BATTERY.serialNo,CENTER_BATTERY.fullCapacity,CENTER_BATTERY.productDateRaw,pitchRaw,rollRaw,yawRaw,gimbalPitchRaw,gimbalRollRaw,gimbalYawRaw,flyState,altitudeRaw,speedRaw,distanceRaw,velocityXRaw,velocityYRaw,velocityZRaw,data_reuse,App_Tip,App_Warning,downlinkSignalQuality,uplinkSignalQuality,transmissionChannel,rcModeSwitch,rcHome,rcPause,rcTransform,rcJoystickMode,appMode,FlyControllerSerialNumber_legacy,RemoteSerialNumber_legacy,BatterySerialNumber_legacy,Battery2SerialNumber,frontAvoidDist,backAvoidDist,rightAvoidDist,leftAvoidDist,upAvoidDist,downAvoidDist,isBrakingToAvoid
34.182622,-118.129103,0.30,0.40,0.41,0.08,0.30,0.30,0.41,0.08,2,2022-06-05 23:36:19.686,2022-06-05 16:36:19.686,15,0,0,16.618,34.182622,-118.129103,0.10,0.00,-0.40,1.90,-0.90,-7.70,0,1,0,85,100,-4875,2870,16618,3131.50,10,TakeOff,1,0,0,0,0,0,0,1654472179686,4195,4196,4195,4183,0,0,27,Litchi_iOS_2.14.0,Brian-MAVIC 2,163DFCK001S13F,1DUCFB800104PR,0P2AFBV5340045,,0,3403,0,-19.00,-9.00,-77.00,0.00,0.00,-67.00,11,3.00,4.12,0.83,1.00,0.00,-4.00,0,,,100,100,0,1,0,0,0,1,6,(null),(null),,,0.0,0.0,0.0,0.0,0.0,0.0,0
34.182622,-118.129103,0.40,0.40,0.40,0.09,0.40,0.40,0.41,0.09,101,2022-06-05 23:36:19.785,2022-06-05 16:36:19.785,15,0,0,16.618,34.182622,-118.129103,0.00,0.00,-0.40,2.20,-0.70,-7.80,0,1,0,85,100,-4875,2870,16618,3131.50,10,TakeOff,1,0,0,0,0,0,0,1654472179785,4195,4196,4195,4183,0,0,27,,,,,,,0,0,0,-22.00,-7.00,-78.00,0.00,0.00,-67.00,11,4.00,4.00,0.89,0.00,0.00,-4.00,0,,,100,100,0,1,0,0,0,1,6,,,,,0.0,0.0,0.0,0.0,0.0,0.0,0
34.182622,-118.129103,0.40,0.50,0.40,0.09,0.40,0.40,0.41,0.09,201,2022-06-05 23:36:19.885,2022-06-05 16:36:19.885,15,0,0,16.618,34.182622,-118.129103,0.00,0.00,-0.40,2.10,-0.20,-7.80,0,1,0,85,100,-4875,2870,16618,3131.50,10,TakeOff,1,0,0,0,0,0,0,1654472179885,4195,4196,4195,4183,0,0,27,,,,,,,0,0,0,-21.00,-2.00,-78.00,0.00,0.00,-67.00,11,4.00,4.00,0.86,0.00,0.00,-4.00,0,,,100,100,0,1,0,0,0,1,6,,,,,0.0,0.0,0.0,0.0,0.0,0.0,0
34.182622,-118.129103,0.50,0.50,0.40,0.09,0.50,0.50,0.41,0.09,301,2022-06-05 23:36:19.985,2022-06-05 16:36:19.985,15,0,0,16.618,34.182622,-118.129103,0.00,0.00,-0.40,2.00,-0.30,-7.90,0,1,0,85,100,-4875,2870,16618,3131.50,10,TakeOff,1,0,0,0,0,0,0,1654472179985,4195,4196,4195,4183,0,0,27,,,,,,,0,0,0,-20.00,-3.00,-79.00,0.00,0.00,-67.00,11,5.00,4.00,0.89,0.00,0.00,-4.00,0,,,100,100,0,1,0,0,0,1,6,,,,,0.0,0.0,0.0,0.0,0.0,0.0,0
34.182622,-118.129103,0.50,0.60,0.50,0.09,0.50,0.50,0.50,0.09,400,2022-06-05 23:36:20.084,2022-06-05 16:36:20.084,15,0,0,16.618,34.182622,-118.129103,0.00,0.00,-0.50,2.10,-0.10,-7.80,0,1,0,85,100,-4875,2870,16618,3131.50,10,TakeOff,1,0,0,0,0,0,0,1654472180084,4195,4196,4195,4183,0,0,27,,,,,,,0,0,0,-21.00,-1.00,-78.00,0.00,0.00,-67.00,11,5.00,5.00,0.86,0.00,0.00,-5.00,0,,,100,100,0,1,0,0,0,1,6,,,,,0.0,0.0,0.0,0.0,0.0,0.0,0
34.182622,-118.129103,0.60,0.60,0.50,0.09,0.60,0.60,0.50,0.09,500,2022-06-05 23:36:20.184,2022-06-05 16:36:20.184,15,0,0,16.618,34.182622,-118.129103,0.00,0.00,-0.50,2.20,-0.10,-7.80,0,1,0,85,100,-4875,2870,16618,3131.50,10,TakeOff,1,0,0,0,0,0,0,1654472180184,4195,4196,4195,4183,0,0,27,,,,,,,0,0,0,-22.00,-1.00,-78.00,0.00,0.00,-67.00,11,6.00,5.00,0.89,0.00,0.00,-5.00,0,,,100,100,0,1,0,0,0,1,6,,,,,0.0,0.0,0.0,0.0,0.0,0.0,0
34.182623,-118.129103,0.60,0.70,0.50,0.11,0.60,0.60,0.50,0.11,601,2022-06-05 23:36:20.285,2022-06-05 16:36:20.285,15,0,0,16.465,34.182622,-118.129103,0.00,0.00,-0.50,2.30,-0.30,-7.90,0,1,0,85,100,-7702,2866,16465,3131.50,10,TakeOff,1,0,0,0,0,0,0,1654472180285,4195,4196,4195,4183,0,0,27,,,,,,,0,0,0,-23.00,-3.00,-79.00,0.00,0.00,-68.00,11,6.00,5.00,1.11,0.00,0.00,-5.00,0,,,100,100,0,1,0,0,0,1,6,,,,,0.0,0.0,0.0,0.0,0.0,0.0,0
34.182623,-118.129103,0.70,0.70,0.50,0.12,0.70,0.70,0.50,0.12,701,2022-06-05 23:36:20.386,2022-06-05 16:36:20.386,15,0,0,16.465,34.182622,-118.129103,0.00,0.00,-0.50,2.50,-0.50,-7.90,0,1,0,85,100,-7702,2866,16465,3131.50,10,TakeOff,1,0,0,0,0,0,0,1654472180385,4195,4196,4195,4183,0,0,27,,,,,,,0,0,0,-25.00,-5.00,-79.00,0.00,0.00,-68.00,11,7.00,5.00,1.15,0.00,0.00,-5.00,0,,,100,100,0,1,0,0,0,1,6,,,,,0.0,0.0,0.0,0.0,0.0,0.0,0
34.182623,-118.129103,0.70,0.80,0.50,0.12,0.70,0.70,0.50,0.12,802,2022-06-05 23:36:20.486,2022-06-05 16:36:20.486,15,0,0,16.465,34.182622,-118.129103,0.00,0.00,-0.50,2.50,-0.70,-7.90,0,1,0,85,100,-7702,2866,16465,3131.50,10,TakeOff,1,0,0,0,0,0,0,1654472180486,4195,4196,4195,4183,0,0,27,,,,,,,0,0,0,-25.00,-7.00,-79.00,0.00,0.00,-68.00,11,7.00,5.00,1.19,0.00,0.00,-5.00,0,,,100,100,0,1,0,0,0,1,6,,,,,0.0,0.0,0.0,0.0,0.0,0.0,0
34.182623,-118.129103,0.80,0.90,0.50,0.12,0.80,0.80,0.50,0.12,900,2022-06-05 23:36:20.584,2022-06-05 16:36:20.584,15,0,0,16.465,34.182622,-118.129103,0.00,0.00,-0.50,2.50,-0.40,-8.00,0,1,0,85,100,-7702,2866,16465,3131.50,10,TakeOff,1,0,0,0,0,0,0,1654472180584,4195,4196,4195,4183,0,0,27,,,,,,,0,0,0,-25.00,-4.00,-80.00,0.00,0.00,-68.00,11,8.00,5.00,1.22,0.00,0.00,-5.00,0,,,100,100,0,1,0,0,0,1,6,,,,,0.0,0.0,0.0,0.0,0.0,0.0,0
34.182623,-118.129103,0.90,0.90,0.50,0.13,0.90,0.90,0.50,0.13,1000,2022-06-05 23:36:20.685,2022-06-05 16:36:20.685,15,0,0,16.465,34.182622,-118.129103,0.00,0.00,-0.50,2.70,-0.60,-7.90,0,1,0,85,100,-7702,2866,16465,3131.50,10,TakeOff,1,0,0,0,0,0,0,1654472180684,4195,4196,4195,4183,0,0,27,,,,,,,0,0,0,-27.00,-6.00,-79.00,0.00,0.00,-68.00,11,9.00,5.00,1.27,0.00,0.00,-5.00,0,,,100,100,0,1,0,0,0,1,6,,,,,0.0,0.0,0.0,0.0,0.0,0.0,0
34.182623,-118.129103,0.90,1.00,0.50,0.13,0.90,0.90,0.50,0.13,1100,2022-06-05 23:36:20.785,2022-06-05 16:36:20.785,15,0,0,16.465,34.182622,-118.129103,0.00,0.00,-0.50,3.00,-0.80,-7.90,0,1,0,85,100,-7702,2866,16465,3131.50,10,TakeOff,1,0,0,0,0,0,0,1654472180784,4195,4196,4195,4183,0,0,27,,,,,,,0,0,0,-30.00,-8.00,-79.00,0.00,0.00,-68.00,11,9.00,5.00,1.30,0.00,0.00,-5.00,0,,,100,100,0,1,0,0,0,1,6,,,,,0.0,0.0,0.0,0.0,0.0,0.0,0
34.182623,-118.129103,1.00,1.00,0.50,0.13,1.00,1.00,0.50,0.13,1200,2022-06-05 23:36:20.885,2022-06-05 16:36:20.885,15,0,0,16.465,34.182622,-118.129103,0.00,0.00,-0.50,3.10,-1.10,-8.00,0,1,0,85,100,-7702,2866,16465,3131.50,10,TakeOff,1,0,0,0,0,0,0,1654472180884,4195,4196,4195,4183,0,0,27,,,,,,,0,0,0,-31.00,-11.00,-80.00,0.00,0.00,-68.00,11,10.00,5.00,1.27,0.00,0.00,-5.00,0,,,100,100,0,1,0,0,0,1,6,,,,,0.0,0.0,0.0,0.0,0.0,0.0,0
34.182623,-118.129103,1.00,1.10,0.40,0.13,1.00,1.00,0.50,0.13,1300,2022-06-05 23:36:20.984,2022-06-05 16:36:20.984,15,0,0,16.465,34.182622,-118.129103,0.00,0.00,-0.40,3.00,-1.00,-8.00,0,1,0,85,100,-7702,2866,16465,3131.50,10,TakeOff,1,0,0,0,0,0,0,1654472180984,4195,4196,4195,4183,0,0,27,,,,,,,0,0,0,-30.00,-10.00,-80.00,0.00,0.00,-69.00,11,10.00,4.00,1.28,0.00,0.00,-4.00,0,,,100,100,0,1,0,0,0,1,6,,,,,0.0,0.0,0.0,0.0,0.0,0.0,0
34.182623,-118.129103,1.10,1.10,0.40,0.13,1.10,1.10,0.50,0.13,1401,2022-06-05 23:36:21.085,2022-06-05 16:36:21.085,15,0,0,16.465,34.182622,-118.129103,0.00,0.00,-0.40,3.00,-0.90,-7.90,0,1,0,85,100,-7702,2866,16465,3131.50,10,Sport,1,0,0,0,0,0,0,1654472181085,4195,4196,4195,4183,0,0,27,,,,,,,0,0,0,-30.00,-9.00,-79.00,0.00,0.00,-69.00,31,11.00,4.00,1.31,0.00,0.00,-4.00,0,,,100,100,0,1,0,0,0,1,6,,,,,0.0,0.0,0.0,0.0,0.0,0.0,0
34.182623,-118.129103,1.10,1.10,0.20,0.13,1.10,1.10,0.50,0.13,1501,2022-06-05 23:36:21.185,2022-06-05 16:36:21.186,15,0,0,16.465,34.182622,-118.129103,0.00,0.00,-0.20,3.10,-0.70,-8.00,0,1,0,85,100,-7702,2866,16465,3131.50,10,Sport,1,0,0,0,0,0,0,1654472181185,4195,4196,4195,4183,0,0,27,,,,,,,0,0,0,-31.00,-7.00,-80.00,0.00,0.00,-69.00,31,11.00,2.00,1.29,0.00,0.00,-2.00,0,,,100,100,0,1,0,0,0,1,6,,,,,0.0,0.0,0.0,0.0,0.0,0.0,0
34.182623,-118.129103,1.10,1.20,0.10,0.13,1.10,1.10,0.50,0.13,1602,2022-06-05 23:36:21.286,2022-06-05 16:36:21.286,15,0,0,16.465,34.182622,-118.129103,0.00,0.00,-0.10,3.10,-0.60,-8.00,0,1,0,85,100,-7702,2866,16465,3131.50,10,Sport,1,0,0,0,0,0,0,1654472181286,4195,4196,4195,4183,0,0,27,,,,,,,0,0,0,-31.00,-6.00,-80.00,0.00,0.00,-69.00,31,11.00,1.00,1.34,0.00,0.00,-1.00,0,,,100,100,0,1,0,0,0,1,6,,,,,0.0,0.0,0.0,0.0,0.0,0.0,0
34.182623,-118.129103,1.10,1.20,0.00,0.13,1.10,1.10,0.50,0.13,1700,2022-06-05 23:36:21.384,2022-06-05 16:36:21.384,15,0,0,16.465,34.182622,-118.129103,0.00,0.00,0.00,2.90,0.00,-8.10,0,1,0,85,100,-7702,2866,16465,3131.50,10,Sport,1,0,0,0,0,0,0,1654472181384,4195,4196,4195,4183,0,0,27,,,,,,,0,0,0,-29.00,0.00,-81.00,0.00,0.00,-69.00,31,11.00,0.00,1.31,0.00,0.00,0.00,0,,,100,100,0,1,0,0,0,1,6,,,,,0.0,0.0,0.0,0.0,0.0,0.0,0
34.182623,-118.129103,1.10,1.20,0.00,0.16,1.10,1.10,0.50,0.16,1800,2022-06-05 23:36:21.484,2022-06-05 16:36:21.484,15,0,0,16.465,34.182622,-118.129103,0.00,0.00,0.00,2.80,0.00,-8.10,0,1,0,85,100,-7702,2866,16465,3131.50,10,Sport,1,0,0,0,0,0,0,1654472181484,4195,4196,4195,4183,0,0,27,,,,,,,0,0,0,-28.00,0.00,-81.00,0.00,0.00,-69.00,31,11.00,0.00,1.59,0.00,0.00,0.00,0,,,100,100,0,1,0,0,0,1,6,,,,,0.0,0.0,0.0,0.0,0.0,0.0,0
34.182623,-118.129103,1.10,1.20,0.00,0.16,1.10,1.10,0.50,0.16,1909,2022-06-05 23:36:21.593,2022-06-05 16:36:21.593,15,0,0,16.465,34.182622,-118.129103,0.00,0.00,0.00,2.30,0.00,-8.10,0,1,0,85,100,-7702,2866,16465,3131.50,10,Sport,1,0,0,0,0,0,0,1654472181593,4195,4196,4195,4183,0,0,27,,,,,,,0,0,0,-23.00,0.00,-81.00,0.00,0.00,-69.00,31,11.00,0.00,1.58,0.00,0.00,0.00,0,,,100,100,0,1,0,0,0,1,6,,,,,0.0,0.0,0.0,0.0,0.0,0.0,0
34.182623,-118.129103,1.10,1.10,0.00,0.15,1.10,1.10,0.50,0.16,2009,2022-06-05 23:36:21.693,2022-06-05 16:36:21.693,15,0,0,16.465,34.182622,-118.129103,0.00,0.00,0.00,2.20,0.10,-8.10,0,1,0,85,100,-7702,2866,16465,3131.50,10,Sport,1,0,0,0,0,0,0,1654472181693,4195,4196,4195,4183,0,0,27,,,,,,,0,0,0,-22.00,1.00,-81.00,0.00,0.00,-69.00,31,11.00,0.00,1.52,0.00,0.00,0.00,0,,,100,100,0,1,0,0,0,1,6,,,,,0.0,0.0,0.0,0.0,0.0,0.0,0
34.182623,-118.129103,1.10,1.10,0.00,0.15,1.10,1.10,0.50,0.16,2109,2022-06-05 23:36:21.794,2022-06-05 16:36:21.794,15,0,0,16.465,34.182622,-118.129103,0.00,0.00,0.00,2.40,0.00,-8.20,0,1,0,85,100,-7702,2866,16465,3131.50,10,Sport,1,0,0,0,0,0,0,1654472181793,4195,4196,4195,4183,0,0,27,,,,,,,0,0,0,-24.00,0.00,-82.00,0.00,0.00,-69.00,31,11.00,0.00,1.49,0.00,0.00,0.00,0,,,100,100,0,1,0,0,0,1,6,,,,,0.0,0.0,0.0,0.0,0.0,0.0,0
34.182623,-118.129103,1.10,1.10,0.00,0.15,1.10,1.10,0.50,0.16,2209,2022-06-05 23:36:21.894,2022-06-05 16:36:21.894,15,0,0,16.465,34.182622,-118.129103,0.00,0.00,0.00,2.30,-0.30,-8.20,0,1,0,85,100,-7702,2866,16465,3131.50,10,Sport,1,0,0,0,0,0,0,1654472181893,4195,4196,4195,4183,0,0,27,,,,,,,0,0,0,-23.00,-3.00,-82.00,0.00,0.00,-69.00,31,11.00,0.00,1.46,0.00,0.00,0.00,0,,,100,100,0,1,0,0,0,1,6,,,,,0.0,0.0,0.0,0.0,0.0,0.0,0
34.182623,-118.129103,1.10,1.10,0.00,0.14,1.10,1.10,0.50,0.16,2309,2022-06-05 23:36:21.993,2022-06-05 16:36:21.993,15,0,0,16.465,34.182622,-118.129103,0.00,0.00,0.00,2.10,-0.50,-8.20,0,1,0,85,100,-7702,2866,16465,3131.50,10,Sport,1,0,0,0,0,0,0,1654472181993,4195,4196,4195,4183,0,0,27,,,,,,,0,0,0,-21.00,-5.00,-82.00,0.00,0.00,-69.00,31,11.00,0.00,1.43,0.00,0.00,0.00,0,,,100,100,0,1,0,0,0,1,6,,,,,0.0,0.0,0.0,0.0,0.0,0.0,0
34.182623,-118.129103,1.10,1.10,0.00,0.15,1.10,1.10,0.50,0.16,2410,2022-06-05 23:36:22.094,2022-06-05 16:36:22.094,15,0,0,16.465,34.182622,-118.129103,0.00,0.00,0.00,2.00,-0.60,-8.20,0,1,0,85,100,-7702,2866,16465,3131.50,10,Sport,1,0,0,0,0,0,0,1654472182094,4195,4196,4195,4183,0,0,27,,,,,,,0,0,0,-20.00,-6.00,-82.00,0.00,0.00,-69.00,31,11.00,0.00,1.46,0.00,0.00,0.00,0,,,100,100,0,1,0,0,0,1,6,,,,,0.0,0.0,0.0,0.0,0.0,0.0,0
34.182623,-118.129103,1.10,1.10,0.00,0.14,1.10,1.10,0.50,0.16,2509,2022-06-05 23:36:22.193,2022-06-05 16:36:22.193,15,0,0,16.465,34.182622,-118.129103,0.00,0.00,0.00,1.70,-0.60,-8.10,0,1,0,85,100,-7702,2866,16465,3131.50,10,Sport,1,0,0,0,0,0,0,1654472182193,4195,4196,4195,4183,0,0,27,,,,,,,0,0,0,-17.00,-6.00,-81.00,0.00,0.00,-69.00,31,11.00,0.00,1.42,0.00,0.00,0.00,0,,,100,100,0,1,0,0,0,1,6,,,,,0.0,0.0,0.0,0.0,0.0,0.0,0
34.182623,-118.129103,1.10,1.10,0.00,0.15,1.10,1.10,0.50,0.16,2601,2022-06-05 23:36:22.285,2022-06-05 16:36:22.285,15,0,0,16.465,34.182622,-118.129103,0.00,0.00,0.00,1.60,-0.90,-8.00,0,1,0,85,100,-7702,2866,16465,3131.50,10,Sport,1,0,0,0,0,0,0,1654472182285,4195,4196,4195,4183,0,0,27,,,,,,,0,0,0,-16.00,-9.00,-80.00,0.00,0.00,-69.00,31,11.00,0.00,1.47,0.00,0.00,0.00,0,,,100,100,0,1,0,0,0,1,6,,,,,0.0,0.0,0.0,0.0,0.0,0.0,0
34.182623,-118.129103,1.10,1.10,0.00,0.14,1.10,1.10,0.50,0.16,2701,2022-06-05 23:36:22.385,2022-06-05 16:36:22.385,15,0,0,16.444,34.182622,-118.129103,0.00,0.00,0.00,1.90,-1.50,-8.00,0,1,0,85,100,-7181,2862,16444,3131.50,10,Sport,1,0,0,0,0,0,0,1654472182385,4195,4196,4195,4183,0,0,27,,,,,,,0,0,0,-19.00,-15.00,-80.00,0.00,0.00,-69.00,31,11.00,0.00,1.45,0.00,0.00,0.00,0,,,100,100,0,1,0,0,0,1,6,,,,,0.0,0.0,0.0,0.0,0.0,0.0,0
34.182623,-118.129103,1.10,1.10,0.00,0.13,1.10,1.10,0.50,0.16,2802,2022-06-05 23:36:22.486,2022-06-05 16:36:22.486,15,0,0,16.444,34.182622,-118.129103,0.00,0.00,0.00,2.00,-1.70,-8.10,0,1,0,85,100,-7181,2862,16444,3131.50,10,Sport,1,0,0,0,0,0,0,1654472182486,4195,4196,4195,4183,0,0,27,,,,,,,0,0,0,-20.00,-17.00,-81.00,0.00,0.00,-69.00,31,11.00,0.00,1.34,0.00,0.00,0.00,0,,,100,100,0,1,0,0,0,1,6,,,,,0.0,0.0,0.0,0.0,0.0,0.0,0
34.182623,-118.129103,1.10,1.10,0.00,0.13,1.10,1.10,0.50,0.16,2904,2022-06-05 23:36:22.588,2022-06-05 16:36:22.589,15,0,0,16.444,34.182622,-118.129103,0.00,0.00,0.00,1.90,-1.40,-8.00,0,1,0,85,100,-7181,2862,16444,3131.50,10,Sport,1,0,0,0,0,0,0,1654472182588,4195,4196,4195,4183,0,0,27,,,,,,,0,0,0,-19.00,-14.00,-80.00,0.00,0.00,-69.00,31,11.00,0.00,1.31,0.00,0.00,0.00,0,,,100,100,0,1,0,0,0,1,6,,,,,0.0,0.0,0.0,0.0,0.0,0.0,0
34.182623,-118.129103,1.10,1.10,0.00,0.14,1.10,1.10,0.50,0.16,3005,2022-06-05 23:36:22.689,2022-06-05 16:36:22.690,15,0,0,16.444,34.182622,-118.129103,0.00,0.00,0.00,1.70,-1.00,-8.00,0,1,0,85,100,-7181,2862,16444,3131.50,10,Sport,1,0,0,0,0,0,0,1654472182689,4195,4196,4195,4183,0,0,27,,,,,,,0,0,0,-17.00,-10.00,-80.00,0.00,0.00,-69.00,31,11.00,0.00,1.37,0.00,0.00,0.00,0,,,100,100,0,1,0,0,0,1,6,,,,,0.0,0.0,0.0,0.0,0.0,0.0,0
34.182623,-118.129103,1.10,1.10,0.00,0.13,1.10,1.10,0.50,0.16,3102,2022-06-05 23:36:22.787,2022-06-05 16:36:22.787,15,0,0,16.444,34.182622,-118.129103,0.00,0.00,0.00,1.40,-1.00,-7.90,0,1,0,85,100,-7181,2862,16444,3131.50,10,Sport,1,0,0,0,0,0,0,1654472182786,4195,4196,4195,4183,0,0,27,,,,,,,0,0,0,-14.00,-10.00,-79.00,0.00,0.00,-69.00,31,11.00,0.00,1.32,0.00,0.00,0.00,0,,,100,100,0,1,0,0,0,1,6,,,,,0.0,0.0,0.0,0.0,0.0,0.0,0
34.182623,-118.129103,1.10,1.10,0.00,0.12,1.10,1.10,0.50,0.16,3204,2022-06-05 23:36:22.888,2022-06-05 16:36:22.888,15,0,0,16.444,34.182622,-118.129103,0.00,0.00,0.00,1.20,-0.90,-7.90,0,1,0,85,100,-7181,2862,16444,3131.50,10,Sport,1,0,0,0,0,0,0,1654472182888,4195,4196,4195,4183,0,0,27,,,,,,,0,0,0,-12.00,-9.00,-79.00,0.00,0.00,-69.00,31,11.00,0.00,1.18,0.00,0.00,0.00,0,,,100,100,0,1,0,0,0,1,6,,,,,0.0,0.0,0.0,0.0,0.0,0.0,0
34.182623,-118.129103,1.10,1.10,0.00,0.11,1.10,1.10,0.50,0.16,3303,2022-06-05 23:36:22.987,2022-06-05 16:36:22.987,15,0,0,16.444,34.182622,-118.129103,0.00,0.00,0.00,1.10,-0.60,-7.90,0,1,0,85,100,-7181,2862,16444,3131.50,10,Sport,1,0,0,0,0,0,0,1654472182987,4195,4196,4195,4183,0,0,27,,,,,,,0,0,0,-11.00,-6.00,-79.00,0.00,0.00,-69.00,31,11.00,0.00,1.12,0.00,0.00,0.00,0,,,100,100,0,1,0,0,0,1,6,,,,,0.0,0.0,0.0,0.0,0.0,0.0,0
34.182623,-118.129103,1.10,1.10,0.00,0.12,1.10,1.10,0.50,0.16,3403,2022-06-05 23:36:23.088,2022-06-05 16:36:23.088,15,0,0,16.444,34.182622,-118.129103,0.00,0.00,0.00,1.00,0.00,-7.90,0,1,0,85,100,-7181,2862,16444,3131.50,10,Sport,1,0,0,0,0,0,0,1654472183087,4195,4196,4195,4183,0,0,27,,,,,,,0,0,0,-10.00,0.00,-79.00,0.00,0.00,-69.00,31,11.00,0.00,1.19,0.00,0.00,0.00,0,,,100,100,0,1,0,0,0,1,6,,,,,0.0,0.0,0.0,0.0,0.0,0.0,0
34.182623,-118.129103,1.10,1.10,0.00,0.12,1.10,1.10,0.50,0.16,3502,2022-06-05 23:36:23.187,2022-06-05 16:36:23.187,15,0,0,16.444,34.182622,-118.129103,0.00,0.00,0.00,1.10,0.10,-7.90,0,1,0,85,100,-7181,2862,16444,3131.50,10,Sport,1,0,0,0,0,0,0,1654472183186,4195,4196,4195,4183,0,0,27,,,,,,,0,0,0,-11.00,1.00,-79.00,0.00,0.00,-69.00,31,11.00,0.00,1.16,0.00,0.00,0.00,0,,,100,100,0,1,0,0,0,1,6,,,,,0.0,0.0,0.0,0.0,0.0,0.0,0
34.182623,-118.129103,1.10,1.10,0.00,0.11,1.10,1.10,0.50,0.16,3602,2022-06-05 23:36:23.287,2022-06-05 16:36:23.287,15,0,0,16.444,34.182622,-118.129103,0.00,0.00,0.00,1.20,-0.20,-7.80,0,1,0,85,100,-7181,2862,16444,3131.50,10,Sport,1,0,0,0,0,0,0,1654472183286,4195,4196,4195,4183,0,0,27,,,,,,,0,0,0,-12.00,-2.00,-78.00,0.00,0.00,-69.00,31,11.00,0.00,1.11,0.00,0.00,0.00,0,,,100,100,0,1,0,0,0,1,6,,,,,0.0,0.0,0.0,0.0,0.0,0.0,0
34.182623,-118.129103,1.10,1.10,0.00,0.11,1.10,1.10,0.50,0.16,3703,2022-06-05 23:36:23.387,2022-06-05 16:36:23.387,15,0,0,16.444,34.182622,-118.129103,0.00,0.00,0.00,1.50,-0.10,-7.80,0,1,0,85,100,-7181,2862,16444,3131.50,10,Sport,1,0,0,0,0,0,0,1654472183387,4195,4196,4195,4183,0,0,27,,,,,,,0,0,0,-15.00,-1.00,-78.00,0.00,0.00,-69.00,31,11.00,0.00,1.11,0.00,0.00,0.00,0,,,100,100,0,1,0,0,0,1,6,,,,,0.0,0.0,0.0,0.0,0.0,0.0,0
34.182623,-118.129103,1.10,1.10,0.00,0.11,1.10,1.10,0.50,0.16,3802,2022-06-05 23:36:23.487,2022-06-05 16:36:23.487,15,0,0,16.444,34.182622,-118.129103,0.00,0.00,0.00,1.60,-0.20,-7.80,0,1,0,85,100,-7181,2862,16444,3131.50,10,Sport,1,0,0,0,0,0,0,1654472183486,4195,4196,4195,4183,0,0,27,,,,,,,0,0,0,-16.00,-2.00,-78.00,0.00,0.00,-69.00,31,11.00,0.00,1.06,0.00,0.00,0.00,0,,,100,100,0,1,0,0,0,1,6,,,,,0.0,0.0,0.0,0.0,0.0,0.0,0
34.182623,-118.129103,1.10,1.10,0.00,0.11,1.10,1.10,0.50,0.16,3902,2022-06-05 23:36:23.587,2022-06-05 16:36:23.587,15,0,0,16.444,34.182622,-118.129103,0.00,0.00,0.00,1.70,-0.50,-7.90,0,1,0,85,100,-7181,2862,16444,3131.50,10,Sport,1,0,0,0,0,0,0,1654472183586,4195,4196,4195,4183,0,0,27,,,,,,,0,0,0,-17.00,-5.00,-79.00,0.00,0.00,-69.00,31,11.00,0.00,1.07,0.00,0.00,0.00,0,,,100,100,0,1,0,0,0,1,6,,,,,0.0,0.0,0.0,0.0,0.0,0.0,0
34.182623,-118.129103,1.10,1.10,0.00,0.12,1.10,1.10,0.50,0.16,4004,2022-06-05 23:36:23.689,2022-06-05 16:36:23.689,15,0,0,16.444,34.182622,-118.129103,0.00,0.00,0.00,1.80,-0.50,-7.90,0,1,0,85,100,-7181,2862,16444,3131.50,10,Sport,1,0,0,0,0,0,0,1654472183688,4195,4196,4195,4183,0,0,27,,,,,,,0,0,0,-18.00,-5.00,-79.00,0.00,0.00,-69.00,31,11.00,0.00,1.16,0.00,0.00,0.00,0,,,100,100,0,1,0,0,0,1,6,,,,,0.0,0.0,0.0,0.0,0.0,0.0,0
34.182623,-118.129103,1.10,1.10,0.00,0.12,1.10,1.10,0.50,0.16,4103,2022-06-05 23:36:23.787,2022-06-05 16:36:23.787,15,0,0,16.444,34.182622,-118.129103,0.00,0.00,0.00,1.90,-0.50,-7.90,0,1,0,85,100,-7181,2862,16444,3131.50,10,Sport,1,0,0,0,0,0,0,1654472183787,4195,4196,4195,4183,0,0,27,,,,,,,0,0,0,-19.00,-5.00,-79.00,0.00,0.00,-69.00,31,11.00,0.00,1.18,0.00,0.00,0.00,0,,,100,100,0,1,0,0,0,1,6,,,,,0.0,0.0,0.0,0.0,0.0,0.0,0
34.182623,-118.129103,1.10,1.10,0.00,0.12,1.10,1.10,0.50,0.16,4203,2022-06-05 23:36:23.888,2022-06-05 16:36:23.888,15,0,0,16.444,34.182622,-118.129103,0.00,0.00,0.00,2.10,-0.40,-7.90,0,1,0,85,100,-7181,2862,16444,3131.50,10,Sport,1,0,0,0,0,0,0,1654472183887,4195,4196,4195,4183,0,0,27,,,,,,,0,0,0,-21.00,-4.00,-79.00,0.00,0.00,-69.00,31,11.00,0.00,1.18,0.00,0.00,0.00,0,,,100,100,0,1,0,0,0,1,6,,,,,0.0,0.0,0.0,0.0,0.0,0.0,0
34.182623,-118.129103,1.10,1.10,0.00,0.12,1.10,1.10,0.50,0.16,4302,2022-06-05 23:36:23.986,2022-06-05 16:36:23.986,15,0,0,16.444,34.182622,-118.129103,0.00,0.00,0.00,1.80,-0.60,-7.90,0,1,0,85,100,-7181,2862,16444,3131.50,10,Sport,1,0,0,0,0,0,0,1654472183986,4195,4196,4195,4183,0,0,27,,,,,,,0,0,0,-18.00,-6.00,-79.00,0.00,0.00,-69.00,31,11.00,0.00,1.19,0.00,0.00,0.00,0,,,100,100,0,1,0,0,0,1,6,,,,,0.0,0.0,0.0,0.0,0.0,0.0,0
34.182623,-118.129103,1.10,1.10,0.00,0.11,1.10,1.10,0.50,0.16,4403,2022-06-05 23:36:24.087,2022-06-05 16:36:24.087,15,0,0,16.444,34.182622,-118.129103,0.00,0.00,0.00,1.40,-0.20,-7.80,0,1,0,85,100,-7181,2862,16444,3131.50,10,Sport,1,0,0,0,0,0,0,1654472184087,4195,4196,4195,4183,0,0,27,,,,,,,0,0,0,-14.00,-2.00,-78.00,0.00,0.00,-69.00,31,11.00,0.00,1.14,0.00,0.00,0.00,0,,,100,100,0,1,0,0,0,1,6,,,,,0.0,0.0,0.0,0.0,0.0,0.0,0
34.182623,-118.129103,1.10,1.10,0.00,0.11,1.10,1.10,0.50,0.16,4502,2022-06-05 23:36:24.187,2022-06-05 16:36:24.187,15,0,0,16.444,34.182622,-118.129103,0.00,0.00,0.00,1.00,-0.10,-7.70,0,1,0,85,100,-7181,2862,16444,3131.50,10,Sport,1,0,0,0,0,0,0,1654472184186,4195,4196,4195,4183,0,0,27,,,,,,,0,0,0,-10.00,-1.00,-77.00,0.00,0.00,-69.00,31,11.00,0.00,1.14,0.00,0.00,0.00,0,,,100,100,0,1,0,0,0,1,6,,,,,0.0,0.0,0.0,0.0,0.0,0.0,0
34.182623,-118.129103,1.10,1.10,0.00,0.11,1.10,1.10,0.50,0.16,4603,2022-06-05 23:36:24.288,2022-06-05 16:36:24.288,15,0,0,16.431,34.182622,-118.129103,0.00,0.00,0.00,1.40,-0.30,-7.70,0,1,0,85,100,-7647,2860,16431,3131.50,10,Sport,1,0,0,0,0,0,0,1654472184287,4195,4196,4195,4183,0,0,27,,,,,,,0,0,0,-14.00,-3.00,-77.00,0.00,0.00,-69.00,31,11.00,0.00,1.10,0.00,0.00,0.00,0,,,100,100,0,1,0,0,0,1,6,,,,,0.0,0.0,0.0,0.0,0.0,0.0,0
34.182623,-118.129103,1.10,1.10,0.00,0.11,1.10,1.10,0.50,0.16,4702,2022-06-05 23:36:24.387,2022-06-05 16:36:24.387,15,0,0,16.431,34.182622,-118.129103,0.00,0.00,0.00,1.30,-0.70,-7.70,0,1,0,85,100,-7647,2860,16431,3131.50,10,Sport,1,0,0,0,0,0,0,1654472184386,4195,4196,4195,4183,0,0,27,,,,,,,0,0,0,-13.00,-7.00,-77.00,0.00,0.00,-69.00,31,11.00,0.00,1.11,0.00,0.00,0.00,0,,,100,100,0,1,0,0,0,1,6,,,,,0.0,0.0,0.0,0.0,0.0,0.0,0
34.182623,-118.129103,1.10,1.10,0.00,0.11,1.10,1.10,0.50,0.16,4803,2022-06-05 23:36:24.487,2022-06-05 16:36:24.487,15,0,0,16.431,34.182622,-118.129103,0.00,0.00,0.00,1.20,-0.60,-7.80,0,1,0,85,100,-7647,2860,16431,3131.50,10,Sport,1,0,0,0,0,0,0,1654472184487,4195,4196,4195,4183,0,0,27,,,,,,,0,0,0,-12.00,-6.00,-78.00,0.00,0.00,-69.00,31,11.00,0.00,1.12,0.00,0.00,0.00,0,,,100,100,0,1,0,0,0,1,6,,,,,0.0,0.0,0.0,0.0,0.0,0.0,0
34.182623,-118.129104,1.10,1.10,0.00,0.11,1.10,1.10,0.50,0.16,4902,2022-06-05 23:36:24.587,2022-06-05 16:36:24.587,15,0,0,16.431,34.182622,-118.129103,0.00,0.00,0.00,1.10,-0.40,-7.80,0,1,0,85,100,-7647,2860,16431,3131.50,10,Sport,1,0,0,0,0,0,0,1654472184586,4195,4196,4195,4183,0,0,27,,,,,,,0,0,0,-11.00,-4.00,-78.00,0.00,0.00,-69.00,31,11.00,0.00,1.13,0.00,0.00,0.00,0,,,100,100,0,1,0,0,0,1,6,,,,,0.0,0.0,0.0,0.0,0.0,0.0,0
34.182622,-118.129103,1.10,1.10,0.00,0.10,1.10,1.10,0.50,0.16,5003,2022-06-05 23:36:24.687,2022-06-05 16:36:24.688,15,0,0,16.431,34.182622,-118.129103,0.00,0.00,0.00,1.30,-0.60,-7.90,0,1,0,85,100,-7647,2860,16431,3131.50,10,Sport,1,0,0,0,0,0,0,1654472184687,4195,4196,4195,4183,0,0,27,,,,,,,0,0,0,-13.00,-6.00,-79.00,0.00,0.00,-69.00,31,11.00,0.00,0.96,0.00,0.00,0.00,0,,,100,100,0,1,0,0,0,1,6,,,,,0.0,0.0,0.0,0.0,0.0,0.0,0
34.182622,-118.129104,1.10,1.10,0.00,0.10,1.10,1.10,0.50,0.16,5103,2022-06-05 23:36:24.787,2022-06-05 16:36:24.787,15,0,0,16.431,34.182622,-118.129103,0.00,0.00,0.00,1.40,-0.40,-7.90,0,1,0,85,100,-7647,2860,16431,3131.50,10,Sport,1,0,0,0,0,0,0,1654472184787,4195,4196,4195,4183,0,0,27,,,,,,,0,0,0,-14.00,-4.00,-79.00,0.00,0.00,-69.00,31,11.00,0.00,0.96,0.00,0.00,0.00,0,,,100,100,0,1,0,0,0,1,6,,,,,0.0,0.0,0.0,0.0,0.0,0.0,0
34.182622,-118.129104,1.10,1.20,0.00,0.10,1.10,1.10,0.50,0.16,5202,2022-06-05 23:36:24.887,2022-06-05 16:36:24.887,15,0,0,16.431,34.182622,-118.129103,0.00,0.00,0.00,1.50,-0.20,-7.80,0,1,0,85,100,-7647,2860,16431,3131.50,10,Sport,1,0,0,0,0,0,0,1654472184886,4195,4196,4195,4183,0,0,27,,,,,,,0,0,0,-15.00,-2.00,-78.00,0.00,0.00,-69.00,31,11.00,0.00,0.99,0.00,0.00,0.00,0,,,100,100,0,1,0,0,0,1,6,,,,,0.0,0.0,0.0,0.0,0.0,0.0,0
34.182622,-118.129104,1.10,1.20,0.00,0.10,1.10,1.10,0.50,0.16,5304,2022-06-05 23:36:24.988,2022-06-05 16:36:24.988,15,0,0,16.431,34.182622,-118.129103,0.00,0.00,0.00,1.30,0.10,-7.90,0,1,0,85,100,-7647,2860,16431,3131.50,10,Sport,1,0,0,0,0,0,0,1654472184988,4195,4196,4195,4183,0,0,27,,,,,,,0,0,0,-13.00,1.00,-79.00,0.00,0.00,-69.00,31,11.00,0.00,1.00,0.00,0.00,0.00,0,,,100,100,0,1,0,0,0,1,6,,,,,0.0,0.0,0.0,0.0,0.0,0.0,0
34.182622,-118.129104,1.10,1.20,0.00,0.10,1.10,1.10,0.50,0.16,5404,2022-06-05 23:36:25.088,2022-06-05 16:36:25.088,15,0,0,16.431,34.182622,-118.129103,0.00,0.00,0.00,1.30,0.40,-7.90,0,1,0,85,100,-7647,2860,16431,3131.50,10,Sport,1,0,0,0,0,0,0,1654472185088,4195,4196,4195,4183,0,0,27,,,,,,,0,0,0,-13.00,4.00,-79.00,0.00,0.00,-69.00,31,11.00,0.00,1.02,0.00,0.00,0.00,0,,,100,100,0,1,0,0,0,1,6,,,,,0.0,0.0,0.0,0.0,0.0,0.0,0
34.182623,-118.129104,1.10,1.20,0.00,0.10,1.10,1.10,0.50,0.16,5503,2022-06-05 23:36:25.187,2022-06-05 16:36:25.187,15,0,0,16.431,34.182622,-118.129103,0.00,0.00,0.00,1.60,0.20,-7.80,0,1,0,85,100,-7647,2860,16431,3131.50,10,Sport,1,0,0,0,0,0,0,1654472185187,4195,4196,4195,4183,0,0,27,,,,,,,0,0,0,-16.00,2.00,-78.00,0.00,0.00,-69.00,31,11.00,0.00,1.05,0.00,0.00,0.00,0,,,100,100,0,1,0,0,0,1,6,,,,,0.0,0.0,0.0,0.0,0.0,0.0,0
34.182623,-118.129104,1.10,1.20,0.00,0.11,1.10,1.10,0.50,0.16,5603,2022-06-05 23:36:25.288,2022-06-05 16:36:25.288,15,0,0,16.431,34.182622,-118.129103,0.00,0.00,0.00,1.60,0.30,-7.80,0,1,0,85,100,-7647,2860,16431,3131.50,10,Sport,1,0,0,0,0,0,0,1654472185287,4195,4196,4195,4183,0,0,27,,,,,,,0,0,0,-16.00,3.00,-78.00,0.00,0.00,-69.00,31,11.00,0.00,1.09,0.00,0.00,0.00,0,,,100,100,0,1,0,0,0,1,6,,,,,0.0,0.0,0.0,0.0,0.0,0.0,0
34.182623,-118.129104,1.10,1.20,0.00,0.11,1.10,1.10,0.50,0.16,5703,2022-06-05 23:36:25.388,2022-06-05 16:36:25.388,15,0,0,16.431,34.182622,-118.129103,0.00,0.00,0.00,1.50,0.30,-7.80,0,1,0,85,100,-7647,2860,16431,3131.50,10,Sport,1,0,0,0,0,0,0,1654472185387,4195,4196,4195,4183,0,0,27,,,,,,,0,0,0,-15.00,3.00,-78.00,0.00,0.00,-69.00,31,11.00,0.00,1.12,0.00,0.00,0.00,0,,,100,100,0,1,0,0,0,1,6,,,,,0.0,0.0,0.0,0.0,0.0,0.0,0
34.182623,-118.129104,1.10,1.20,0.00,0.11,1.10,1.10,0.50,0.16,5803,2022-06-05 23:36:25.487,2022-06-05 16:36:25.487,15,0,0,16.431,34.182622,-118.129103,0.00,0.00,0.00,1.40,0.00,-7.90,0,1,0,85,100,-7647,2860,16431,3131.50,10,Sport,1,0,0,0,0,0,0,1654472185487,4195,4196,4195,4183,0,0,27,,,,,,,0,0,0,-14.00,0.00,-79.00,0.00,0.00,-69.00,31,11.00,0.00,1.13,0.00,0.00,0.00,0,,,100,100,0,1,0,0,0,1,6,,,,,0.0,0.0,0.0,0.0,0.0,0.0,0
34.182623,-118.129104,1.10,1.20,0.00,0.12,1.10,1.10,0.50,0.16,5903,2022-06-05 23:36:25.588,2022-06-05 16:36:25.588,15,0,0,16.431,34.182622,-118.129103,0.00,0.00,0.00,1.80,0.00,-7.90,0,1,0,85,100,-7647,2860,16431,3131.50,10,Sport,1,0,0,0,0,0,0,1654472185587,4195,4196,4195,4183,0,0,27,,,,,,,0,0,0,-18.00,0.00,-79.00,0.00,0.00,-69.00,31,11.00,0.00,1.16,0.00,0.00,0.00,0,,,100,100,0,1,0,0,0,1,6,,,,,0.0,0.0,0.0,0.0,0.0,0.0,0
34.182623,-118.129104,1.10,1.20,0.00,0.12,1.10,1.10,0.50,0.16,6004,2022-06-05 23:36:25.688,2022-06-05 16:36:25.688,15,0,0,16.431,34.182622,-118.129103,0.00,0.00,0.00,1.80,0.20,-7.90,0,1,0,85,100,-7647,2860,16431,3131.50,10,Sport,1,0,0,0,0,0,0,1654472185688,4195,4196,4195,4183,0,0,27,,,,,,,0,0,0,-18.00,2.00,-79.00,0.00,0.00,-69.00,31,11.00,0.00,1.15,0.00,0.00,0.00,0,,,100,100,0,1,0,0,0,1,6,,,,,0.0,0.0,0.0,0.0,0.0,0.0,0
34.182623,-118.129104,1.10,1.20,0.00,0.12,1.10,1.10,0.50,0.16,6104,2022-06-05 23:36:25.789,2022-06-05 16:36:25.789,15,0,0,16.431,34.182622,-118.129103,0.00,0.00,0.00,1.40,0.50,-8.00,0,1,0,85,100,-7647,2860,16431,3131.50,10,Sport,1,0,0,0,0,0,0,1654472185788,4195,4196,4195,4183,0,0,27,,,,,,,0,0,0,-14.00,5.00,-80.00,0.00,0.00,-69.00,31,11.00,0.00,1.17,0.00,0.00,0.00,0,,,100,100,0,1,0,0,0,1,6,,,,,0.0,0.0,0.0,0.0,0.0,0.0,0
34.182623,-118.129104,1.10,1.20,0.00,0.11,1.10,1.10,0.50,0.16,6203,2022-06-05 23:36:25.888,2022-06-05 16:36:25.888,15,0,0,16.431,34.182622,-118.129103,0.00,0.00,0.00,1.30,-0.10,-7.90,0,1,0,85,100,-7647,2860,16431,3131.50,10,Sport,1,0,0,0,0,0,0,1654472185887,4195,4196,4195,4183,0,0,27,,,,,,,0,0,0,-13.00,-1.00,-79.00,0.00,0.00,-69.00,31,11.00,0.00,1.10,0.00,0.00,0.00,0,,,100,100,0,1,0,0,0,1,6,,,,,0.0,0.0,0.0,0.0,0.0,0.0,0
34.182623,-118.129104,1.10,1.20,0.00,0.11,1.10,1.10,0.50,0.16,6304,2022-06-05 23:36:25.988,2022-06-05 16:36:25.988,15,0,0,16.431,34.182622,-118.129103,0.00,0.00,0.00,1.40,-0.30,-7.90,0,1,0,85,100,-7647,2860,16431,3131.50,10,Sport,1,0,0,0,0,0,0,1654472185988,4195,4196,4195,4183,0,0,27,,,,,,,0,0,0,-14.00,-3.00,-79.00,0.00,0.00,-69.00,31,11.00,0.00,1.11,0.00,0.00,0.00,0,,,100,100,0,1,0,0,0,1,6,,,,,0.0,0.0,0.0,0.0,0.0,0.0,0
34.182623,-118.129104,1.10,1.20,0.00,0.11,1.10,1.10,0.50,0.16,6403,2022-06-05 23:36:26.088,2022-06-05 16:36:26.088,15,0,0,16.431,34.182622,-118.129103,0.00,0.00,0.00,1.70,0.00,-7.90,0,1,0,85,100,-7647,2860,16431,3131.50,10,Sport,1,0,0,0,0,0,0,1654472186087,4195,4196,4195,4183,0,0,27,,,,,,,0,0,0,-17.00,0.00,-79.00,0.00,0.00,-69.00,31,11.00,0.00,1.08,0.00,0.00,0.00,0,,,100,100,0,1,0,0,0,1,6,,,,,0.0,0.0,0.0,0.0,0.0,0.0,0
34.182623,-118.129104,1.10,1.20,0.00,0.11,1.10,1.10,0.50,0.16,6504,2022-06-05 23:36:26.189,2022-06-05 16:36:26.189,15,0,0,16.431,34.182622,-118.129103,0.00,0.00,0.00,1.80,0.20,-7.90,0,1,0,85,100,-7647,2860,16431,3131.50,10,Sport,1,0,0,0,0,0,0,1654472186188,4195,4196,4195,4183,0,0,27,,,,,,,0,0,0,-18.00,2.00,-79.00,0.00,0.00,-69.00,31,11.00,0.00,1.11,0.00,0.00,0.00,0,,,100,100,0,1,0,0,0,1,6,,,,,0.0,0.0,0.0,0.0,0.0,0.0,0
34.182623,-118.129104,1.10,1.20,0.00,0.13,1.10,1.10,0.50,0.16,6603,2022-06-05 23:36:26.288,2022-06-05 16:36:26.288,15,0,0,16.426,34.182622,-118.129103,0.00,0.00,0.00,1.90,-0.10,-7.80,0,1,0,84,100,-7283,2856,16426,3131.50,10,Sport,1,0,0,0,0,0,0,1654472186287,4195,4196,4195,4183,0,0,27,,,,,,,0,0,0,-19.00,-1.00,-78.00,0.00,0.00,-69.00,31,11.00,0.00,1.28,0.00,0.00,0.00,0,,,100,100,0,1,0,0,0,1,6,,,,,0.0,0.0,0.0,0.0,0.0,0.0,0
34.182623,-118.129104,1.10,1.20,0.00,0.13,1.10,1.10,0.50,0.16,6704,2022-06-05 23:36:26.388,2022-06-05 16:36:26.388,15,0,0,16.426,34.182622,-118.129103,0.00,0.00,0.00,2.20,-0.30,-7.80,0,1,0,84,100,-7283,2856,16426,3131.50,10,Sport,1,0,0,0,0,0,0,1654472186388,4195,4196,4195,4183,0,0,27,,,,,,,0,0,0,-22.00,-3.00,-78.00,0.00,0.00,-69.00,31,11.00,0.00,1.33,0.00,0.00,0.00,0,,,100,100,0,1,0,0,0,1,6,,,,,0.0,0.0,0.0,0.0,0.0,0.0,0
34.182623,-118.129104,1.10,1.20,0.00,0.13,1.10,1.10,0.50,0.16,6804,2022-06-05 23:36:26.489,2022-06-05 16:36:26.489,15,0,0,16.426,34.182622,-118.129103,0.00,0.00,0.00,2.30,-0.30,-7.80,0,1,0,84,100,-7283,2856,16426,3131.50,10,Sport,1,0,0,0,0,0,0,1654472186488,4195,4196,4195,4183,0,0,27,,,,,,,0,0,0,-23.00,-3.00,-78.00,0.00,0.00,-69.00,31,11.00,0.00,1.29,0.00,0.00,0.00,0,,,100,100,0,1,0,0,0,1,6,,,,,0.0,0.0,0.0,0.0,0.0,0.0,0
34.182623,-118.129104,1.10,1.20,0.00,0.13,1.10,1.10,0.50,0.16,6905,2022-06-05 23:36:26.589,2022-06-05 16:36:26.589,15,0,0,16.426,34.182622,-118.129103,0.00,0.00,0.00,2.40,-0.30,-7.90,0,1,0,84,100,-7283,2856,16426,3131.50,10,Sport,1,0,0,0,0,0,0,1654472186589,4195,4196,4195,4183,0,0,27,,,,,,,0,0,0,-24.00,-3.00,-79.00,0.00,0.00,-69.00,31,11.00,0.00,1.32,0.00,0.00,0.00,0,,,100,100,0,1,0,0,0,1,6,,,,,0.0,0.0,0.0,0.0,0.0,0.0,0
34.182623,-118.129104,1.10,1.20,0.00,0.14,1.10,1.10,0.50,0.16,7005,2022-06-05 23:36:26.689,2022-06-05 16:36:26.689,15,0,0,16.426,34.182622,-118.129103,0.00,0.00,0.00,2.60,-0.10,-8.00,0,1,0,84,100,-7283,2856,16426,3131.50,10,Sport,1,0,0,0,0,0,0,1654472186689,4195,4196,4195,4183,0,0,27,,,,,,,0,0,0,-26.00,-1.00,-80.00,0.00,0.00,-69.00,31,11.00,0.00,1.41,0.00,0.00,0.00,0,,,100,100,0,1,0,0,0,1,6,,,,,0.0,0.0,0.0,0.0,0.0,0.0,0
34.182623,-118.129104,1.10,1.20,0.00,0.14,1.10,1.10,0.50,0.16,7105,2022-06-05 23:36:26.789,2022-06-05 16:36:26.789,15,0,0,16.426,34.182622,-118.129103,0.00,0.00,0.00,2.30,0.00,-8.00,0,1,0,84,100,-7283,2856,16426,3131.50,10,Sport,1,0,0,0,0,0,0,1654472186789,4195,4196,4195,4183,0,0,27,,,,,,,0,0,0,-23.00,0.00,-80.00,0.00,0.00,-69.00,31,11.00,0.00,1.44,0.00,0.00,0.00,0,,,100,100,0,1,0,0,0,1,6,,,,,0.0,0.0,0.0,0.0,0.0,0.0,0
34.182623,-118.129104,1.10,1.20,0.00,0.15,1.10,1.10,0.50,0.16,7204,2022-06-05 23:36:26.889,2022-06-05 16:36:26.889,15,0,0,16.426,34.182622,-118.129103,0.00,0.00,0.00,2.20,-0.50,-7.80,0,1,0,84,100,-7283,2856,16426,3131.50,10,Sport,1,0,0,0,0,0,0,1654472186888,4110,4107,4101,4090,0,0,27,,,,,,,0,0,0,-22.00,-5.00,-78.00,0.00,0.00,-69.00,31,11.00,0.00,1.49,0.00,0.00,0.00,0,,,100,100,0,1,0,0,0,1,6,,,,,0.0,0.0,0.0,0.0,0.0,0.0,0
34.182623,-118.129104,1.10,1.20,0.00,0.15,1.10,1.10,0.50,0.16,7304,2022-06-05 23:36:26.988,2022-06-05 16:36:26.988,15,0,0,16.426,34.182622,-118.129103,0.00,0.00,0.00,2.10,-1.00,-7.80,0,1,0,84,100,-7283,2856,16426,3131.50,10,Sport,1,0,0,0,0,0,0,1654472186988,4110,4107,4101,4090,0,0,27,,,,,,,0,0,0,-21.00,-10.00,-78.00,0.00,0.00,-69.00,31,11.00,0.00,1.50,0.00,0.00,0.00,0,,,100,100,0,1,0,0,0,1,6,,,,,0.0,0.0,0.0,0.0,0.0,0.0,0
34.182623,-118.129103,1.10,1.20,0.00,0.14,1.10,1.10,0.50,0.16,7405,2022-06-05 23:36:27.089,2022-06-05 16:36:27.089,15,0,0,16.426,34.182622,-118.129103,0.00,0.00,0.00,1.90,-1.00,-7.70,0,1,0,84,100,-7283,2856,16426,3131.50,10,Sport,1,0,0,0,0,0,0,1654472187089,4110,4107,4101,4090,0,0,27,,,,,,,0,0,0,-19.00,-10.00,-77.00,0.00,0.00,-69.00,31,11.00,0.00,1.37,0.00,0.00,0.00,0,,,100,100,0,1,0,0,0,1,6,,,,,0.0,0.0,0.0,0.0,0.0,0.0,0
34.182623,-118.129103,1.10,1.20,0.00,0.14,1.10,1.10,0.50,0.16,7505,2022-06-05 23:36:27.189,2022-06-05 16:36:27.189,15,0,0,16.426,34.182622,-118.129103,0.00,0.00,0.00,1.90,-1.10,-7.80,0,1,0,84,100,-7283,2856,16426,3131.50,10,Sport,1,0,0,0,0,0,0,1654472187189,4110,4107,4101,4090,0,0,27,,,,,,,0,0,0,-19.00,-11.00,-78.00,0.00,0.00,-69.00,31,11.00,0.00,1.37,0.00,0.00,0.00,0,,,100,100,0,1,0,0,0,1,6,,,,,0.0,0.0,0.0,0.0,0.0,0.0,0
34.182623,-118.129103,1.10,1.20,0.00,0.15,1.10,1.10,0.50,0.16,7605,2022-06-05 23:36:27.289,2022-06-05 16:36:27.289,15,0,0,16.426,34.182622,-118.129103,0.00,0.00,0.00,2.00,-0.90,-8.00,0,1,0,84,100,-7283,2856,16426,3131.50,10,Sport,1,0,0,0,0,0,0,1654472187289,4110,4107,4101,4090,0,0,27,,,,,,,0,0,0,-20.00,-9.00,-80.00,0.00,0.00,-69.00,31,11.00,0.00,1.48,0.00,0.00,0.00,0,,,100,100,0,1,0,0,0,1,6,,,,,0.0,0.0,0.0,0.0,0.0,0.0,0
34.182623,-118.129103,1.10,1.20,0.00,0.15,1.10,1.10,0.50,0.16,7704,2022-06-05 23:36:27.389,2022-06-05 16:36:27.389,15,0,0,16.426,34.182622,-118.129103,0.00,0.00,0.00,1.90,-0.70,-7.90,0,1,0,84,100,-7283,2856,16426,3131.50,10,Sport,1,0,0,0,0,0,0,1654472187388,4110,4107,4101,4090,0,0,27,,,,,,,0,0,0,-19.00,-7.00,-79.00,0.00,0.00,-69.00,31,11.00,0.00,1.49,0.00,0.00,0.00,0,,,100,100,0,1,0,0,0,1,6,,,,,0.0,0.0,0.0,0.0,0.0,0.0,0
34.182623,-118.129103,1.10,1.10,0.00,0.15,1.10,1.10,0.50,0.16,7805,2022-06-05 23:36:27.489,2022-06-05 16:36:27.489,15,0,0,16.426,34.182622,-118.129103,0.00,0.00,0.00,1.70,-1.30,-7.80,0,1,0,84,100,-7283,2856,16426,3131.50,10,Sport,1,0,0,0,0,0,0,1654472187489,4110,4107,4101,4090,0,0,27,,,,,,,0,0,0,-17.00,-13.00,-78.00,0.00,0.00,-69.00,31,11.00,0.00,1.46,0.00,0.00,0.00,0,,,100,100,0,1,0,0,0,1,6,,,,,0.0,0.0,0.0,0.0,0.0,0.0,0
34.182623,-118.129103,1.10,1.20,0.00,0.15,1.10,1.10,0.50,0.16,7906,2022-06-05 23:36:27.591,2022-06-05 16:36:27.591,15,0,0,16.426,34.182622,-118.129103,0.00,0.00,0.00,1.90,-1.30,-7.80,0,1,0,84,100,-7283,2856,16426,3131.50,10,Sport,1,0,0,0,0,0,0,1654472187590,4110,4107,4101,4090,0,0,27,,,,,,,0,0,0,-19.00,-13.00,-78.00,0.00,0.00,-69.00,31,11.00,0.00,1.46,0.00,0.00,0.00,0,,,100,100,0,1,0,0,0,1,6,,,,,0.0,0.0,0.0,0.0,0.0,0.0,0
34.182623,-118.129103,1.10,1.20,0.00,0.15,1.10,1.10,0.50,0.16,8004,2022-06-05 23:36:27.689,2022-06-05 16:36:27.689,15,0,0,16.426,34.182622,-118.129103,0.00,0.00,0.00,1.70,-1.40,-7.80,0,1,0,84,100,-7283,2856,16426,3131.50,10,Sport,1,0,0,0,0,0,0,1654472187688,4110,4107,4101,4090,0,0,27,,,,,,,0,0,0,-17.00,-14.00,-78.00,0.00,0.00,-69.00,31,11.00,0.00,1.46,0.00,0.00,0.00,0,,,100,100,0,1,0,0,0,1,6,,,,,0.0,0.0,0.0,0.0,0.0,0.0,0
34.182623,-118.129103,1.10,1.20,0.00,0.15,1.10,1.10,0.50,0.16,8105,2022-06-05 23:36:27.790,2022-06-05 16:36:27.790,15,0,0,16.426,34.182622,-118.129103,0.00,0.00,0.00,1.80,-1.50,-7.80,0,1,0,84,100,-7283,2856,16426,3131.50,10,Sport,1,0,0,0,0,0,0,1654472187789,4110,4107,4101,4090,0,0,27,,,,,,,0,0,0,-18.00,-15.00,-78.00,0.00,0.00,-69.00,31,11.00,0.00,1.46,0.00,0.00,0.00,0,,,100,100,0,1,0,0,0,1,6,,,,,0.0,0.0,0.0,0.0,0.0,0.0,0
34.182623,-118.129103,1.10,1.20,0.00,0.15,1.10,1.10,0.50,0.16,8205,2022-06-05 23:36:27.890,2022-06-05 16:36:27.890,15,0,0,16.426,34.182622,-118.129103,0.00,0.00,0.00,1.70,-1.40,-7.80,0,1,0,84,100,-7283,2856,16426,3131.50,10,Sport,1,0,0,0,0,0,0,1654472187889,4110,4107,4101,4090,0,0,27,,,,,,,0,0,0,-17.00,-14.00,-78.00,0.00,0.00,-69.00,31,11.00,0.00,1.46,0.00,0.00,0.00,0,,,100,100,0,1,0,0,0,1,6,,,,,0.0,0.0,0.0,0.0,0.0,0.0,0
34.182623,-118.129103,1.10,1.20,0.00,0.15,1.10,1.10,0.50,0.16,8305,2022-06-05 23:36:27.990,2022-06-05 16:36:27.990,15,0,0,16.426,34.182622,-118.129103,0.00,0.00,0.00,1.50,-1.50,-7.70,0,1,0,84,100,-7283,2856,16426,3131.50,10,Sport,1,0,0,0,0,0,0,1654472187989,4110,4107,4101,4090,0,0,27,,,,,,,0,0,0,-15.00,-15.00,-77.00,0.00,0.00,-69.00,31,11.00,0.00,1.46,0.00,0.00,0.00,0,,,100,100,0,1,0,0,0,1,6,,,,,0.0,0.0,0.0,0.0,0.0,0.0,0
34.182623,-118.129103,1.10,1.20,0.00,0.15,1.10,1.10,0.50,0.16,8405,2022-06-05 23:36:28.090,2022-06-05 16:36:28.090,15,0,0,16.426,34.182622,-118.129103,0.00,0.00,0.00,1.60,-1.50,-7.70,0,1,0,84,100,-7283,2856,16426,3131.50,10,Sport,1,0,0,0,0,0,0,1654472188089,4110,4107,4101,4090,0,0,27,,,,,,,0,0,0,-16.00,-15.00,-77.00,0.00,0.00,-69.00,31,11.00,0.00,1.47,0.00,0.00,0.00,0,,,100,100,0,1,0,0,0,1,6,,,,,0.0,0.0,0.0,0.0,0.0,0.0,0
34.182623,-118.129103,1.10,1.20,0.00,0.15,1.10,1.10,0.50,0.16,8505,2022-06-05 23:36:28.189,2022-06-05 16:36:28.189,15,0,0,16.426,34.182622,-118.129103,0.00,0.00,0.00,1.60,-1.40,-7.80,0,1,0,84,100,-7283,2856,16426,3131.50,10,Sport,1,0,0,0,0,0,0,1654472188189,4110,4107,4101,4090,0,0,27,,,,,,,0,0,0,-16.00,-14.00,-78.00,0.00,0.00,-69.00,31,11.00,0.00,1.47,0.00,0.00,0.00,0,,,100,100,0,1,0,0,0,1,6,,,,,0.0,0.0,0.0,0.0,0.0,0.0,0
34.182623,-118.129103,1.10,1.20,0.00,0.15,1.10,1.10,0.50,0.16,8605,2022-06-05 23:36:28.289,2022-06-05 16:36:28.289,15,0,0,16.394,34.182622,-118.129103,0.00,0.00,0.00,1.50,-1.20,-7.80,0,1,0,84,100,-7390,2852,16394,3131.50,10,Sport,1,0,0,0,0,0,0,1654472188289,4110,4107,4101,4090,0,0,27,,,,,,,0,0,0,-15.00,-12.00,-78.00,0.00,0.00,-69.00,31,11.00,0.00,1.49,0.00,0.00,0.00,0,,,100,100,0,1,0,0,0,1,6,,,,,0.0,0.0,0.0,0.0,0.0,0.0,0
34.182623,-118.129103,1.10,1.20,0.00,0.15,1.10,1.10,0.50,0.16,8706,2022-06-05 23:36:28.390,2022-06-05 16:36:28.390,15,0,0,16.394,34.182622,-118.129103,0.00,0.00,0.00,1.40,-1.00,-7.90,0,1,0,84,100,-7390,2852,16394,3131.50,10,Sport,1,0,0,0,0,0,0,1654472188390,4110,4107,4101,4090,0,0,27,,,,,,,0,0,0,-14.00,-10.00,-79.00,0.00,0.00,-69.00,31,11.00,0.00,1.49,0.00,0.00,0.00,0,,,100,100,0,1,0,0,0,1,6,,,,,0.0,0.0,0.0,0.0,0.0,0.0,0
34.182623,-118.129103,1.10,1.20,0.00,0.13,1.10,1.10,0.50,0.16,8805,2022-06-05 23:36:28.489,2022-06-05 16:36:28.489,15,0,0,16.394,34.182622,-118.129103,0.00,0.00,0.00,1.40,-1.00,-7.80,0,1,0,84,100,-7390,2852,16394,3131.50,10,Sport,1,0,0,0,0,0,0,1654472188489,4110,4107,4101,4090,0,0,27,,,,,,,0,0,0,-14.00,-10.00,-78.00,0.00,0.00,-69.00,31,11.00,0.00,1.35,0.00,0.00,0.00,0,,,100,100,0,1,0,0,0,1,6,,,,,0.0,0.0,0.0,0.0,0.0,0.0,0
34.182623,-118.129103,1.10,1.20,0.00,0.13,1.10,1.10,0.50,0.16,8906,2022-06-05 23:36:28.590,2022-06-05 16:36:28.590,15,0,0,16.394,34.182622,-118.129103,0.00,0.00,0.00,1.40,-0.80,-7.70,0,1,0,84,100,-7390,2852,16394,3131.50,10,Sport,1,0,0,0,0,0,0,1654472188590,4110,4107,4101,4090,0,0,27,,,,,,,0,0,0,-14.00,-8.00,-77.00,0.00,0.00,-69.00,31,11.00,0.00,1.34,0.00,0.00,0.00,0,,,100,100,0,1,0,0,0,1,6,,,,,0.0,0.0,0.0,0.0,0.0,0.0,0
34.182623,-118.129103,1.10,1.20,0.00,0.14,1.10,1.10,0.50,0.16,9006,2022-06-05 23:36:28.691,2022-06-05 16:36:28.691,15,0,0,16.394,34.182622,-118.129103,0.00,0.00,0.00,1.50,-0.70,-7.70,0,1,0,84,100,-7390,2852,16394,3131.50,10,Sport,1,0,0,0,0,0,0,1654472188690,4110,4107,4101,4090,0,0,27,,,,,,,0,0,0,-15.00,-7.00,-77.00,0.00,0.00,-69.00,31,11.00,0.00,1.37,0.00,0.00,0.00,0,,,100,100,0,1,0,0,0,1,6,,,,,0.0,0.0,0.0,0.0,0.0,0.0,0
34.182623,-118.129103,1.10,1.20,0.00,0.14,1.10,1.10,0.50,0.16,9106,2022-06-05 23:36:28.790,2022-06-05 16:36:28.791,15,0,0,16.394,34.182622,-118.129103,0.00,0.00,0.00,1.70,-0.90,-7.70,0,1,0,84,100,-7390,2852,16394,3131.50,10,Sport,1,0,0,0,0,0,0,1654472188790,4110,4107,4101,4090,0,0,27,,,,,,,0,0,0,-17.00,-9.00,-77.00,0.00,0.00,-69.00,31,11.00,0.00,1.38,0.00,0.00,0.00,0,,,100,100,0,1,0,0,0,1,6,,,,,0.0,0.0,0.0,0.0,0.0,0.0,0
34.182623,-118.129103,1.10,1.20,0.00,0.14,1.10,1.10,0.50,0.16,9205,2022-06-05 23:36:28.890,2022-06-05 16:36:28.890,15,0,0,16.394,34.182622,-118.129103,0.00,0.00,0.00,1.70,-1.10,-7.70,0,1,0,84,100,-7390,2852,16394,3131.50,10,Sport,1,0,0,0,0,0,0,1654472188889,4110,4107,4101,4090,0,0,27,,,,,,,0,0,0,-17.00,-11.00,-77.00,0.00,0.00,-69.00,31,11.00,0.00,1.41,0.00,0.00,0.00,0,,,100,100,0,1,0,0,0,1,6,,,,,0.0,0.0,0.0,0.0,0.0,0.0,0
34.182623,-118.129103,1.10,1.20,0.00,0.14,1.10,1.10,0.50,0.16,9305,2022-06-05 23:36:28.990,2022-06-05 16:36:28.990,15,0,0,16.394,34.182622,-118.129103,0.00,0.00,0.00,1.80,-0.90,-7.70,0,1,0,84,100,-7390,2852,16394,3131.50,10,Sport,1,0,0,0,0,0,0,1654472188989,4110,4107,4101,4090,0,0,27,,,,,,,0,0,0,-18.00,-9.00,-77.00,0.00,0.00,-69.00,31,11.00,0.00,1.43,0.00,0.00,0.00,0,,,100,100,0,1,0,0,0,1,6,,,,,0.0,0.0,0.0,0.0,0.0,0.0,0
34.182623,-118.129103,1.10,1.20,0.00,0.14,1.10,1.10,0.50,0.16,9406,2022-06-05 23:36:29.091,2022-06-05 16:36:29.091,15,0,0,16.394,34.182622,-118.129103,0.00,0.00,0.00,2.00,-0.60,-7.80,0,1,0,84,100,-7390,2852,16394,3131.50,10,Sport,1,0,0,0,0,0,0,1654472189090,4110,4107,4101,4090,0,0,27,,,,,,,0,0,0,-20.00,-6.00,-78.00,0.00,0.00,-69.00,31,11.00,0.00,1.44,0.00,0.00,0.00,0,,,100,100,0,1,0,0,0,1,6,,,,,0.0,0.0,0.0,0.0,0.0,0.0,0
34.182623,-118.129103,1.10,1.20,0.00,0.15,1.10,1.10,0.50,0.16,9506,2022-06-05 23:36:29.190,2022-06-05 16:36:29.190,15,0,0,16.394,34.182622,-118.129103,0.00,0.00,0.00,2.10,-0.40,-7.90,0,1,0,84,100,-7390,2852,16394,3131.50,10,Sport,1,0,0,0,0,0,0,1654472189190,4110,4107,4101,4090,0,0,27,,,,,,,0,0,0,-21.00,-4.00,-79.00,0.00,0.00,-69.00,31,11.00,0.00,1.46,0.00,0.00,0.00,0,,,100,100,0,1,0,0,0,1,6,,,,,0.0,0.0,0.0,0.0,0.0,0.0,0
34.182623,-118.129103,1.10,1.20,0.00,0.14,1.10,1.10,0.50,0.16,9606,2022-06-05 23:36:29.291,2022-06-05 16:36:29.291,15,0,0,16.394,34.182622,-118.129103,0.00,0.00,0.00,2.10,-0.40,-8.00,0,1,0,84,100,-7390,2852,16394,3131.50,10,Sport,1,0,0,0,0,0,0,1654472189290,4110,4107,4101,4090,0,0,27,,,,,,,0,0,0,-21.00,-4.00,-80.00,0.00,0.00,-69.00,31,11.00,0.00,1.43,0.00,0.00,0.00,0,,,100,100,0,1,0,0,0,1,6,,,,,0.0,0.0,0.0,0.0,0.0,0.0,0
34.182623,-118.129103,1.10,1.20,0.00,0.14,1.10,1.10,0.50,0.16,9706,2022-06-05 23:36:29.391,2022-06-05 16:36:29.391,15,0,0,16.394,34.182622,-118.129103,0.00,0.00,0.00,2.10,-0.60,-8.10,0,1,0,84,100,-7390,2852,16394,3131.50,10,Sport,1,0,0,0,0,0,0,1654472189390,4110,4107,4101,4090,0,0,27,,,,,,,0,0,0,-21.00,-6.00,-81.00,0.00,0.00,-69.00,31,11.00,0.00,1.45,0.00,0.00,0.00,0,,,100,100,0,1,0,0,0,1,6,,,,,0.0,0.0,0.0,0.0,0.0,0.0,0
34.182623,-118.129103,1.10,1.10,0.00,0.16,1.10,1.10,0.50,0.16,9806,2022-06-05 23:36:29.491,2022-06-05 16:36:29.491,15,0,0,16.394,34.182622,-118.129103,0.00,0.00,0.00,2.10,-0.70,-8.10,0,1,0,84,100,-7390,2852,16394,3131.50,10,Sport,1,0,0,0,0,0,0,1654472189490,4110,4107,4101,4090,0,0,27,,,,,,,0,0,0,-21.00,-7.00,-81.00,0.00,0.00,-69.00,31,11.00,0.00,1.58,0.00,0.00,0.00,0,,,100,100,0,1,0,0,0,1,6,,,,,0.0,0.0,0.0,0.0,0.0,0.0,0
34.182623,-118.129103,1.10,1.10,0.00,0.16,1.10,1.10,0.50,0.16,9905,2022-06-05 23:36:29.590,2022-06-05 16:36:29.590,15,0,0,16.394,34.182622,-118.129103,0.00,0.00,0.00,2.00,-0.80,-8.00,0,1,0,84,100,-7390,2852,16394,3131.50,10,Sport,1,0,0,0,0,0,0,1654472189589,4110,4107,4101,4090,0,0,27,,,,,,,0,0,0,-20.00,-8.00,-80.00,0.00,0.00,-69.00,31,11.00,0.00,1.60,0.00,0.00,0.00,0,,,100,100,0,1,0,0,0,1,6,,,,,0.0,0.0,0.0,0.0,0.0,0.0,0
34.182623,-118.129103,1.10,1.10,0.00,0.15,1.10,1.10,0.50,0.16,10006,2022-06-05 23:36:29.690,2022-06-05 16:36:29.690,15,0,0,16.394,34.182622,-118.129103,0.00,0.00,0.00,2.00,-1.00,-8.00,0,1,0,84,100,-7390,2852,16394,3131.50,10,Sport,1,0,0,0,0,0,0,1654472189690,4110,4107,4101,4090,0,0,27,,,,,,,0,0,0,-20.00,-10.00,-80.00,0.00,0.00,-69.00,31,11.00,0.00,1.52,0.00,0.00,0.00,0,,,100,100,0,1,0,0,0,1,6,,,,,0.0,0.0,0.0,0.0,0.0,0.0,0
34.182623,-118.129103,1.10,1.10,0.00,0.15,1.10,1.10,0.50,0.16,10107,2022-06-05 23:36:29.791,2022-06-05 16:36:29.791,15,0,0,16.394,34.182622,-118.129103,0.00,0.00,0.00,1.90,-1.00,-8.00,0,1,0,84,100,-7390,2852,16394,3131.50,10,Sport,1,0,0,0,0,0,0,1654472189791,4110,4107,4101,4090,0,0,27,,,,,,,0,0,0,-19.00,-10.00,-80.00,0.00,0.00,-69.00,31,11.00,0.00,1.52,0.00,0.00,0.00,0,,,100,100,0,1,0,0,0,1,6,,,,,0.0,0.0,0.0,0.0,0.0,0.0,0
34.182623,-118.129103,1.10,1.10,0.00,0.17,1.10,1.10,0.50,0.17,10205,2022-06-05 23:36:29.890,2022-06-05 16:36:29.890,15,0,0,16.394,34.182622,-118.129103,0.00,0.00,0.00,1.70,-0.90,-8.00,0,1,0,84,100,-7390,2852,16394,3131.50,10,Sport,1,0,0,0,0,0,0,1654472189889,4110,4107,4101,4090,0,0,27,,,,,,,0,0,0,-17.00,-9.00,-80.00,0.00,0.00,-69.00,31,11.00,0.00,1.65,0.00,0.00,0.00,0,,,100,100,0,1,0,0,0,1,6,,,,,0.0,0.0,0.0,0.0,0.0,0.0,0
34.182623,-118.129103,1.10,1.10,0.00,0.17,1.10,1.10,0.50,0.17,10306,2022-06-05 23:36:29.991,2022-06-05 16:36:29.991,15,0,0,16.394,34.182622,-118.129103,0.00,0.00,0.00,1.80,-1.00,-8.00,0,1,0,84,100,-7390,2852,16394,3131.50,10,Sport,1,0,0,0,0,0,0,1654472189990,4110,4107,4101,4090,0,0,27,,,,,,,0,0,0,-18.00,-10.00,-80.00,0.00,0.00,-69.00,31,11.00,0.00,1.67,0.00,0.00,0.00,0,,,100,100,0,1,0,0,0,1,6,,,,,0.0,0.0,0.0,0.0,0.0,0.0,0
34.182623,-118.129103,1.10,1.10,0.00,0.16,1.10,1.10,0.50,0.17,10407,2022-06-05 23:36:30.091,2022-06-05 16:36:30.091,15,0,0,16.394,34.182622,-118.129103,0.00,0.00,0.00,1.70,-1.30,-8.00,0,1,0,84,100,-7390,2852,16394,3131.50,10,Sport,1,0,0,0,0,0,0,1654472190091,4110,4107,4101,4090,0,0,27,,,,,,,0,0,0,-17.00,-13.00,-80.00,0.00,0.00,-69.00,31,11.00,0.00,1.62,0.00,0.00,0.00,0,,,100,100,0,1,0,0,0,1,6,,,,,0.0,0.0,0.0,0.0,0.0,0.0,0
34.182623,-118.129103,1.10,1.10,0.00,0.16,1.10,1.10,0.50,0.17,10507,2022-06-05 23:36:30.191,2022-06-05 16:36:30.191,15,0,0,16.382,34.182622,-118.129103,0.00,0.00,0.00,1.70,-1.40,-8.10,0,1,0,84,100,-7344,2848,16382,3131.50,10,Sport,1,0,0,0,0,0,0,1654472190191,4110,4107,4101,4090,0,0,27,,,,,,,0,0,0,-17.00,-14.00,-81.00,0.00,0.00,-69.00,31,11.00,0.00,1.63,0.00,0.00,0.00,0,,,100,100,0,1,0,0,0,1,6,,,,,0.0,0.0,0.0,0.0,0.0,0.0,0
34.182623,-118.129103,1.10,1.10,0.00,0.16,1.10,1.10,0.50,0.17,10606,2022-06-05 23:36:30.291,2022-06-05 16:36:30.291,15,0,0,16.382,34.182622,-118.129103,0.00,0.00,0.00,1.60,-1.20,-8.00,0,1,0,84,100,-7344,2848,16382,3131.50,10,Sport,1,0,0,0,0,0,0,1654472190290,4110,4107,4101,4090,0,0,27,,,,,,,0,0,0,-16.00,-12.00,-80.00,0.00,0.00,-69.00,31,11.00,0.00,1.64,0.00,0.00,0.00,0,,,100,100,0,1,0,0,0,1,6,,,,,0.0,0.0,0.0,0.0,0.0,0.0,0
34.182623,-118.129103,1.10,1.20,0.00,0.16,1.10,1.10,0.50,0.17,10706,2022-06-05 23:36:30.391,2022-06-05 16:36:30.391,15,0,0,16.382,34.182622,-118.129103,0.00,0.00,0.00,1.50,-1.30,-8.00,0,1,0,84,100,-7344,2848,16382,3131.50,10,Sport,1,0,0,0,0,0,0,1654472190390,4110,4107,4101,4090,0,0,27,,,,,,,0,0,0,-15.00,-13.00,-80.00,0.00,0.00,-69.00,31,11.00,0.00,1.64,0.00,0.00,0.00,0,,,100,100,0,1,0,0,0,1,6,,,,,0.0,0.0,0.0,0.0,0.0,0.0,0
34.182623,-118.129103,1.10,1.20,0.00,0.16,1.10,1.10,0.50,0.17,10807,2022-06-05 23:36:30.492,2022-06-05 16:36:30.492,15,0,0,16.382,34.182622,-118.129103,0.00,0.00,0.00,1.50,-1.30,-8.00,0,1,0,84,100,-7344,2848,16382,3131.50,10,Sport,1,0,0,0,0,0,0,1654472190491,4110,4107,4101,4090,0,0,27,,,,,,,0,0,0,-15.00,-13.00,-80.00,0.00,0.00,-69.00,31,11.00,0.00,1.61,0.00,0.00,0.00,0,,,100,100,0,1,0,0,0,1,6,,,,,0.0,0.0,0.0,0.0,0.0,0.0,0
34.182623,-118.129103,1.10,1.10,0.00,0.16,1.10,1.10,0.50,0.17,10907,2022-06-05 23:36:30.591,2022-06-05 16:36:30.591,15,0,0,16.382,34.182622,-118.129103,0.00,0.00,0.00,1.70,-1.30,-8.00,0,1,0,84,100,-7344,2848,16382,3131.50,10,Sport,1,0,0,0,0,0,0,1654472190591,4110,4107,4101,4090,0,0,27,,,,,,,0,0,0,-17.00,-13.00,-80.00,0.00,0.00,-69.00,31,11.00,0.00,1.62,0.00,0.00,0.00,0,,,100,100,0,1,0,0,0,1,6,,,,,0.0,0.0,0.0,0.0,0.0,0.0,0
34.182623,-118.129103,1.10,1.10,0.00,0.16,1.10,1.10,0.50,0.17,11006,2022-06-05 23:36:30.691,2022-06-05 16:36:30.691,15,0,0,16.382,34.182622,-118.129103,0.00,0.00,0.00,1.50,-1.60,-7.90,0,1,0,84,100,-7344,2848,16382,3131.50,10,Sport,1,0,0,0,0,0,0,1654472190690,4110,4107,4101,4090,0,0,27,,,,,,,0,0,0,-15.00,-16.00,-79.00,0.00,0.00,-69.00,31,11.00,0.00,1.61,0.00,0.00,0.00,0,,,100,100,0,1,0,0,0,1,6,,,,,0.0,0.0,0.0,0.0,0.0,0.0,0
34.182623,-118.129103,1.10,1.10,0.00,0.16,1.10,1.10,0.50,0.17,11108,2022-06-05 23:36:30.792,2022-06-05 16:36:30.792,15,0,0,16.382,34.182622,-118.129103,0.00,0.00,0.00,1.50,-1.80,-7.90,0,1,0,84,100,-7344,2848,16382,3131.50,10,Sport,1,0,0,0,0,0,0,1654472190792,4110,4107,4101,4090,0,0,27,,,,,,,0,0,0,-15.00,-18.00,-79.00,0.00,0.00,-69.00,31,11.00,0.00,1.62,0.00,0.00,0.00,0,,,100,100,0,1,0,0,0,1,6,,,,,0.0,0.0,0.0,0.0,0.0,0.0,0
34.182623,-118.129103,1.10,1.20,0.00,0.17,1.10,1.10,0.50,0.17,11206,2022-06-05 23:36:30.891,2022-06-05 16:36:30.891,15,0,0,16.382,34.182622,-118.129103,0.00,0.00,0.00,1.50,-1.60,-7.90,0,1,0,84,100,-7344,2848,16382,3131.50,10,Sport,1,0,0,0,0,0,0,1654472190890,4110,4107,4101,4090,0,0,27,,,,,,,0,0,0,-15.00,-16.00,-79.00,0.00,0.00,-69.00,31,11.00,0.00,1.66,0.00,0.00,0.00,0,,,100,100,0,1,0,0,0,1,6,,,,,0.0,0.0,0.0,0.0,0.0,0.0,0
34.182623,-118.129103,1.10,1.20,0.00,0.17,1.10,1.10,0.50,0.17,11307,2022-06-05 23:36:30.991,2022-06-05 16:36:30.991,15,0,0,16.382,34.182622,-118.129103,0.00,0.00,0.00,1.50,-1.40,-8.00,0,1,0,84,100,-7344,2848,16382,3131.50,10,Sport,1,0,0,0,0,0,0,1654472190991,4110,4107,4101,4090,0,0,27,,,,,,,0,0,0,-15.00,-14.00,-80.00,0.00,0.00,-69.00,31,11.00,0.00,1.67,0.00,0.00,0.00,0,,,100,100,0,1,0,0,0,1,6,,,,,0.0,0.0,0.0,0.0,0.0,0.0,0
34.182623,-118.129103,1.10,1.10,0.00,0.17,1.10,1.10,0.50,0.17,11407,2022-06-05 23:36:31.092,2022-06-05 16:36:31.092,15,0,0,16.382,34.182622,-118.129103,0.00,0.00,0.00,1.60,-1.60,-8.00,0,1,0,84,100,-7344,2848,16382,3131.50,10,Sport,1,0,0,0,0,0,0,1654472191091,4110,4107,4101,4090,0,0,27,,,,,,,0,0,0,-16.00,-16.00,-80.00,0.00,0.00,-69.00,31,11.00,0.00,1.66,0.00,0.00,0.00,0,,,100,100,0,1,0,0,0,1,6,,,,,0.0,0.0,0.0,0.0,0.0,0.0,0
34.182623,-118.129103,1.10,1.10,0.00,0.17,1.10,1.10,0.50,0.17,11507,2022-06-05 23:36:31.192,2022-06-05 16:36:31.192,15,0,0,16.382,34.182622,-118.129103,0.00,0.00,0.00,1.60,-1.70,-8.00,0,1,0,84,100,-7344,2848,16382,3131.50,10,Sport,1,0,0,0,0,0,0,1654472191191,4110,4107,4101,4090,0,0,27,,,,,,,0,0,0,-16.00,-17.00,-80.00,0.00,0.00,-69.00,31,11.00,0.00,1.67,0.00,0.00,0.00,0,,,100,100,0,1,0,0,0,1,6,,,,,0.0,0.0,0.0,0.0,0.0,0.0,0
34.182623,-118.129103,1.10,1.10,0.00,0.17,1.10,1.10,0.50,0.17,11607,2022-06-05 23:36:31.291,2022-06-05 16:36:31.291,15,0,0,16.382,34.182622,-118.129103,0.00,0.00,0.00,1.70,-1.50,-8.00,0,1,0,84,100,-7344,2848,16382,3131.50,10,Sport,1,0,0,0,0,0,0,1654472191291,4110,4107,4101,4090,0,0,27,,,,,,,0,0,0,-17.00,-15.00,-80.00,0.00,0.00,-69.00,31,11.00,0.00,1.67,0.00,0.00,0.00,0,,,100,100,0,1,0,0,0,1,6,,,,,0.0,0.0,0.0,0.0,0.0,0.0,0
34.182623,-118.129103,1.10,1.10,0.00,0.17,1.10,1.10,0.50,0.17,11707,2022-06-05 23:36:31.391,2022-06-05 16:36:31.391,15,0,0,16.382,34.182622,-118.129103,0.00,0.00,0.00,1.80,-1.60,-8.10,0,1,0,84,100,-7344,2848,16382,3131.50,10,Sport,1,0,0,0,0,0,0,1654472191391,4110,4107,4101,4090,0,0,27,,,,,,,0,0,0,-18.00,-16.00,-81.00,0.00,0.00,-69.00,31,11.00,0.00,1.67,0.00,0.00,0.00,0,,,100,100,0,1,0,0,0,1,6,,,,,0.0,0.0,0.0,0.0,0.0,0.0,0
34.182623,-118.129103,1.10,1.10,0.00,0.17,1.10,1.10,0.50,0.17,11807,2022-06-05 23:36:31.492,2022-06-05 16:36:31.492,15,0,0,16.382,34.182622,-118.129103,0.00,0.00,0.00,1.80,-1.70,-8.10,0,1,0,84,100,-7344,2848,16382,3131.50,10,Sport,1,0,0,0,0,0,0,1654472191491,4110,4107,4101,4090,0,0,27,,,,,,,0,0,0,-18.00,-17.00,-81.00,0.00,0.00,-69.00,31,11.00,0.00,1.65,0.00,0.00,0.00,0,,,100,100,0,1,0,0,0,1,6,,,,,0.0,0.0,0.0,0.0,0.0,0.0,0
34.182623,-118.129103,1.10,1.10,0.00,0.17,1.10,1.10,0.50,0.17,11907,2022-06-05 23:36:31.592,2022-06-05 16:36:31.592,15,0,0,16.382,34.182622,-118.129103,0.00,0.00,0.00,1.70,-1.40,-8.10,0,1,0,84,100,-7344,2848,16382,3131.50,10,Sport,1,0,0,0,0,0,0,1654472191591,4110,4107,4101,4090,0,0,27,,,,,,,0,0,0,-17.00,-14.00,-81.00,0.00,0.00,-69.00,31,11.00,0.00,1.66,0.00,0.00,0.00,0,,,100,100,0,1,0,0,0,1,6,,,,,0.0,0.0,0.0,0.0,0.0,0.0,0
34.182623,-118.129103,1.10,1.10,0.00,0.17,1.10,1.10,0.50,0.17,12007,2022-06-05 23:36:31.692,2022-06-05 16:36:31.692,15,0,0,16.382,34.182622,-118.129103,0.00,0.00,0.00,1.60,-1.30,-7.90,0,1,0,84,100,-7344,2848,16382,3131.50,10,Sport,1,0,0,0,0,0,0,1654472191691,4110,4107,4101,4090,0,0,27,,,,,,,0,0,0,-16.00,-13.00,-79.00,0.00,0.00,-69.00,31,11.00,0.00,1.68,0.00,0.00,0.00,0,,,100,100,0,1,0,0,0,1,6,,,,,0.0,0.0,0.0,0.0,0.0,0.0,0
34.182623,-118.129103,1.10,1.10,0.00,0.17,1.10,1.10,0.50,0.17,12159,2022-06-05 23:36:31.843,2022-06-05 16:36:31.843,15,0,0,16.382,34.182622,-118.129103,0.00,0.00,0.00,1.70,-1.60,-7.80,0,1,0,84,100,-7344,2848,16382,3131.50,10,Sport,1,0,0,0,0,0,0,1654472191843,4110,4107,4101,4090,0,0,27,,,,,,,0,0,0,-17.00,-16.00,-78.00,0.00,0.00,-69.00,31,11.00,0.00,1.68,0.00,0.00,0.00,0,,,100,100,0,1,0,0,0,1,6,,,,,0.0,0.0,0.0,0.0,0.0,0.0,0
34.182623,-118.129103,1.10,1.10,0.00,0.18,1.10,1.10,0.50,0.18,12207,2022-06-05 23:36:31.891,2022-06-05 16:36:31.891,15,0,0,16.382,34.182622,-118.129103,0.00,0.00,0.00,1.70,-1.70,-7.80,0,1,0,84,100,-7344,2848,16382,3131.50,10,Sport,1,0,0,0,0,0,0,1654472191891,4110,4107,4101,4090,0,0,27,,,,,,,0,0,0,-17.00,-17.00,-78.00,0.00,0.00,-69.00,31,11.00,0.00,1.82,0.00,0.00,0.00,0,,,100,100,0,1,0,0,0,1,6,,,,,0.0,0.0,0.0,0.0,0.0,0.0,0
34.182623,-118.129103,1.10,1.10,0.00,0.18,1.10,1.10,0.50,0.18,12308,2022-06-05 23:36:31.993,2022-06-05 16:36:31.993,15,0,0,16.382,34.182622,-118.129103,0.00,0.00,0.00,1.60,-1.70,-7.90,0,1,0,84,100,-7344,2848,16382,3131.50,10,Sport,1,0,0,0,0,0,0,1654472191992,4110,4107,4101,4090,0,0,27,,,,,,,0,0,0,-16.00,-17.00,-79.00,0.00,0.00,-69.00,31,11.00,0.00,1.82,0.00,0.00,0.00,0,,,100,100,0,1,0,0,0,1,6,,,,,0.0,0.0,0.0,0.0,0.0,0.0,0
34.182623,-118.129103,1.10,1.10,0.00,0.17,1.10,1.10,0.50,0.18,12408,2022-06-05 23:36:32.092,2022-06-05 16:36:32.092,15,0,0,16.382,34.182622,-118.129103,0.00,0.00,0.00,1.60,-1.50,-7.90,0,1,0,84,100,-7344,2848,16382,3131.50,10,Sport,1,0,0,0,0,0,0,1654472192092,4110,4107,4101,4090,0,0,27,,,,,,,0,0,0,-16.00,-15.00,-79.00,0.00,0.00,-69.00,31,11.00,0.00,1.74,0.00,0.00,0.00,0,,,100,100,0,1,0,0,0,1,6,,,,,0.0,0.0,0.0,0.0,0.0,0.0,0
34.182623,-118.129103,1.10,1.10,0.00,0.17,1.10,1.10,0.50,0.18,12508,2022-06-05 23:36:32.192,2022-06-05 16:36:32.192,15,0,0,16.363,34.182622,-118.129103,0.00,0.00,0.00,1.60,-1.30,-8.00,0,1,0,84,100,-7448,2844,16363,3131.50,10,Sport,1,0,0,0,0,0,0,1654472192192,4110,4107,4101,4090,0,0,27,,,,,,,0,0,0,-16.00,-13.00,-80.00,0.00,0.00,-69.00,31,11.00,0.00,1.74,0.00,0.00,0.00,0,,,100,100,0,1,0,0,0,1,6,,,,,0.0,0.0,0.0,0.0,0.0,0.0,0
34.182623,-118.129103,1.10,1.10,0.00,0.17,1.10,1.10,0.50,0.18,12608,2022-06-05 23:36:32.292,2022-06-05 16:36:32.292,15,0,0,16.363,34.182622,-118.129103,0.00,0.00,0.00,1.60,-1.00,-8.00,0,1,0,84,100,-7448,2844,16363,3131.50,10,Sport,1,0,0,0,0,0,0,1654472192292,4110,4107,4101,4090,0,0,27,,,,,,,0,0,0,-16.00,-10.00,-80.00,0.00,0.00,-69.00,31,11.00,0.00,1.72,0.00,0.00,0.00,0,,,100,100,0,1,0,0,0,1,6,,,,,0.0,0.0,0.0,0.0,0.0,0.0,0
34.182623,-118.129103,1.10,1.10,0.00,0.17,1.10,1.10,0.50,0.18,12708,2022-06-05 23:36:32.392,2022-06-05 16:36:32.392,15,0,0,16.363,34.182622,-118.129103,0.00,0.00,0.00,1.60,-0.90,-8.10,0,1,0,84,100,-7448,2844,16363,3131.50,10,Sport,1,0,0,0,0,0,0,1654472192392,4110,4107,4101,4090,0,0,27,,,,,,,0,0,0,-16.00,-9.00,-81.00,0.00,0.00,-69.00,31,11.00,0.00,1.72,0.00,0.00,0.00,0,,,100,100,0,1,0,0,0,1,6,,,,,0.0,0.0,0.0,0.0,0.0,0.0,0
34.182623,-118.129103,1.10,1.10,0.00,0.17,1.10,1.10,0.50,0.18,12807,2022-06-05 23:36:32.492,2022-06-05 16:36:32.492,15,0,0,16.363,34.182622,-118.129103,0.00,0.00,0.00,1.60,-0.90,-8.20,0,1,0,84,100,-7448,2844,16363,3131.50,10,Sport,1,0,0,0,0,0,0,1654472192491,4110,4107,4101,4090,0,0,27,,,,,,,0,0,0,-16.00,-9.00,-82.00,0.00,0.00,-69.00,31,11.00,0.00,1.73,0.00,0.00,0.00,0,,,100,100,0,1,0,0,0,1,6,,,,,0.0,0.0,0.0,0.0,0.0,0.0,0
34.182623,-118.129103,1.10,1.10,0.00,0.17,1.10,1.10,0.50,0.18,12908,2022-06-05 23:36:32.592,2022-06-05 16:36:32.592,15,0,0,16.363,34.182622,-118.129103,0.00,0.00,0.00,1.60,-1.20,-8.10,0,1,0,84,100,-7448,2844,16363,3131.50,10,Sport,1,0,0,0,0,0,0,1654472192592,4110,4107,4101,4090,0,0,27,,,,,,,0,0,0,-16.00,-12.00,-81.00,0.00,0.00,-69.00,31,11.00,0.00,1.74,0.00,0.00,0.00,0,,,100,100,0,1,0,0,0,1,6,,,,,0.0,0.0,0.0,0.0,0.0,0.0,0
34.182623,-118.129103,1.10,1.10,0.00,0.17,1.10,1.10,0.50,0.18,13007,2022-06-05 23:36:32.692,2022-06-05 16:36:32.692,15,0,0,16.363,34.182622,-118.129103,0.00,0.00,0.00,1.60,-1.30,-8.00,0,1,0,84,100,-7448,2844,16363,3131.50,10,Sport,1,0,0,0,0,0,0,1654472192691,4110,4107,4101,4090,0,0,27,,,,,,,0,0,0,-16.00,-13.00,-80.00,0.00,0.00,-69.00,31,11.00,0.00,1.71,0.00,0.00,0.00,0,,,100,100,0,1,0,0,0,1,6,,,,,0.0,0.0,0.0,0.0,0.0,0.0,0
34.182623,-118.129103,1.10,1.10,0.00,0.17,1.10,1.10,0.50,0.18,13108,2022-06-05 23:36:32.792,2022-06-05 16:36:32.792,15,0,0,16.363,34.182622,-118.129103,0.00,0.00,0.00,1.50,-1.20,-8.00,0,1,0,84,100,-7448,2844,16363,3131.50,10,Sport,1,0,0,0,0,0,0,1654472192792,4110,4107,4101,4090,0,0,27,,,,,,,0,0,0,-15.00,-12.00,-80.00,0.00,0.00,-69.00,31,11.00,0.00,1.72,0.00,0.00,0.00,0,,,100,100,0,1,0,0,0,1,6,,,,,0.0,0.0,0.0,0.0,0.0,0.0,0
34.182623,-118.129103,1.10,1.10,0.00,0.19,1.10,1.10,0.50,0.19,13208,2022-06-05 23:36:32.893,2022-06-05 16:36:32.893,15,0,0,16.363,34.182622,-118.129103,0.00,0.00,0.00,1.60,-1.00,-7.90,0,1,0,84,100,-7448,2844,16363,3131.50,10,Sport,1,0,0,0,0,0,0,1654472192892,4110,4107,4101,4090,0,0,27,,,,,,,0,0,0,-16.00,-10.00,-79.00,0.00,0.00,-69.00,31,11.00,0.00,1.86,0.00,0.00,0.00,0,,,100,100,0,1,0,0,0,1,6,,,,,0.0,0.0,0.0,0.0,0.0,0.0,0
34.182623,-118.129103,1.10,1.10,0.00,0.19,1.10,1.10,0.50,0.19,13308,2022-06-05 23:36:32.993,2022-06-05 16:36:32.993,15,0,0,16.363,34.182622,-118.129103,0.00,0.00,0.00,1.60,-0.90,-7.80,0,1,0,84,100,-7448,2844,16363,3131.50,10,Sport,1,0,0,0,0,0,0,1654472192992,4110,4107,4101,4090,0,0,27,,,,,,,0,0,0,-16.00,-9.00,-78.00,0.00,0.00,-69.00,31,11.00,0.00,1.88,0.00,0.00,0.00,0,,,100,100,0,1,0,0,0,1,6,,,,,0.0,0.0,0.0,0.0,0.0,0.0,0
34.182623,-118.129103,1.10,1.10,0.00,0.18,1.10,1.10,0.50,0.19,13408,2022-06-05 23:36:33.093,2022-06-05 16:36:33.093,15,0,0,16.363,34.182622,-118.129103,0.00,0.00,0.00,1.40,-1.40,-7.90,0,1,0,84,100,-7448,2844,16363,3131.50,10,Sport,1,0,0,0,0,0,0,1654472193092,4110,4107,4101,4090,0,0,27,,,,,,,0,0,0,-14.00,-14.00,-79.00,0.00,0.00,-69.00,31,11.00,0.00,1.85,0.00,0.00,0.00,0,,,100,100,0,1,0,0,0,1,6,,,,,0.0,0.0,0.0,0.0,0.0,0.0,0
34.182623,-118.129103,1.10,1.10,0.00,0.19,1.10,1.10,0.50,0.19,13511,2022-06-05 23:36:33.195,2022-06-05 16:36:33.195,15,0,0,16.363,34.182622,-118.129103,0.00,0.00,0.00,1.60,-1.40,-7.90,0,1,0,84,100,-7448,2844,16363,3131.50,10,Sport,1,0,0,0,12,0,0,1654472193195,4110,4107,4101,4090,0,0,27,,,,,,,0,0,0,-16.00,-14.00,-79.00,0.00,0.00,-69.00,31,11.00,0.00,1.86,0.00,0.00,0.00,0,,,100,100,0,1,0,0,0,1,6,,,,,0.0,0.0,0.0,0.0,0.0,0.0,0
34.182623,-118.129103,1.10,1.10,0.00,0.18,1.10,1.10,0.50,0.19,13608,2022-06-05 23:36:33.292,2022-06-05 16:36:33.292,15,0,0,16.363,34.182622,-118.129103,0.00,0.00,0.00,1.70,-1.30,-7.90,0,1,0,84,100,-7448,2844,16363,3131.50,10,Sport,1,0,0,0,22,0,0,1654472193292,4110,4107,4101,4090,0,0,27,,,,,,,0,0,0,-17.00,-13.00,-79.00,0.00,0.00,-69.00,31,11.00,0.00,1.84,0.00,0.00,0.00,0,,,100,100,0,1,0,0,0,1,6,,,,,0.0,0.0,0.0,0.0,0.0,0.0,0
