latitude,longitude,altitude(m),ultrasonicHeight(m),speed(mps),distance(m),max_altitude(m),max_ascent(m),max_speed(mps),max_distance(m),time(millisecond),datetime(utc),datetime(local),satellites,pressure(Pa),temperature(F),voltage(v),home_latitude,home_longitude,velocityX(mps),velocityY(mps),velocityZ(mps),pitch(deg),roll(deg),yaw(deg),powerlevel,isflying,istakingphoto,remainPowerPercent,remainLifePercent,currentCurrent,currentElectricity,currentVoltage,batteryTemperature,dischargeCount,flightmode,isMotorsOn,isTakingVideo,Rc_elevator,Rc_aileron,Rc_throttle,Rc_rudder,Rc_gyro,timestamp,Battery_Cell1,Battery_Cell2,Battery_Cell3,Battery_Cell4,Battery_Cell5,Battery_Cell6,Dronetype,AppVersion,Planename,FlyControllerSerialNumber,RemoteSerialNumber,BatterySerialNumber,CENTER_BATTERY.productDate,CENTER_BATTERY.serialNo,CENTER_BATTERY.fullCapacity,CENTER_BATTERY.productDateRaw,pitchRaw,rollRaw,yawRaw,gimbalPitchRaw,gimbalRollRaw,gimbalYawRaw,flyState,altitudeRaw,speedRaw,distanceRaw,velocityXRaw,velocityYRaw,velocityZRaw,data_reuse,App_Tip,App_Warning,downlinkSignalQuality,uplinkSignalQuality,transmissionChannel,rcModeSwitch,rcHome,rcPause,rcTransform,rcJoystickMode,appMode,FlyControllerSerialNumber_legacy,RemoteSerialNumber_legacy,BatterySerialNumber_legacy,Battery2SerialNumber,frontAvoidDist,backAvoidDist,rightAvoidDist,leftAvoidDist,upAvoidDist,downAvoidDist,isBrakingToAvoid
34.182599,-118.129087,0.40,0.40,0.41,0.16,0.40,0.40,0.41,0.16,1,2022-06-07 23:53:23.422,2022-06-07 16:53:23.422,15,0,0,16.013,34.182598,-118.129086,0.10,0.00,-0.40,1.70,1.20,-8.70,0,1,0,68,100,-4283,2369,16013,3161.50,10,TakeOff,1,0,0,0,0,0,0,1654646003422,4008,4009,4005,3992,0,0,27,Litchi_iOS_2.14.0,Brian-MAVIC 2,163DFCK001S13F,1DUCFB800104PR,0P2AFBV5340045,,0,3507,0,-17.00,12.00,-87.00,0.00,0.00,-140.00,11,4.00,4.12,1.61,1.00,0.00,-4.00,0,,,100,100,0,2,0,0,0,1,0,(null),(null),(null),(null),0.0,0.0,0.0,0.0,0.0,0.0,0
34.182600,-118.129087,0.40,0.40,0.40,0.17,0.40,0.40,0.41,0.17,101,2022-06-07 23:53:23.522,2022-06-07 16:53:23.522,15,0,0,16.013,34.182598,-118.129086,0.00,0.00,-0.40,1.90,1.00,-8.70,0,1,0,68,100,-4283,2369,16013,3161.50,10,TakeOff,1,0,0,0,0,0,0,1654646003522,4008,4009,4005,3992,0,0,27,,,,,,,0,0,0,-19.00,10.00,-87.00,0.00,0.00,-140.00,11,4.00,4.00,1.70,0.00,0.00,-4.00,0,,,100,100,0,2,0,0,0,1,0,,,,,0.0,0.0,0.0,0.0,0.0,0.0,0
34.182600,-118.129087,0.50,0.50,0.50,0.19,0.50,0.50,0.50,0.19,251,2022-06-07 23:53:23.672,2022-06-07 16:53:23.672,15,0,0,16.013,34.182598,-118.129086,0.00,0.00,-0.50,2.00,0.50,-8.70,0,1,0,68,100,-4283,2369,16013,3161.50,10,TakeOff,1,0,0,0,0,0,0,1654646003672,4008,4009,4005,3992,0,0,27,,,,,,,0,0,0,-20.00,5.00,-87.00,0.00,0.00,-140.00,11,5.00,5.00,1.88,0.00,0.00,-5.00,0,,,100,100,0,2,0,0,0,1,0,,,,,0.0,0.0,0.0,0.0,0.0,0.0,0
34.182600,-118.129087,0.50,0.60,0.50,0.20,0.50,0.50,0.50,0.20,351,2022-06-07 23:53:23.773,2022-06-07 16:53:23.773,15,0,0,16.013,34.182598,-118.129086,0.00,0.00,-0.50,2.10,0.30,-8.80,0,1,0,68,100,-4283,2369,16013,3161.50,10,TakeOff,1,0,0,0,0,0,0,1654646003772,4008,4009,4005,3992,0,0,27,,,,,,,0,0,0,-21.00,3.00,-88.00,0.00,0.00,-140.00,11,5.00,5.00,1.96,0.00,0.00,-5.00,0,,,100,100,0,2,0,0,0,1,0,,,,,0.0,0.0,0.0,0.0,0.0,0.0,0
34.182600,-118.129086,0.60,0.60,0.50,0.18,0.60,0.60,0.50,0.20,451,2022-06-07 23:53:23.872,2022-06-07 16:53:23.872,15,0,0,16.013,34.182598,-118.129086,0.00,0.00,-0.50,2.00,0.20,-8.70,0,1,0,68,100,-4283,2369,16013,3161.50,10,TakeOff,1,0,0,0,0,0,0,1654646003872,4008,4009,4005,3992,0,0,27,,,,,,,0,0,0,-20.00,2.00,-87.00,0.00,0.00,-140.00,11,6.00,5.00,1.75,0.00,0.00,-5.00,0,,,100,100,0,2,0,0,0,1,0,,,,,0.0,0.0,0.0,0.0,0.0,0.0,0
34.182600,-118.129086,0.60,0.70,0.50,0.18,0.60,0.60,0.50,0.20,500,2022-06-07 23:53:23.922,2022-06-07 16:53:23.922,15,0,0,16.013,34.182598,-118.129086,0.00,0.00,-0.50,1.80,0.00,-8.60,0,1,0,68,100,-4283,2369,16013,3161.50,10,TakeOff,1,0,0,0,0,0,0,1654646003921,4008,4009,4005,3992,0,0,27,,,,,,,0,0,0,-18.00,0.00,-86.00,0.00,0.00,-140.00,11,6.00,5.00,1.79,0.00,0.00,-5.00,0,,,100,100,0,2,0,0,0,1,0,,,,,0.0,0.0,0.0,0.0,0.0,0.0,0
34.182600,-118.129087,0.70,0.70,0.50,0.22,0.70,0.70,0.50,0.22,652,2022-06-07 23:53:24.074,2022-06-07 16:53:24.074,15,0,0,16.013,34.182598,-118.129086,0.00,0.00,-0.50,1.80,0.30,-8.50,0,1,0,68,100,-4283,2369,16013,3161.50,10,TakeOff,1,0,0,0,0,0,0,1654646004073,4008,4009,4005,3992,0,0,27,,,,,,,0,0,0,-18.00,3.00,-85.00,0.00,0.00,-140.00,11,7.00,5.00,2.20,0.00,0.00,-5.00,0,,,100,100,0,2,0,0,0,1,0,,,,,0.0,0.0,0.0,0.0,0.0,0.0,0
34.182600,-118.129087,0.70,0.80,0.50,0.23,0.70,0.70,0.50,0.23,754,2022-06-07 23:53:24.176,2022-06-07 16:53:24.176,15,0,0,16.013,34.182598,-118.129086,0.00,0.00,-0.50,2.00,0.40,-8.60,0,1,0,68,100,-4283,2369,16013,3161.50,10,TakeOff,1,0,0,0,0,0,0,1654646004175,4008,4009,4005,3992,0,0,27,,,,,,,0,0,0,-20.00,4.00,-86.00,0.00,0.00,-140.00,11,7.00,5.00,2.25,0.00,0.00,-5.00,0,,,100,100,0,2,0,0,0,1,0,,,,,0.0,0.0,0.0,0.0,0.0,0.0,0
34.182600,-118.129087,0.80,0.80,0.50,0.21,0.80,0.80,0.50,0.23,854,2022-06-07 23:53:24.276,2022-06-07 16:53:24.276,15,0,0,16.013,34.182598,-118.129086,0.00,0.00,-0.50,1.90,0.20,-8.70,0,1,0,68,100,-4283,2369,16013,3161.50,10,TakeOff,1,0,0,0,0,0,0,1654646004275,4008,4009,4005,3992,0,0,27,,,,,,,0,0,0,-19.00,2.00,-87.00,0.00,0.00,-140.00,11,8.00,5.00,2.14,0.00,0.00,-5.00,0,,,100,100,0,2,0,0,0,1,0,,,,,0.0,0.0,0.0,0.0,0.0,0.0,0
34.182600,-118.129087,0.80,0.90,0.50,0.22,0.80,0.80,0.50,0.23,954,2022-06-07 23:53:24.375,2022-06-07 16:53:24.375,15,0,0,16.013,34.182598,-118.129086,0.00,0.00,-0.50,1.80,0.40,-8.80,0,1,0,68,100,-4283,2369,16013,3161.50,10,TakeOff,1,0,0,0,0,0,0,1654646004375,4008,4009,4005,3992,0,0,27,,,,,,,0,0,0,-18.00,4.00,-88.00,0.00,0.00,-140.00,11,8.00,5.00,2.17,0.00,0.00,-5.00,0,,,100,100,0,2,0,0,0,1,0,,,,,0.0,0.0,0.0,0.0,0.0,0.0,0
34.182600,-118.129087,0.90,0.90,0.50,0.22,0.90,0.90,0.50,0.23,1053,2022-06-07 23:53:24.475,2022-06-07 16:53:24.475,15,0,0,16.013,34.182598,-118.129086,0.00,0.00,-0.50,1.80,0.40,-8.70,0,1,0,68,100,-4283,2369,16013,3161.50,10,TakeOff,1,0,0,0,0,0,0,1654646004474,4008,4009,4005,3992,0,0,27,,,,,,,0,0,0,-18.00,4.00,-87.00,0.00,0.00,-140.00,11,9.00,5.00,2.25,0.00,0.00,-5.00,0,,,100,100,0,2,0,0,0,1,0,,,,,0.0,0.0,0.0,0.0,0.0,0.0,0
34.182600,-118.129087,0.90,1.00,0.50,0.23,0.90,0.90,0.50,0.23,1154,2022-06-07 23:53:24.575,2022-06-07 16:53:24.575,15,0,0,16.013,34.182598,-118.129086,0.00,0.00,-0.50,1.80,0.30,-8.60,0,1,0,68,100,-4283,2369,16013,3161.50,10,TakeOff,1,0,0,0,0,0,0,1654646004575,4008,4009,4005,3992,0,0,27,,,,,,,0,0,0,-18.00,3.00,-86.00,0.00,0.00,-140.00,11,9.00,5.00,2.27,0.00,0.00,-5.00,0,,,100,100,0,2,0,0,0,1,0,,,,,0.0,0.0,0.0,0.0,0.0,0.0,0
34.182600,-118.129087,1.00,1.00,0.50,0.22,1.00,1.00,0.50,0.23,1253,2022-06-07 23:53:24.675,2022-06-07 16:53:24.675,15,0,0,15.893,34.182598,-118.129086,0.00,0.00,-0.50,1.70,0.00,-8.60,0,1,0,68,100,-7721,2366,15893,3161.50,10,TakeOff,1,0,0,0,0,0,0,1654646004674,4008,4009,4005,3992,0,0,27,,,,,,,0,0,0,-17.00,0.00,-86.00,0.00,0.00,-140.00,11,10.00,5.00,2.16,0.00,0.00,-5.00,0,,,100,100,0,2,0,0,0,1,0,,,,,0.0,0.0,0.0,0.0,0.0,0.0,0
34.182600,-118.129087,1.00,1.10,0.40,0.22,1.00,1.00,0.50,0.23,1353,2022-06-07 23:53:24.775,2022-06-07 16:53:24.775,15,0,0,15.893,34.182598,-118.129086,0.00,0.00,-0.40,1.60,0.00,-8.70,0,1,0,68,100,-7721,2366,15893,3161.50,10,GPS,1,0,0,0,0,0,0,1654646004774,4008,4009,4005,3992,0,0,27,,,,,,,0,0,0,-16.00,0.00,-87.00,0.00,0.00,-140.00,6,10.00,4.00,2.17,0.00,0.00,-4.00,0,,,100,100,0,2,0,0,0,1,0,,,,,0.0,0.0,0.0,0.0,0.0,0.0,0
34.182600,-118.129087,1.10,1.10,0.40,0.23,1.10,1.10,0.50,0.23,1451,2022-06-07 23:53:24.873,2022-06-07 16:53:24.873,15,0,0,15.893,34.182598,-118.129086,0.00,0.00,-0.40,0.70,0.10,-8.70,0,1,0,68,100,-7721,2366,15893,3161.50,10,WP,1,0,0,0,0,0,0,1654646004872,4008,4009,4005,3992,0,0,27,,,,,,,0,0,0,-7.00,1.00,-87.00,0.00,0.00,-140.00,14,11.00,4.00,2.26,0.00,0.00,-4.00,0,,,100,100,0,2,0,0,0,1,0,,,,,0.0,0.0,0.0,0.0,0.0,0.0,0
34.182600,-118.129087,1.10,1.20,0.40,0.23,1.10,1.10,0.50,0.23,1554,2022-06-07 23:53:24.975,2022-06-07 16:53:24.975,15,0,0,15.893,34.182598,-118.129086,0.00,0.00,-0.40,1.10,0.50,-8.90,0,1,0,68,100,-7721,2366,15893,3161.50,10,WP,1,0,0,0,0,0,0,1654646004975,4008,4009,4005,3992,0,0,27,,,,,,,0,0,0,-11.00,5.00,-89.00,0.00,0.00,-140.00,14,11.00,4.00,2.29,0.00,0.00,-4.00,0,,,100,100,0,2,0,0,0,1,0,,,,,0.0,0.0,0.0,0.0,0.0,0.0,0
34.182600,-118.129087,1.20,1.20,0.40,0.24,1.20,1.20,0.50,0.24,1653,2022-06-07 23:53:25.075,2022-06-07 16:53:25.075,15,0,0,15.893,34.182598,-118.129086,0.00,0.00,-0.40,1.20,0.60,-8.90,0,1,0,68,100,-7721,2366,15893,3161.50,10,WP,1,0,0,0,0,0,0,1654646005074,4008,4009,4005,3992,0,0,27,,,,,,,0,0,0,-12.00,6.00,-89.00,0.00,0.00,-140.00,14,12.00,4.00,2.35,0.00,0.00,-4.00,0,,,100,100,0,2,0,0,0,1,0,,,,,0.0,0.0,0.0,0.0,0.0,0.0,0
34.182600,-118.129087,1.20,1.30,0.50,0.24,1.20,1.20,0.50,0.24,1754,2022-06-07 23:53:25.176,2022-06-07 16:53:25.176,15,0,0,15.893,34.182598,-118.129086,0.00,0.00,-0.50,1.10,1.20,-8.90,0,1,0,68,100,-7721,2366,15893,3161.50,10,WP,1,0,0,0,0,0,0,1654646005175,4008,4009,4005,3992,0,0,27,,,,,,,0,0,0,-11.00,12.00,-89.00,0.00,0.00,-140.00,14,12.00,5.00,2.38,0.00,0.00,-5.00,0,,,100,100,0,2,0,0,0,1,0,,,,,0.0,0.0,0.0,0.0,0.0,0.0,0
34.182600,-118.129087,1.30,1.30,0.40,0.23,1.30,1.30,0.50,0.24,1854,2022-06-07 23:53:25.275,2022-06-07 16:53:25.275,15,0,0,15.893,34.182598,-118.129086,0.00,0.00,-0.40,1.20,0.70,-8.90,0,1,0,68,100,-7721,2366,15893,3161.50,10,WP,1,0,0,0,0,0,0,1654646005275,4008,4009,4005,3992,0,0,27,,,,,,,0,0,0,-12.00,7.00,-89.00,0.00,0.00,-140.00,14,13.00,4.00,2.27,0.00,0.00,-4.00,0,,,100,100,0,2,0,0,0,1,0,,,,,0.0,0.0,0.0,0.0,0.0,0.0,0
34.182600,-118.129087,1.30,1.40,0.40,0.23,1.30,1.30,0.50,0.24,1954,2022-06-07 23:53:25.375,2022-06-07 16:53:25.375,15,0,0,15.893,34.182598,-118.129086,0.00,0.00,-0.40,1.10,0.60,-8.90,0,1,0,68,100,-7721,2366,15893,3161.50,10,WP,1,0,0,0,0,0,0,1654646005375,4008,4009,4005,3992,0,0,27,,,,,,,0,0,0,-11.00,6.00,-89.00,0.00,0.00,-140.00,14,13.00,4.00,2.28,0.00,0.00,-4.00,0,,,100,100,0,2,0,0,0,1,0,,,,,0.0,0.0,0.0,0.0,0.0,0.0,0
34.182600,-118.129087,1.30,1.40,0.40,0.25,1.30,1.30,0.50,0.25,2052,2022-06-07 23:53:25.474,2022-06-07 16:53:25.474,15,0,0,15.893,34.182598,-118.129086,0.00,0.00,-0.40,1.40,0.70,-8.80,0,1,0,68,100,-7721,2366,15893,3161.50,10,WP,1,0,0,0,0,0,0,1654646005473,4008,4009,4005,3992,0,0,27,,,,,,,0,0,0,-14.00,7.00,-88.00,0.00,0.00,-140.00,14,13.00,4.00,2.45,0.00,0.00,-4.00,0,,,100,100,0,2,0,0,0,1,0,,,,,0.0,0.0,0.0,0.0,0.0,0.0,0
34.182600,-118.129087,1.40,1.50,0.40,0.25,1.40,1.40,0.50,0.25,2153,2022-06-07 23:53:25.575,2022-06-07 16:53:25.575,15,0,0,15.893,34.182598,-118.129086,0.00,0.00,-0.40,1.40,0.60,-8.80,0,1,0,68,100,-7721,2366,15893,3161.50,10,WP,1,0,0,0,0,0,0,1654646005574,4008,4009,4005,3992,0,0,27,,,,,,,0,0,0,-14.00,6.00,-88.00,0.00,0.00,-140.00,14,14.00,4.00,2.47,0.00,0.00,-4.00,0,,,100,100,0,2,0,0,0,1,0,,,,,0.0,0.0,0.0,0.0,0.0,0.0,0
34.182600,-118.129087,1.40,1.50,0.40,0.23,1.40,1.40,0.50,0.25,2254,2022-06-07 23:53:25.676,2022-06-07 16:53:25.676,15,0,0,15.893,34.182598,-118.129086,0.00,0.00,-0.40,1.20,0.30,-8.80,0,1,0,68,100,-7721,2366,15893,3161.50,10,WP,1,0,0,0,0,0,0,1654646005675,4008,4009,4005,3992,0,0,27,,,,,,,0,0,0,-12.00,3.00,-88.00,0.00,0.00,-140.00,14,14.00,4.00,2.34,0.00,0.00,-4.00,0,,,100,100,0,2,0,0,0,1,0,,,,,0.0,0.0,0.0,0.0,0.0,0.0,0
34.182600,-118.129087,1.50,1.60,0.40,0.23,1.50,1.50,0.50,0.25,2354,2022-06-07 23:53:25.775,2022-06-07 16:53:25.775,15,0,0,15.893,34.182598,-118.129086,0.00,0.00,-0.40,1.20,0.30,-8.90,0,1,0,68,100,-7721,2366,15893,3161.50,10,WP,1,0,0,0,0,0,0,1654646005775,4008,4009,4005,3992,0,0,27,,,,,,,0,0,0,-12.00,3.00,-89.00,0.00,0.00,-140.00,14,15.00,4.00,2.34,0.00,0.00,-4.00,0,,,100,100,0,2,0,0,0,1,0,,,,,0.0,0.0,0.0,0.0,0.0,0.0,0
34.182600,-118.129087,1.50,1.60,0.40,0.24,1.50,1.50,0.50,0.25,2404,2022-06-07 23:53:25.825,2022-06-07 16:53:25.825,15,0,0,15.893,34.182598,-118.129086,0.00,0.00,-0.40,1.20,0.60,-8.90,0,1,0,68,100,-7721,2366,15893,3161.50,10,WP,1,0,0,0,0,0,0,1654646005825,4008,4009,4005,3992,0,0,27,,,,,,,0,0,0,-12.00,6.00,-89.00,0.00,0.00,-140.00,14,15.00,4.00,2.36,0.00,0.00,-4.00,0,,,100,100,0,2,0,0,0,1,0,,,,,0.0,0.0,0.0,0.0,0.0,0.0,0
34.182600,-118.129087,1.60,1.70,0.40,0.24,1.60,1.60,0.50,0.25,2503,2022-06-07 23:53:25.925,2022-06-07 16:53:25.925,15,0,0,15.893,34.182598,-118.129086,0.00,0.00,-0.40,1.20,0.40,-8.90,0,1,0,68,100,-7721,2366,15893,3161.50,10,WP,1,0,0,0,0,0,0,1654646005924,4008,4009,4005,3992,0,0,27,,,,,,,0,0,0,-12.00,4.00,-89.00,0.00,0.00,-140.00,14,16.00,4.00,2.36,0.00,0.00,-4.00,0,,,100,100,0,2,0,0,0,1,0,,,,,0.0,0.0,0.0,0.0,0.0,0.0,0
34.182600,-118.129087,1.60,1.70,0.30,0.23,1.60,1.60,0.50,0.25,2654,2022-06-07 23:53:26.076,2022-06-07 16:53:26.076,15,0,0,15.893,34.182598,-118.129086,0.00,0.00,-0.30,1.10,0.00,-8.90,0,1,0,68,100,-7721,2366,15893,3161.50,10,WP,1,0,0,0,0,0,0,1654646006075,4008,4009,4005,3992,0,0,27,,,,,,,0,0,0,-11.00,0.00,-89.00,0.00,0.00,-140.00,14,16.00,3.00,2.27,0.00,0.00,-3.00,0,,,100,100,0,2,0,0,0,1,0,,,,,0.0,0.0,0.0,0.0,0.0,0.0,0
34.182600,-118.129087,1.70,1.70,0.40,0.23,1.70,1.70,0.50,0.25,2753,2022-06-07 23:53:26.175,2022-06-07 16:53:26.175,15,0,0,15.893,34.182598,-118.129086,0.00,0.00,-0.40,1.10,-0.10,-8.80,0,1,0,68,100,-7721,2366,15893,3161.50,10,WP,1,0,0,0,0,0,0,1654646006174,4008,4009,4005,3992,0,0,27,,,,,,,0,0,0,-11.00,-1.00,-88.00,0.00,0.00,-140.00,14,17.00,4.00,2.26,0.00,0.00,-4.00,0,,,100,100,0,2,0,0,0,1,0,,,,,0.0,0.0,0.0,0.0,0.0,0.0,0
34.182600,-118.129087,1.70,1.80,0.40,0.26,1.70,1.70,0.50,0.26,2854,2022-06-07 23:53:26.276,2022-06-07 16:53:26.276,15,0,0,15.893,34.182598,-118.129086,0.00,0.00,-0.40,1.40,-0.10,-8.80,0,1,0,68,100,-7721,2366,15893,3161.50,10,WP,1,0,0,0,0,0,0,1654646006275,4008,4009,4005,3992,0,0,27,,,,,,,0,0,0,-14.00,-1.00,-88.00,0.00,0.00,-140.00,14,17.00,4.00,2.56,0.00,0.00,-4.00,0,,,100,100,0,2,0,0,0,1,0,,,,,0.0,0.0,0.0,0.0,0.0,0.0,0
34.182600,-118.129087,1.70,1.80,0.30,0.26,1.70,1.70,0.50,0.26,2904,2022-06-07 23:53:26.325,2022-06-07 16:53:26.325,15,0,0,15.893,34.182598,-118.129086,0.00,0.00,-0.30,1.00,0.00,-9.30,0,1,0,68,100,-7721,2366,15893,3161.50,10,WP,1,0,0,0,0,0,0,1654646006325,4008,4009,4005,3992,0,0,27,,,,,,,0,0,0,-10.00,0.00,-93.00,0.00,0.00,-140.00,14,17.00,3.00,2.58,0.00,0.00,-3.00,0,,,100,100,0,2,0,0,0,1,0,,,,,0.0,0.0,0.0,0.0,0.0,0.0,0
34.182600,-118.129087,1.80,1.80,0.20,0.25,1.80,1.80,0.50,0.26,3056,2022-06-07 23:53:26.477,2022-06-07 16:53:26.477,15,0,0,15.893,34.182598,-118.129086,0.00,0.00,-0.20,0.90,0.20,-10.30,0,1,0,68,100,-7721,2366,15893,3161.50,10,WP,1,0,0,0,0,0,0,1654646006477,4008,4009,4005,3992,0,0,27,,,,,,,0,0,0,-9.00,2.00,-103.00,0.00,0.00,-140.00,14,18.00,2.00,2.53,0.00,0.00,-2.00,0,,,100,100,0,2,0,0,0,1,0,,,,,0.0,0.0,0.0,0.0,0.0,0.0,0
34.182600,-118.129087,1.80,1.90,0.10,0.25,1.80,1.80,0.50,0.26,3155,2022-06-07 23:53:26.576,2022-06-07 16:53:26.576,15,0,0,15.893,34.182598,-118.129086,0.00,0.00,-0.10,0.80,0.10,-12.00,0,1,0,68,100,-7721,2366,15893,3161.50,10,WP,1,0,0,0,0,0,0,1654646006576,4008,4009,4005,3992,0,0,27,,,,,,,0,0,0,-8.00,1.00,-120.00,0.00,0.00,-140.00,14,18.00,1.00,2.53,0.00,0.00,-1.00,0,,,100,100,0,2,0,0,0,1,0,,,,,0.0,0.0,0.0,0.0,0.0,0.0,0
34.182600,-118.129087,1.80,1.90,0.10,0.24,1.80,1.80,0.50,0.26,3255,2022-06-07 23:53:26.676,2022-06-07 16:53:26.676,15,0,0,15.867,34.182598,-118.129086,0.00,0.00,-0.10,0.60,0.20,-14.30,0,1,0,68,100,-7590,2362,15867,3171.50,10,WP,1,0,0,0,0,0,0,1654646006676,4008,4009,4005,3992,0,0,27,,,,,,,0,0,0,-6.00,2.00,-143.00,0.00,0.00,-143.00,14,18.00,1.00,2.44,0.00,0.00,-1.00,0,,,100,100,0,2,0,0,0,1,0,,,,,0.0,0.0,0.0,0.0,0.0,0.0,0
34.182600,-118.129087,1.80,1.90,0.10,0.24,1.80,1.80,0.50,0.26,3355,2022-06-07 23:53:26.777,2022-06-07 16:53:26.777,15,0,0,15.867,34.182598,-118.129086,0.00,0.00,-0.10,0.50,0.40,-17.10,0,1,0,68,100,-7590,2362,15867,3171.50,10,WP,1,0,0,0,0,0,0,1654646006776,4008,4009,4005,3992,0,0,27,,,,,,,0,0,0,-5.00,4.00,-171.00,0.00,0.00,-151.00,14,18.00,1.00,2.42,0.00,0.00,-1.00,0,,,100,100,0,2,0,0,0,1,0,,,,,0.0,0.0,0.0,0.0,0.0,0.0,0
34.182600,-118.129086,1.80,1.90,0.00,0.24,1.80,1.80,0.50,0.26,3454,2022-06-07 23:53:26.876,2022-06-07 16:53:26.876,15,0,0,15.867,34.182598,-118.129086,0.00,0.00,0.00,0.60,0.50,-20.50,0,1,0,68,100,-7590,2362,15867,3171.50,10,WP,1,0,0,0,0,0,0,1654646006875,4008,4009,4005,3992,0,0,27,,,,,,,0,0,0,-6.00,5.00,-205.00,0.00,0.00,-170.00,14,18.00,0.00,2.36,0.00,0.00,0.00,0,,,100,100,0,2,0,0,0,1,0,,,,,0.0,0.0,0.0,0.0,0.0,0.0,0
34.182600,-118.129086,1.80,1.90,0.00,0.23,1.80,1.80,0.50,0.26,3554,2022-06-07 23:53:26.976,2022-06-07 16:53:26.976,15,0,0,15.867,34.182598,-118.129086,0.00,0.00,0.00,0.60,0.40,-24.30,0,1,0,68,100,-7590,2362,15867,3171.50,10,WP,1,0,0,0,0,0,0,1654646006975,4008,4009,4005,3992,0,0,27,,,,,,,0,0,0,-6.00,4.00,-243.00,0.00,0.00,-199.00,14,18.00,0.00,2.34,0.00,0.00,0.00,0,,,100,100,0,2,0,0,0,1,0,,,,,0.0,0.0,0.0,0.0,0.0,0.0,0
34.182600,-118.129086,1.80,1.90,0.00,0.24,1.80,1.80,0.50,0.26,3656,2022-06-07 23:53:27.078,2022-06-07 16:53:27.078,15,0,0,15.867,34.182598,-118.129086,0.00,0.00,0.00,0.30,0.20,-28.70,0,1,0,68,100,-7590,2362,15867,3171.50,10,WP,1,0,0,0,0,0,0,1654646007077,4008,4009,4005,3992,0,0,27,,,,,,,0,0,0,-3.00,2.00,-287.00,0.00,0.00,-235.00,14,18.00,0.00,2.37,0.00,0.00,0.00,0,,,100,100,0,2,0,0,0,1,0,,,,,0.0,0.0,0.0,0.0,0.0,0.0,0
34.182600,-118.129086,1.90,1.90,0.00,0.24,1.90,1.90,0.50,0.26,3754,2022-06-07 23:53:27.176,2022-06-07 16:53:27.176,15,0,0,15.867,34.182598,-118.129086,0.00,0.00,0.00,0.30,-0.10,-33.60,0,1,0,68,100,-7590,2362,15867,3171.50,10,WP,1,0,0,0,0,0,0,1654646007175,4008,4009,4005,3992,0,0,27,,,,,,,0,0,0,-3.00,-1.00,-336.00,0.00,0.00,-277.00,14,19.00,0.00,2.36,0.00,0.00,0.00,0,,,100,100,0,2,0,0,0,1,0,,,,,0.0,0.0,0.0,0.0,0.0,0.0,0
34.182600,-118.129086,1.90,1.90,0.00,0.24,1.90,1.90,0.50,0.26,3839,2022-06-07 23:53:27.261,2022-06-07 16:53:27.261,15,0,0,15.867,34.182598,-118.129086,0.00,0.00,0.00,0.30,-0.40,-39.10,0,1,0,68,100,-7590,2362,15867,3171.50,10,WP,1,0,0,0,0,0,0,1654646007260,4008,4009,4005,3992,0,0,27,,,,,,,0,0,0,-3.00,-4.00,-391.00,0.00,0.00,-324.00,14,19.00,0.00,2.45,0.00,0.00,0.00,0,,,100,100,0,2,0,0,0,1,0,,,,,0.0,0.0,0.0,0.0,0.0,0.0,0
34.182600,-118.129086,1.90,1.90,0.00,0.25,1.90,1.90,0.50,0.26,3955,2022-06-07 23:53:27.377,2022-06-07 16:53:27.377,15,0,0,15.867,34.182598,-118.129086,0.00,0.00,0.00,0.10,-0.30,-45.20,0,1,0,68,100,-7590,2362,15867,3171.50,10,WP,1,0,0,0,0,0,0,1654646007376,4008,4009,4005,3992,0,0,27,,,,,,,0,0,0,-1.00,-3.00,-452.00,0.00,0.00,-377.00,14,19.00,0.00,2.46,0.00,0.00,0.00,0,,,100,100,0,2,0,0,0,1,0,,,,,0.0,0.0,0.0,0.0,0.0,0.0,0
34.182600,-118.129087,1.90,1.90,0.00,0.25,1.90,1.90,0.50,0.26,4055,2022-06-07 23:53:27.477,2022-06-07 16:53:27.477,15,0,0,15.867,34.182598,-118.129086,0.00,0.00,0.00,0.10,-0.20,-51.90,0,1,0,68,100,-7590,2362,15867,3171.50,10,WP,1,0,0,0,0,0,0,1654646007476,4008,4009,4005,3992,0,0,27,,,,,,,0,0,0,-1.00,-2.00,-519.00,0.00,0.00,-436.00,14,19.00,0.00,2.55,0.00,0.00,0.00,0,,,100,100,0,2,0,0,0,1,0,,,,,0.0,0.0,0.0,0.0,0.0,0.0,0
34.182600,-118.129087,1.90,1.90,0.00,0.26,1.90,1.90,0.50,0.26,4155,2022-06-07 23:53:27.577,2022-06-07 16:53:27.577,15,0,0,15.867,34.182598,-118.129086,0.00,0.00,0.00,0.30,-0.40,-59.20,0,1,0,68,100,-7590,2362,15867,3171.50,10,WP,1,0,0,0,0,0,0,1654646007576,4008,4009,4005,3992,0,0,27,,,,,,,0,0,0,-3.00,-4.00,-592.00,0.00,0.00,-502.00,14,19.00,0.00,2.58,0.00,0.00,0.00,0,,,100,100,0,2,0,0,0,1,0,,,,,0.0,0.0,0.0,0.0,0.0,0.0,0
34.182600,-118.129087,1.90,1.90,0.00,0.26,1.90,1.90,0.50,0.26,4255,2022-06-07 23:53:27.677,2022-06-07 16:53:27.677,15,0,0,15.867,34.182598,-118.129086,0.00,0.00,0.00,0.50,-0.60,-66.70,0,1,0,68,100,-7590,2362,15867,3171.50,10,WP,1,0,0,0,0,0,0,1654646007676,4008,4009,4005,3992,0,0,27,,,,,,,0,0,0,-5.00,-6.00,-667.00,0.00,0.00,-573.00,14,19.00,0.00,2.61,0.00,0.00,0.00,0,,,100,100,0,2,0,0,0,1,0,,,,,0.0,0.0,0.0,0.0,0.0,0.0,0
34.182601,-118.129087,1.90,2.00,0.00,0.27,1.90,1.90,0.50,0.27,4355,2022-06-07 23:53:27.776,2022-06-07 16:53:27.776,15,0,0,15.867,34.182598,-118.129086,0.00,0.00,0.00,0.60,-0.80,-74.30,0,1,0,68,100,-7590,2362,15867,3171.50,10,WP,1,0,0,0,0,0,0,1654646007776,4008,4009,4005,3992,0,0,27,,,,,,,0,0,0,-6.00,-8.00,-743.00,0.00,0.00,-650.00,14,19.00,0.00,2.65,0.00,0.00,0.00,0,,,100,100,0,2,0,0,0,1,0,,,,,0.0,0.0,0.0,0.0,0.0,0.0,0
34.182601,-118.129087,1.90,2.00,0.00,0.27,1.90,1.90,0.50,0.27,4456,2022-06-07 23:53:27.877,2022-06-07 16:53:27.877,15,0,0,15.867,34.182598,-118.129086,0.00,0.00,0.00,0.60,-0.90,-81.90,0,1,0,68,100,-7590,2362,15867,3171.50,10,WP,1,0,0,0,0,0,0,1654646007877,4008,4009,4005,3992,0,0,27,,,,,,,0,0,0,-6.00,-9.00,-819.00,0.00,0.00,-727.00,14,19.00,0.00,2.70,0.00,0.00,0.00,0,,,100,100,0,2,0,0,0,1,0,,,,,0.0,0.0,0.0,0.0,0.0,0.0,0
34.182601,-118.129087,1.90,2.00,0.00,0.27,1.90,1.90,0.50,0.27,4555,2022-06-07 23:53:27.976,2022-06-07 16:53:27.976,15,0,0,15.867,34.182598,-118.129086,0.00,0.00,0.00,0.50,-0.90,-89.50,0,1,0,68,100,-7590,2362,15867,3171.50,10,WP,1,0,0,0,0,0,0,1654646007976,4008,4009,4005,3992,0,0,27,,,,,,,0,0,0,-5.00,-9.00,-895.00,0.00,0.00,-805.00,14,19.00,0.00,2.74,0.00,0.00,0.00,0,,,100,100,0,2,0,0,0,1,0,,,,,0.0,0.0,0.0,0.0,0.0,0.0,0
34.182601,-118.129087,1.90,2.00,0.00,0.27,1.90,1.90,0.50,0.27,4605,2022-06-07 23:53:28.026,2022-06-07 16:53:28.026,15,0,0,15.867,34.182598,-118.129086,0.00,0.00,0.00,0.40,-1.00,-97.10,0,1,0,68,100,-7590,2362,15867,3171.50,10,WP,1,0,0,0,0,0,0,1654646008026,4008,4009,4005,3992,0,0,27,,,,,,,0,0,0,-4.00,-10.00,-971.00,0.00,0.00,-881.00,14,19.00,0.00,2.68,0.00,0.00,0.00,0,,,100,100,0,2,0,0,0,1,0,,,,,0.0,0.0,0.0,0.0,0.0,0.0,0
34.182601,-118.129087,1.90,2.00,0.00,0.27,1.90,1.90,0.50,0.27,4755,2022-06-07 23:53:28.177,2022-06-07 16:53:28.177,15,0,0,15.867,34.182598,-118.129086,0.00,0.00,0.00,0.20,-1.10,-104.80,0,1,0,68,100,-7590,2362,15867,3171.50,10,WP,1,0,0,0,0,0,0,1654646008176,4008,4009,4005,3992,0,0,27,,,,,,,0,0,0,-2.00,-11.00,-1048.00,0.00,0.00,-958.00,14,19.00,0.00,2.71,0.00,0.00,0.00,0,,,100,100,0,2,0,0,0,1,0,,,,,0.0,0.0,0.0,0.0,0.0,0.0,0
34.182601,-118.129087,1.90,2.00,0.00,0.28,1.90,1.90,0.50,0.28,4838,2022-06-07 23:53:28.259,2022-06-07 16:53:28.259,15,0,0,15.867,34.182598,-118.129086,0.00,0.00,0.00,0.00,-1.20,-112.40,0,1,0,68,100,-7590,2362,15867,3171.50,10,WP,1,0,0,0,0,0,0,1654646008259,4008,4009,4005,3992,0,0,27,,,,,,,0,0,0,-0.00,-12.00,-1124.00,0.00,0.00,-1035.00,14,19.00,0.00,2.78,0.00,0.00,0.00,0,,,100,100,0,2,0,0,0,1,0,,,,,0.0,0.0,0.0,0.0,0.0,0.0,0
34.182601,-118.129087,1.90,2.00,0.00,0.28,1.90,1.90,0.50,0.28,4955,2022-06-07 23:53:28.377,2022-06-07 16:53:28.377,15,0,0,15.867,34.182598,-118.129086,0.00,0.00,0.00,-0.10,-1.20,-120.10,0,1,0,68,100,-7590,2362,15867,3171.50,10,WP,1,0,0,0,0,0,0,1654646008376,4008,4009,4005,3992,0,0,27,,,,,,,0,0,0,1.00,-12.00,-1201.00,0.00,0.00,-1112.00,14,19.00,0.00,2.81,0.00,0.00,0.00,0,,,100,100,0,2,0,0,0,1,0,,,,,0.0,0.0,0.0,0.0,0.0,0.0,0
34.182601,-118.129087,1.90,2.00,0.00,0.27,1.90,1.90,0.50,0.28,5055,2022-06-07 23:53:28.476,2022-06-07 16:53:28.476,15,0,0,15.867,34.182598,-118.129086,0.00,0.00,0.00,-0.10,-1.30,-127.80,0,1,0,68,100,-7590,2362,15867,3171.50,10,WP,1,0,0,0,0,0,0,1654646008476,4008,4009,4005,3992,0,0,27,,,,,,,0,0,0,1.00,-13.00,-1278.00,0.00,0.00,-1189.00,14,19.00,0.00,2.73,0.00,0.00,0.00,0,,,100,100,0,2,0,0,0,1,0,,,,,0.0,0.0,0.0,0.0,0.0,0.0,0
34.182601,-118.129087,1.90,2.00,0.00,0.27,1.90,1.90,0.50,0.28,5155,2022-06-07 23:53:28.577,2022-06-07 16:53:28.577,15,0,0,15.867,34.182598,-118.129086,0.00,0.00,0.00,-0.10,-1.20,-135.50,0,1,0,68,100,-7590,2362,15867,3171.50,10,WP,1,0,0,0,0,0,0,1654646008576,4008,4009,4005,3992,0,0,27,,,,,,,0,0,0,1.00,-12.00,-1355.00,0.00,0.00,-1266.00,14,19.00,0.00,2.74,0.00,0.00,0.00,0,,,100,100,0,2,0,0,0,1,0,,,,,0.0,0.0,0.0,0.0,0.0,0.0,0
34.182600,-118.129087,1.90,2.00,0.00,0.26,1.90,1.90,0.50,0.28,5204,2022-06-07 23:53:28.625,2022-06-07 16:53:28.625,15,0,0,15.839,34.182598,-118.129086,0.00,0.00,0.00,-0.10,-1.10,-143.20,0,1,0,68,100,-7563,2358,15839,3171.50,10,WP,1,0,0,0,0,0,0,1654646008625,4008,4009,4005,3992,0,0,27,,,,,,,0,0,0,1.00,-11.00,-1432.00,0.00,0.00,-1343.00,14,19.00,0.00,2.62,0.00,0.00,0.00,0,,,100,100,0,2,0,0,0,1,0,,,,,0.0,0.0,0.0,0.0,0.0,0.0,0
34.182600,-118.129087,1.90,2.00,0.00,0.26,1.90,1.90,0.50,0.28,5306,2022-06-07 23:53:28.728,2022-06-07 16:53:28.728,15,0,0,15.839,34.182598,-118.129086,0.00,0.00,0.00,-0.20,-0.90,-150.90,0,1,0,68,100,-7563,2358,15839,3171.50,10,WP,1,0,0,0,0,0,0,1654646008727,4008,4009,4005,3992,0,0,27,,,,,,,0,0,0,2.00,-9.00,-1509.00,0.00,0.00,-1420.00,14,19.00,0.00,2.60,0.00,0.00,0.00,0,,,100,100,0,2,0,0,0,1,0,,,,,0.0,0.0,0.0,0.0,0.0,0.0,0
34.182601,-118.129086,1.90,2.00,0.00,0.27,1.90,1.90,0.50,0.28,5404,2022-06-07 23:53:28.826,2022-06-07 16:53:28.826,15,0,0,15.839,34.182598,-118.129086,0.00,0.00,0.00,-0.10,-0.70,-158.60,0,1,0,68,100,-7563,2358,15839,3171.50,10,WP,1,0,0,0,0,0,0,1654646008825,4008,4009,4005,3992,0,0,27,,,,,,,0,0,0,1.00,-7.00,-1586.00,0.00,0.00,-1498.00,14,19.00,0.00,2.67,0.00,0.00,0.00,0,,,100,100,0,2,0,0,0,1,0,,,,,0.0,0.0,0.0,0.0,0.0,0.0,0
34.182601,-118.129086,1.90,2.00,0.00,0.26,1.90,1.90,0.50,0.28,5555,2022-06-07 23:53:28.977,2022-06-07 16:53:28.977,15,0,0,15.839,34.182598,-118.129086,0.00,0.00,0.00,0.00,-0.70,-164.70,0,1,0,68,100,-7563,2358,15839,3171.50,10,WP,1,0,0,0,0,0,0,1654646008976,4008,4009,4005,3992,0,0,27,,,,,,,0,0,0,-0.00,-7.00,-1647.00,0.00,0.00,-1575.00,14,19.00,0.00,2.64,0.00,0.00,0.00,0,,,100,100,0,2,0,0,0,1,0,,,,,0.0,0.0,0.0,0.0,0.0,0.0,0
34.182600,-118.129086,1.90,2.00,0.00,0.24,1.90,1.90,0.50,0.28,5655,2022-06-07 23:53:29.076,2022-06-07 16:53:29.076,15,0,0,15.839,34.182598,-118.129086,0.00,0.00,0.00,0.00,-0.50,-168.90,0,1,0,68,100,-7563,2358,15839,3171.50,10,WP,1,0,0,0,0,0,0,1654646009076,4008,4009,4005,3992,0,0,27,,,,,,,0,0,0,-0.00,-5.00,-1689.00,0.00,0.00,-1648.00,14,19.00,0.00,2.36,0.00,0.00,0.00,0,,,100,100,0,2,0,0,0,1,0,,,,,0.0,0.0,0.0,0.0,0.0,0.0,0
34.182600,-118.129086,1.90,2.00,0.00,0.23,1.90,1.90,0.50,0.28,5756,2022-06-07 23:53:29.178,2022-06-07 16:53:29.178,15,0,0,15.839,34.182598,-118.129086,0.00,0.00,0.00,0.00,-0.30,-171.50,0,1,0,68,100,-7563,2358,15839,3171.50,10,WP,1,0,0,0,0,0,0,1654646009177,4008,4009,4005,3992,0,0,27,,,,,,,0,0,0,-0.00,-3.00,-1715.00,0.00,0.00,-1702.00,14,19.00,0.00,2.30,0.00,0.00,0.00,0,,,100,100,0,2,0,0,0,1,0,,,,,0.0,0.0,0.0,0.0,0.0,0.0,0
34.182600,-118.129086,1.90,2.00,0.00,0.22,1.90,1.90,0.50,0.28,5855,2022-06-07 23:53:29.276,2022-06-07 16:53:29.276,15,0,0,15.839,34.182598,-118.129086,0.00,0.00,0.00,0.10,-0.10,-173.10,0,1,0,68,100,-7563,2358,15839,3171.50,10,WP,1,0,0,0,0,0,0,1654646009276,4008,4009,4005,3992,0,0,27,,,,,,,0,0,0,-1.00,-1.00,-1731.00,0.00,0.00,-1739.00,14,19.00,0.00,2.23,0.00,0.00,0.00,0,,,100,100,0,2,0,0,0,1,0,,,,,0.0,0.0,0.0,0.0,0.0,0.0,0
34.182600,-118.129086,1.90,2.00,0.00,0.22,1.90,1.90,0.50,0.28,5955,2022-06-07 23:53:29.377,2022-06-07 16:53:29.377,15,0,0,15.839,34.182598,-118.129086,0.00,0.00,0.00,0.10,-0.10,-173.90,0,1,0,68,100,-7563,2358,15839,3171.50,10,WP,1,0,0,0,0,0,0,1654646009376,4008,4009,4005,3992,0,0,27,,,,,,,0,0,0,-1.00,-1.00,-1739.00,0.00,0.00,-1763.00,14,19.00,0.00,2.16,0.00,0.00,0.00,0,,,100,100,0,2,0,0,0,1,0,,,,,0.0,0.0,0.0,0.0,0.0,0.0,0
34.182600,-118.129086,1.90,2.00,0.00,0.23,1.90,1.90,0.50,0.28,6055,2022-06-07 23:53:29.476,2022-06-07 16:53:29.476,15,0,0,15.839,34.182598,-118.129086,0.00,0.00,0.00,0.00,-0.20,-174.20,0,1,0,68,100,-7563,2358,15839,3171.50,10,WP,1,0,0,0,0,0,0,1654646009476,4008,4009,4005,3992,0,0,27,,,,,,,0,0,0,-0.00,-2.00,-1742.00,0.00,0.00,-1778.00,14,19.00,0.00,2.27,0.00,0.00,0.00,0,,,100,100,0,2,0,0,0,1,0,,,,,0.0,0.0,0.0,0.0,0.0,0.0,0
34.182600,-118.129086,1.90,2.00,0.00,0.22,1.90,1.90,0.50,0.28,6156,2022-06-07 23:53:29.577,2022-06-07 16:53:29.577,15,0,0,15.839,34.182598,-118.129086,0.00,0.00,0.00,0.00,0.00,-174.20,0,1,0,68,100,-7563,2358,15839,3171.50,10,WP,1,0,0,0,0,0,0,1654646009577,4008,4009,4005,3992,0,0,27,,,,,,,0,0,0,-0.00,0.00,-1742.00,0.00,0.00,-1786.00,14,19.00,0.00,2.21,0.00,0.00,0.00,0,,,100,100,0,2,0,0,0,1,0,,,,,0.0,0.0,0.0,0.0,0.0,0.0,0
34.182600,-118.129086,1.90,2.00,0.00,0.21,1.90,1.90,0.50,0.28,6205,2022-06-07 23:53:29.626,2022-06-07 16:53:29.626,15,0,0,15.839,34.182598,-118.129086,0.00,0.00,0.00,0.00,0.10,-174.10,0,1,0,68,100,-7563,2358,15839,3171.50,10,WP,1,0,0,0,0,0,0,1654646009626,4008,4009,4005,3992,0,0,27,,,,,,,0,0,0,-0.00,1.00,-1741.00,0.00,0.00,-1789.00,14,19.00,0.00,2.08,0.00,0.00,0.00,0,,,100,100,0,2,0,0,0,1,0,,,,,0.0,0.0,0.0,0.0,0.0,0.0,0
34.182600,-118.129086,1.90,2.00,0.00,0.20,1.90,1.90,0.50,0.28,6355,2022-06-07 23:53:29.777,2022-06-07 16:53:29.777,15,0,0,15.839,34.182598,-118.129086,0.00,0.00,0.00,0.00,0.10,-174.00,0,1,0,68,100,-7563,2358,15839,3171.50,10,WP,1,0,0,0,0,0,0,1654646009776,4008,4009,4005,3992,0,0,27,,,,,,,0,0,0,-0.00,1.00,-1740.00,0.00,0.00,-1791.00,14,19.00,0.00,2.01,0.00,0.00,0.00,0,,,100,100,0,2,0,0,0,1,0,,,,,0.0,0.0,0.0,0.0,0.0,0.0,0
34.182600,-118.129086,1.90,2.00,0.00,0.21,1.90,1.90,0.50,0.28,6404,2022-06-07 23:53:29.826,2022-06-07 16:53:29.826,15,0,0,15.839,34.182598,-118.129086,0.00,0.00,0.00,-3.60,0.00,-174.00,0,1,0,68,100,-7563,2358,15839,3171.50,10,WP,1,0,0,0,0,0,0,1654646009825,4008,4009,4005,3992,0,0,27,,,,,,,0,0,0,36.00,0.00,-1740.00,0.00,0.00,-1791.00,14,19.00,0.00,2.09,0.00,0.00,0.00,0,,,100,100,0,2,0,0,0,1,0,,,,,0.0,0.0,0.0,0.0,0.0,0.0,0
34.182600,-118.129086,1.90,2.00,0.10,0.20,1.90,1.90,0.50,0.28,6504,2022-06-07 23:53:29.926,2022-06-07 16:53:29.926,15,0,0,15.839,34.182598,-118.129086,-0.10,0.00,0.00,-7.60,-0.20,-174.00,0,1,0,68,100,-7563,2358,15839,3171.50,10,WP,1,0,0,0,0,0,0,1654646009925,4008,4009,4005,3992,0,0,27,,,,,,,0,0,0,76.00,-2.00,-1740.00,0.00,0.00,-1792.00,14,19.00,1.00,1.97,-1.00,0.00,0.00,0,,,100,100,0,2,0,0,0,1,0,,,,,0.0,0.0,0.0,0.0,0.0,0.0,0
34.182600,-118.129086,1.90,2.00,0.30,0.17,1.90,1.90,0.50,0.28,6604,2022-06-07 23:53:30.025,2022-06-07 16:53:30.025,15,0,0,15.839,34.182598,-118.129086,-0.30,0.00,0.00,-10.90,-0.30,-174.00,0,1,0,68,100,-7563,2358,15839,3171.50,10,WP,1,0,0,0,0,0,0,1654646010025,4008,4009,4005,3992,0,0,27,,,,,,,0,0,0,109.00,-3.00,-1740.00,0.00,0.00,-1792.00,14,19.00,3.00,1.70,-3.00,0.00,0.00,0,,,100,100,0,2,0,0,0,1,0,,,,,0.0,0.0,0.0,0.0,0.0,0.0,0
34.182599,-118.129086,1.90,2.00,0.50,0.13,1.90,1.90,0.50,0.28,6754,2022-06-07 23:53:30.176,2022-06-07 16:53:30.176,15,0,0,15.839,34.182598,-118.129086,-0.50,0.00,0.00,-13.00,-0.40,-174.00,0,1,0,68,100,-7563,2358,15839,3171.50,10,WP,1,0,0,0,0,0,0,1654646010175,4008,4009,4005,3992,0,0,27,,,,,,,0,0,0,130.00,-4.00,-1740.00,0.00,0.00,-1792.00,14,19.00,5.00,1.28,-5.00,0.00,0.00,0,,,100,100,0,2,0,0,0,1,0,,,,,0.0,0.0,0.0,0.0,0.0,0.0,0
34.182599,-118.129086,1.90,2.00,0.70,0.08,1.90,1.90,0.70,0.28,6855,2022-06-07 23:53:30.277,2022-06-07 16:53:30.277,15,0,0,15.839,34.182598,-118.129086,-0.70,0.00,0.00,-14.30,-0.10,-173.90,0,1,0,68,100,-7563,2358,15839,3171.50,10,WP,1,0,0,0,0,0,0,1654646010276,4008,4009,4005,3992,0,0,27,,,,,,,0,0,0,143.00,-1.00,-1739.00,0.00,0.00,-1792.00,14,19.00,7.00,0.80,-7.00,0.00,0.00,0,,,100,100,0,2,0,0,0,1,0,,,,,0.0,0.0,0.0,0.0,0.0,0.0,0
34.182598,-118.129086,1.90,2.00,0.90,0.06,1.90,1.90,0.90,0.28,6904,2022-06-07 23:53:30.326,2022-06-07 16:53:30.326,15,0,0,15.839,34.182598,-118.129086,-0.90,0.00,0.00,-14.70,0.30,-173.90,0,1,0,68,100,-7563,2358,15839,3171.50,10,WP,1,0,0,0,0,0,0,1654646010325,4008,4009,4005,3992,0,0,27,,,,,,,0,0,0,147.00,3.00,-1739.00,0.00,0.00,-1792.00,14,19.00,9.00,0.59,-9.00,0.00,0.00,0,,,100,100,0,2,0,0,0,1,0,,,,,0.0,0.0,0.0,0.0,0.0,0.0,0
34.182597,-118.129086,1.90,2.00,1.20,0.14,1.90,1.90,1.20,0.28,7055,2022-06-07 23:53:30.476,2022-06-07 16:53:30.476,15,0,0,15.839,34.182598,-118.129086,-1.20,-0.10,0.00,-14.60,0.20,-173.90,0,1,0,68,100,-7563,2358,15839,3171.50,10,WP,1,0,0,0,0,0,0,1654646010476,4008,4009,4005,3992,0,0,27,,,,,,,0,0,0,146.00,2.00,-1739.00,0.00,0.00,-1792.00,14,19.00,12.04,1.38,-12.00,-1.00,0.00,0,,,100,100,0,2,0,0,0,1,0,,,,,0.0,0.0,0.0,0.0,0.0,0.0,0
34.182596,-118.129086,1.90,2.00,1.40,0.27,1.90,1.90,1.40,0.28,7154,2022-06-07 23:53:30.576,2022-06-07 16:53:30.576,15,0,0,15.813,34.182598,-118.129086,-1.40,-0.10,0.00,-14.20,0.30,-173.80,0,1,0,68,100,-7829,2354,15813,3171.50,10,WP,1,0,0,0,0,0,0,1654646010575,4008,4009,4005,3992,0,0,27,,,,,,,0,0,0,142.00,3.00,-1738.00,0.00,0.00,-1792.00,14,19.00,14.04,2.66,-14.00,-1.00,0.00,0,,,100,100,0,2,0,0,0,1,0,,,,,0.0,0.0,0.0,0.0,0.0,0.0,0
34.182595,-118.129087,1.90,2.00,1.60,0.41,1.90,1.90,1.60,0.41,7206,2022-06-07 23:53:30.627,2022-06-07 16:53:30.627,15,0,0,15.813,34.182598,-118.129086,-1.60,-0.10,0.00,-13.10,0.20,-173.80,0,1,0,68,100,-7829,2354,15813,3171.50,10,WP,1,0,0,0,0,0,0,1654646010627,4008,4009,4005,3992,0,0,27,,,,,,,0,0,0,131.00,2.00,-1738.00,0.00,0.00,-1792.00,14,19.00,16.03,4.12,-16.00,-1.00,0.00,0,,,100,100,0,2,0,0,0,1,0,,,,,0.0,0.0,0.0,0.0,0.0,0.0,0
34.182593,-118.129087,1.90,2.00,1.81,0.59,1.90,1.90,1.81,0.59,7355,2022-06-07 23:53:30.776,2022-06-07 16:53:30.776,15,0,0,15.813,34.182598,-118.129086,-1.80,-0.20,0.00,-9.90,0.00,-173.80,0,1,0,68,100,-7829,2354,15813,3171.50,10,WP,1,0,0,0,0,0,0,1654646010776,4008,4009,4005,3992,0,0,27,,,,,,,0,0,0,99.00,0.00,-1738.00,0.00,0.00,-1792.00,14,19.00,18.11,5.90,-18.00,-2.00,0.00,0,,,100,100,0,2,0,0,0,1,0,,,,,0.0,0.0,0.0,0.0,0.0,0.0,0
34.182591,-118.129088,1.90,2.00,2.01,0.79,1.90,1.90,2.01,0.79,7456,2022-06-07 23:53:30.877,2022-06-07 16:53:30.877,15,0,0,15.813,34.182598,-118.129086,-2.00,-0.20,0.00,-5.40,-0.60,-173.80,0,1,0,68,100,-7829,2354,15813,3171.50,10,WP,1,0,0,0,0,0,0,1654646010877,4008,4009,4005,3992,0,0,27,,,,,,,0,0,0,54.00,-6.00,-1738.00,0.00,0.00,-1792.00,14,19.00,20.10,7.91,-20.00,-2.00,0.00,0,,,100,100,0,2,0,0,0,1,0,,,,,0.0,0.0,0.0,0.0,0.0,0.0,0
34.182590,-118.129088,1.90,2.00,2.01,0.99,1.90,1.90,2.01,0.99,7556,2022-06-07 23:53:30.977,2022-06-07 16:53:30.977,15,0,0,15.813,34.182598,-118.129086,-2.00,-0.20,0.00,-1.90,-0.60,-173.80,0,1,0,68,100,-7829,2354,15813,3171.50,10,WP,1,0,0,0,0,0,0,1654646010977,4008,4009,4005,3992,0,0,27,,,,,,,0,0,0,19.00,-6.00,-1738.00,0.00,0.00,-1792.00,14,19.00,20.10,9.94,-20.00,-2.00,0.00,0,,,100,100,0,2,0,0,0,1,0,,,,,0.0,0.0,0.0,0.0,0.0,0.0,0
34.182588,-118.129088,1.90,2.00,2.01,1.20,1.90,1.90,2.01,1.20,7655,2022-06-07 23:53:31.076,2022-06-07 16:53:31.076,15,0,0,15.813,34.182598,-118.129086,-2.00,-0.20,0.00,0.30,-1.20,-173.80,0,1,0,68,100,-7829,2354,15813,3171.50,10,WP,1,0,0,0,0,0,0,1654646011076,4008,4009,4005,3992,0,0,27,,,,,,,0,0,0,-3.00,-12.00,-1738.00,0.00,0.00,-1792.00,14,19.00,20.10,11.95,-20.00,-2.00,0.00,0,,,100,100,0,2,0,0,0,1,0,,,,,0.0,0.0,0.0,0.0,0.0,0.0,0
34.182586,-118.129089,1.90,2.00,2.01,1.40,1.90,1.90,2.01,1.40,7790,2022-06-07 23:53:31.211,2022-06-07 16:53:31.211,15,0,0,15.813,34.182598,-118.129086,-2.00,-0.20,0.00,2.20,-1.60,-173.70,0,1,0,68,100,-7829,2354,15813,3171.50,10,WP,1,0,0,0,0,0,0,1654646011211,4008,4009,4005,3992,0,0,27,,,,,,,0,0,0,-22.00,-16.00,-1737.00,0.00,0.00,-1792.00,14,19.00,20.10,13.99,-20.00,-2.00,0.00,0,,,100,100,0,2,0,0,0,1,0,,,,,0.0,0.0,0.0,0.0,0.0,0.0,0
34.182584,-118.129090,1.90,2.00,1.91,1.61,1.90,1.90,2.01,1.61,7856,2022-06-07 23:53:31.277,2022-06-07 16:53:31.277,15,0,0,15.813,34.182598,-118.129086,-1.90,-0.20,0.00,3.20,-2.40,-173.80,0,1,0,68,100,-7829,2354,15813,3171.50,10,WP,1,0,0,0,0,0,0,1654646011277,4008,4009,4005,3992,0,0,27,,,,,,,0,0,0,-32.00,-24.00,-1738.00,0.00,0.00,-1792.00,14,19.00,19.10,16.07,-19.00,-2.00,0.00,0,,,100,100,0,2,0,0,0,1,0,,,,,0.0,0.0,0.0,0.0,0.0,0.0,0
34.182582,-118.129090,1.90,2.00,1.91,1.80,1.90,1.90,2.01,1.80,7955,2022-06-07 23:53:31.376,2022-06-07 16:53:31.376,15,0,0,15.813,34.182598,-118.129086,-1.90,-0.20,0.00,3.60,-2.30,-173.80,0,1,0,68,100,-7829,2354,15813,3171.50,10,WP,1,0,0,0,0,0,0,1654646011376,4008,4009,4005,3992,0,0,27,,,,,,,0,0,0,-36.00,-23.00,-1738.00,0.00,0.00,-1792.00,14,19.00,19.10,18.00,-19.00,-2.00,0.00,0,,,100,100,0,2,0,0,0,1,0,,,,,0.0,0.0,0.0,0.0,0.0,0.0,0
34.182581,-118.129091,1.90,2.00,1.80,1.99,1.90,1.90,2.01,1.99,8005,2022-06-07 23:53:31.426,2022-06-07 16:53:31.426,15,0,0,15.813,34.182598,-118.129086,-1.80,-0.10,0.00,3.70,-3.00,-174.00,0,1,0,68,100,-7829,2354,15813,3171.50,10,WP,1,0,0,0,0,0,0,1654646011426,4008,4009,4005,3992,0,0,27,,,,,,,0,0,0,-37.00,-30.00,-1740.00,0.00,0.00,-1792.00,14,19.00,18.03,19.87,-18.00,-1.00,0.00,0,,,100,100,0,2,0,0,0,1,0,,,,,0.0,0.0,0.0,0.0,0.0,0.0,0
34.182579,-118.129091,1.90,2.00,1.70,2.16,1.90,1.90,2.01,2.16,8106,2022-06-07 23:53:31.528,2022-06-07 16:53:31.528,15,0,0,15.813,34.182598,-118.129086,-1.70,-0.10,0.00,4.00,-3.40,-174.10,0,1,0,68,100,-7829,2354,15813,3171.50,10,WP,1,0,0,0,0,0,0,1654646011527,4008,4009,4005,3992,0,0,27,,,,,,,0,0,0,-40.00,-34.00,-1741.00,0.00,0.00,-1792.00,14,19.00,17.03,21.62,-17.00,-1.00,0.00,0,,,100,100,0,2,0,0,0,1,0,,,,,0.0,0.0,0.0,0.0,0.0,0.0,0
34.182578,-118.129092,1.90,2.00,1.60,2.36,1.90,1.90,2.01,2.36,8206,2022-06-07 23:53:31.627,2022-06-07 16:53:31.627,15,0,0,15.813,34.182598,-118.129086,-1.60,-0.10,0.00,5.20,-4.10,-174.30,0,1,0,68,100,-7829,2354,15813,3171.50,10,WP,1,0,0,0,0,0,0,1654646011627,4008,4009,4005,3992,0,0,27,,,,,,,0,0,0,-52.00,-41.00,-1743.00,0.00,0.00,-1792.00,14,19.00,16.03,23.57,-16.00,-1.00,0.00,0,,,100,100,0,2,0,0,0,1,0,,,,,0.0,0.0,0.0,0.0,0.0,0.0,0
34.182576,-118.129092,1.90,2.00,1.50,2.51,1.90,1.90,2.01,2.51,8307,2022-06-07 23:53:31.728,2022-06-07 16:53:31.728,15,0,0,15.813,34.182598,-118.129086,-1.50,0.00,0.00,5.80,-3.80,-174.20,0,1,0,68,100,-7829,2354,15813,3171.50,10,WP,1,0,0,0,0,0,0,1654646011728,4008,4009,4005,3992,0,0,27,,,,,,,0,0,0,-58.00,-38.00,-1742.00,0.00,0.00,-1792.00,14,19.00,15.00,25.15,-15.00,0.00,0.00,0,,,100,100,0,2,0,0,0,1,0,,,,,0.0,0.0,0.0,0.0,0.0,0.0,0
34.182575,-118.129092,1.90,2.00,1.40,2.66,1.90,1.90,2.01,2.66,8406,2022-06-07 23:53:31.827,2022-06-07 16:53:31.827,15,0,0,15.813,34.182598,-118.129086,-1.40,0.00,0.00,5.70,-3.20,-174.30,0,1,0,68,100,-7829,2354,15813,3171.50,10,WP,1,0,0,0,0,0,0,1654646011827,4008,4009,4005,3992,0,0,27,,,,,,,0,0,0,-57.00,-32.00,-1743.00,0.00,0.00,-1792.00,14,19.00,14.00,26.57,-14.00,0.00,0.00,0,,,100,100,0,2,0,0,0,1,0,,,,,0.0,0.0,0.0,0.0,0.0,0.0,0
34.182574,-118.129092,1.90,2.00,1.30,2.79,1.90,1.90,2.01,2.79,8506,2022-06-07 23:53:31.927,2022-06-07 16:53:31.927,15,0,0,15.813,34.182598,-118.129086,-1.30,0.00,0.00,5.20,-2.70,-174.10,0,1,0,68,100,-7829,2354,15813,3171.50,10,WP,1,0,0,0,0,0,0,1654646011927,4008,4009,4005,3992,0,0,27,,,,,,,0,0,0,-52.00,-27.00,-1741.00,0.00,0.00,-1792.00,14,19.00,13.00,27.91,-13.00,0.00,0.00,0,,,100,100,0,2,0,0,0,1,0,,,,,0.0,0.0,0.0,0.0,0.0,0.0,0
34.182572,-118.129092,1.90,2.00,1.20,2.94,1.90,1.90,2.01,2.94,8655,2022-06-07 23:53:32.077,2022-06-07 16:53:32.077,15,0,0,15.813,34.182598,-118.129086,-1.20,0.00,0.00,5.10,-2.30,-174.10,0,1,0,68,100,-7829,2354,15813,3171.50,10,WP,1,0,0,0,0,0,0,1654646012076,4008,4009,4005,3992,0,0,27,,,,,,,0,0,0,-51.00,-23.00,-1741.00,0.00,0.00,-1792.00,14,19.00,12.00,29.40,-12.00,0.00,0.00,0,,,100,100,0,2,0,0,0,1,0,,,,,0.0,0.0,0.0,0.0,0.0,0.0,0
34.182571,-118.129092,1.90,2.00,1.10,3.05,1.90,1.90,2.01,3.05,8756,2022-06-07 23:53:32.177,2022-06-07 16:53:32.177,15,0,0,15.813,34.182598,-118.129086,-1.10,0.00,0.00,4.50,-1.90,-174.00,0,1,0,68,100,-7829,2354,15813,3171.50,10,WP,1,0,0,0,0,0,0,1654646012177,4008,4009,4005,3992,0,0,27,,,,,,,0,0,0,-45.00,-19.00,-1740.00,0.00,0.00,-1792.00,14,19.00,11.00,30.55,-11.00,0.00,0.00,0,,,100,100,0,2,0,0,0,1,0,,,,,0.0,0.0,0.0,0.0,0.0,0.0,0
34.182570,-118.129092,1.90,2.00,1.00,3.18,1.90,1.90,2.01,3.18,8856,2022-06-07 23:53:32.278,2022-06-07 16:53:32.278,15,0,0,15.813,34.182598,-118.129086,-1.00,0.10,0.00,4.20,-1.40,-174.00,0,1,0,68,100,-7829,2354,15813,3171.50,10,WP,1,0,0,0,0,0,0,1654646012277,4008,4009,4005,3992,0,0,27,,,,,,,0,0,0,-42.00,-14.00,-1740.00,0.00,0.00,-1792.00,14,19.00,10.05,31.76,-10.00,1.00,0.00,0,,,100,100,0,2,0,0,0,1,0,,,,,0.0,0.0,0.0,0.0,0.0,0.0,0
34.182569,-118.129092,1.90,2.00,0.91,3.28,1.90,1.90,2.01,3.28,8956,2022-06-07 23:53:32.377,2022-06-07 16:53:32.377,15,0,0,15.813,34.182598,-118.129086,-0.90,0.10,0.00,3.40,-1.40,-174.10,0,1,0,68,100,-7829,2354,15813,3171.50,10,WP,1,0,0,0,0,0,0,1654646012377,4008,4009,4005,3992,0,0,27,,,,,,,0,0,0,-34.00,-14.00,-1741.00,0.00,0.00,-1792.00,14,19.00,9.06,32.75,-9.00,1.00,0.00,0,,,100,100,0,2,0,0,0,1,0,,,,,0.0,0.0,0.0,0.0,0.0,0.0,0
34.182569,-118.129092,1.90,2.00,0.91,3.35,1.90,1.90,2.01,3.35,9056,2022-06-07 23:53:32.477,2022-06-07 16:53:32.477,15,0,0,15.813,34.182598,-118.129086,-0.90,0.10,0.00,2.80,-1.10,-174.20,0,1,0,68,100,-7829,2354,15813,3171.50,10,WP,1,0,0,0,0,0,0,1654646012477,4008,4009,4005,3992,0,0,27,,,,,,,0,0,0,-28.00,-11.00,-1742.00,0.00,0.00,-1792.00,14,19.00,9.06,33.51,-9.00,1.00,0.00,0,,,100,100,0,2,0,0,0,1,0,,,,,0.0,0.0,0.0,0.0,0.0,0.0,0
34.182568,-118.129092,1.90,2.00,0.81,3.44,1.90,1.90,2.01,3.44,9157,2022-06-07 23:53:32.578,2022-06-07 16:53:32.578,15,0,0,15.813,34.182598,-118.129086,-0.80,0.10,0.00,2.60,-1.00,-174.10,0,1,0,68,100,-7829,2354,15813,3171.50,10,WP,1,0,0,0,0,0,0,1654646012578,3954,3955,3950,3940,0,0,27,,,,,,,0,0,0,-26.00,-10.00,-1741.00,0.00,0.00,-1792.00,14,19.00,8.06,34.35,-8.00,1.00,0.00,0,,,100,100,0,2,0,0,0,1,0,,,,,0.0,0.0,0.0,0.0,0.0,0.0,0
34.182567,-118.129092,1.90,2.00,0.71,3.52,1.90,1.90,2.01,3.52,9207,2022-06-07 23:53:32.628,2022-06-07 16:53:32.629,15,0,0,15.799,34.182598,-118.129086,-0.70,0.10,0.00,2.90,-0.30,-174.10,0,1,0,67,100,-7538,2349,15799,3171.50,10,WP,1,0,0,0,0,0,0,1654646012628,3954,3955,3950,3940,0,0,27,,,,,,,0,0,0,-29.00,-3.00,-1741.00,0.00,0.00,-1792.00,14,19.00,7.07,35.23,-7.00,1.00,0.00,0,,,100,100,0,2,0,0,0,1,0,,,,,0.0,0.0,0.0,0.0,0.0,0.0,0
34.182566,-118.129092,1.90,2.00,0.71,3.60,1.90,1.90,2.01,3.60,9306,2022-06-07 23:53:32.728,2022-06-07 16:53:32.728,15,0,0,15.799,34.182598,-118.129086,-0.70,0.10,0.00,3.40,-0.10,-174.10,0,1,0,67,100,-7538,2349,15799,3171.50,10,WP,1,0,0,0,0,0,0,1654646012727,3954,3955,3950,3940,0,0,27,,,,,,,0,0,0,-34.00,-1.00,-1741.00,0.00,0.00,-1792.00,14,19.00,7.07,35.98,-7.00,1.00,0.00,0,,,100,100,0,2,0,0,0,1,0,,,,,0.0,0.0,0.0,0.0,0.0,0.0,0
34.182565,-118.129092,1.90,2.00,0.61,3.69,1.90,1.90,2.01,3.69,9456,2022-06-07 23:53:32.878,2022-06-07 16:53:32.878,15,0,0,15.799,34.182598,-118.129086,-0.60,0.10,0.00,4.40,0.40,-174.10,0,1,0,67,100,-7538,2349,15799,3171.50,10,WP,1,0,0,0,0,0,0,1654646012877,3954,3955,3950,3940,0,0,27,,,,,,,0,0,0,-44.00,4.00,-1741.00,0.00,0.00,-1792.00,14,19.00,6.08,36.89,-6.00,1.00,0.00,0,,,100,100,0,2,0,0,0,1,0,,,,,0.0,0.0,0.0,0.0,0.0,0.0,0
34.182565,-118.129092,1.90,2.00,0.51,3.75,1.90,1.90,2.01,3.75,9556,2022-06-07 23:53:32.978,2022-06-07 16:53:32.978,15,0,0,15.799,34.182598,-118.129086,-0.50,0.10,0.00,4.90,0.30,-174.00,0,1,0,67,100,-7538,2349,15799,3171.50,10,WP,1,0,0,0,0,0,0,1654646012977,3954,3955,3950,3940,0,0,27,,,,,,,0,0,0,-49.00,3.00,-1740.00,0.00,0.00,-1792.00,14,19.00,5.10,37.52,-5.00,1.00,0.00,0,,,100,100,0,2,0,0,0,1,0,,,,,0.0,0.0,0.0,0.0,0.0,0.0,0
34.182565,-118.129091,1.90,2.00,0.41,3.78,1.90,1.90,2.01,3.78,9657,2022-06-07 23:53:33.078,2022-06-07 16:53:33.078,15,0,0,15.799,34.182598,-118.129086,-0.40,0.10,0.00,4.40,0.20,-174.10,0,1,0,67,100,-7538,2349,15799,3171.50,10,WP,1,0,0,0,0,0,0,1654646013078,3954,3955,3950,3940,0,0,27,,,,,,,0,0,0,-44.00,2.00,-1741.00,0.00,0.00,-1792.00,14,19.00,4.12,37.84,-4.00,1.00,0.00,0,,,100,100,0,2,0,0,0,1,0,,,,,0.0,0.0,0.0,0.0,0.0,0.0,0
34.182564,-118.129091,1.90,2.00,0.40,3.83,1.90,1.90,2.01,3.83,9758,2022-06-07 23:53:33.180,2022-06-07 16:53:33.180,15,0,0,15.799,34.182598,-118.129086,-0.40,0.00,0.00,3.80,0.00,-174.00,0,1,0,67,100,-7538,2349,15799,3171.50,10,WP,1,0,0,0,0,0,0,1654646013179,3954,3955,3950,3940,0,0,27,,,,,,,0,0,0,-38.00,0.00,-1740.00,0.00,0.00,-1793.00,14,19.00,4.00,38.29,-4.00,0.00,0.00,0,,,100,100,0,2,0,0,0,1,0,,,,,0.0,0.0,0.0,0.0,0.0,0.0,0
34.182564,-118.129091,1.90,2.00,0.30,3.87,1.90,1.90,2.01,3.87,9857,2022-06-07 23:53:33.279,2022-06-07 16:53:33.279,15,0,0,15.799,34.182598,-118.129086,-0.30,0.00,0.00,4.70,1.20,-173.90,0,1,0,67,100,-7538,2349,15799,3171.50,10,WP,1,0,0,0,0,0,0,1654646013278,3954,3955,3950,3940,0,0,27,,,,,,,0,0,0,-47.00,12.00,-1739.00,0.00,0.00,-1792.00,14,19.00,3.00,38.67,-3.00,0.00,0.00,0,,,100,100,0,2,0,0,0,1,0,,,,,0.0,0.0,0.0,0.0,0.0,0.0,0
34.182563,-118.129091,1.90,2.00,0.20,3.90,1.90,1.90,2.01,3.90,9957,2022-06-07 23:53:33.379,2022-06-07 16:53:33.379,15,0,0,15.799,34.182598,-118.129086,-0.20,0.00,0.00,4.70,1.00,-174.00,0,1,0,67,100,-7538,2349,15799,3171.50,10,WP,1,0,0,0,0,0,0,1654646013378,3954,3955,3950,3940,0,0,27,,,,,,,0,0,0,-47.00,10.00,-1740.00,0.00,0.00,-1793.00,14,19.00,2.00,38.97,-2.00,0.00,0.00,0,,,100,100,0,2,0,0,0,1,0,,,,,0.0,0.0,0.0,0.0,0.0,0.0,0
34.182563,-118.129091,1.90,2.00,0.10,3.92,1.90,1.90,2.01,3.92,10057,2022-06-07 23:53:33.479,2022-06-07 16:53:33.479,15,0,0,15.799,34.182598,-118.129086,-0.10,0.00,0.00,3.40,0.00,-173.90,0,1,0,67,100,-7538,2349,15799,3171.50,10,WP,1,0,0,0,0,0,0,1654646013478,3954,3955,3950,3940,0,0,27,,,,,,,0,0,0,-34.00,0.00,-1739.00,0.00,0.00,-1793.00,14,19.00,1.00,39.16,-1.00,0.00,0.00,0,,,100,100,0,2,0,0,0,1,0,,,,,0.0,0.0,0.0,0.0,0.0,0.0,0
34.182563,-118.129091,1.90,2.00,0.10,3.93,1.90,1.90,2.01,3.93,10157,2022-06-07 23:53:33.578,2022-06-07 16:53:33.578,15,0,0,15.799,34.182598,-118.129086,-0.10,0.00,0.00,2.20,-0.50,-172.60,0,1,0,67,100,-7538,2349,15799,3171.50,10,WP,1,0,0,0,0,0,0,1654646013578,3954,3955,3950,3940,0,0,27,,,,,,,0,0,0,-22.00,-5.00,-1726.00,0.00,0.00,-1793.00,14,19.00,1.00,39.31,-1.00,0.00,0.00,0,,,100,100,0,2,0,0,0,1,0,,,,,0.0,0.0,0.0,0.0,0.0,0.0,0
34.182563,-118.129091,1.90,2.00,0.00,3.94,1.90,1.90,2.01,3.94,10207,2022-06-07 23:53:33.629,2022-06-07 16:53:33.629,15,0,0,15.799,34.182598,-118.129086,0.00,0.00,0.00,1.40,-0.40,-165.00,0,1,0,67,100,-7538,2349,15799,3171.50,10,WP,1,0,0,0,0,0,0,1654646013628,3954,3955,3950,3940,0,0,27,,,,,,,0,0,0,-14.00,-4.00,-1650.00,0.00,0.00,-1792.00,14,19.00,0.00,39.41,0.00,0.00,0.00,0,,,100,100,0,2,0,0,0,1,0,,,,,0.0,0.0,0.0,0.0,0.0,0.0,0
34.182563,-118.129091,1.90,2.00,0.00,3.95,1.90,1.90,2.01,3.95,10357,2022-06-07 23:53:33.778,2022-06-07 16:53:33.778,15,0,0,15.799,34.182598,-118.129086,0.00,0.00,0.00,0.80,-0.20,-157.40,0,1,0,67,100,-7538,2349,15799,3171.50,10,WP,1,0,0,0,0,0,0,1654646013778,3954,3955,3950,3940,0,0,27,,,,,,,0,0,0,-8.00,-2.00,-1574.00,0.00,0.00,-1786.00,14,19.00,0.00,39.48,0.00,0.00,0.00,0,,,100,100,0,2,0,0,0,1,0,,,,,0.0,0.0,0.0,0.0,0.0,0.0,0
34.182563,-118.129091,1.90,2.00,0.00,3.93,1.90,1.90,2.01,3.95,10459,2022-06-07 23:53:33.880,2022-06-07 16:53:33.880,15,0,0,15.799,34.182598,-118.129086,0.00,0.00,0.00,0.50,-0.30,-149.80,0,1,0,67,100,-7538,2349,15799,3171.50,10,WP,1,0,0,0,0,0,0,1654646013880,3954,3955,3950,3940,0,0,27,,,,,,,0,0,0,-5.00,-3.00,-1498.00,0.00,0.00,-1729.00,14,19.00,0.00,39.34,0.00,0.00,0.00,0,,,100,100,0,2,0,0,0,1,0,,,,,0.0,0.0,0.0,0.0,0.0,0.0,0
34.182563,-118.129091,1.90,2.00,0.00,3.94,1.90,1.90,2.01,3.95,10558,2022-06-07 23:53:33.980,2022-06-07 16:53:33.980,15,0,0,15.799,34.182598,-118.129086,0.00,0.00,0.00,0.30,-0.30,-142.30,0,1,0,67,100,-7538,2349,15799,3171.50,10,WP,1,0,0,0,0,0,0,1654646013979,3954,3955,3950,3940,0,0,27,,,,,,,0,0,0,-3.00,-3.00,-1423.00,0.00,0.00,-1643.00,14,19.00,0.00,39.36,0.00,0.00,0.00,0,,,100,100,0,2,0,0,0,1,0,,,,,0.0,0.0,0.0,0.0,0.0,0.0,0
34.182563,-118.129091,1.90,2.00,0.00,3.93,1.90,1.90,2.01,3.95,10658,2022-06-07 23:53:34.079,2022-06-07 16:53:34.079,15,0,0,15.799,34.182598,-118.129086,0.00,0.00,0.00,0.30,-0.40,-134.70,0,1,0,67,100,-7538,2349,15799,3171.50,10,WP,1,0,0,0,0,0,0,1654646014079,3954,3955,3950,3940,0,0,27,,,,,,,0,0,0,-3.00,-4.00,-1347.00,0.00,0.00,-1559.00,14,19.00,0.00,39.25,0.00,0.00,0.00,0,,,100,100,0,2,0,0,0,1,0,,,,,0.0,0.0,0.0,0.0,0.0,0.0,0
34.182563,-118.129091,1.90,2.00,0.00,3.93,1.90,1.90,2.01,3.95,10758,2022-06-07 23:53:34.180,2022-06-07 16:53:34.180,15,0,0,15.799,34.182598,-118.129086,0.00,0.00,0.00,0.20,-0.50,-127.20,0,1,0,67,100,-7538,2349,15799,3171.50,10,WP,1,0,0,0,0,0,0,1654646014179,3954,3955,3950,3940,0,0,27,,,,,,,0,0,0,-2.00,-5.00,-1272.00,0.00,0.00,-1478.00,14,19.00,0.00,39.25,0.00,0.00,0.00,0,,,100,100,0,2,0,0,0,1,0,,,,,0.0,0.0,0.0,0.0,0.0,0.0,0
34.182563,-118.129091,1.90,2.00,0.00,3.92,1.90,1.90,2.01,3.95,10808,2022-06-07 23:53:34.230,2022-06-07 16:53:34.230,15,0,0,15.799,34.182598,-118.129086,0.00,0.00,0.00,0.40,-0.50,-119.70,0,1,0,67,100,-7538,2349,15799,3171.50,10,WP,1,0,0,0,0,0,0,1654646014229,3954,3955,3950,3940,0,0,27,,,,,,,0,0,0,-4.00,-5.00,-1197.00,0.00,0.00,-1400.00,14,19.00,0.00,39.22,0.00,0.00,0.00,0,,,100,100,0,2,0,0,0,1,0,,,,,0.0,0.0,0.0,0.0,0.0,0.0,0
34.182563,-118.129091,1.90,2.00,0.00,3.92,1.90,1.90,2.01,3.95,10908,2022-06-07 23:53:34.330,2022-06-07 16:53:34.330,15,0,0,15.799,34.182598,-118.129086,0.00,0.00,0.00,0.50,-0.50,-112.20,0,1,0,67,100,-7538,2349,15799,3171.50,10,WP,1,0,0,0,0,0,0,1654646014329,3954,3955,3950,3940,0,0,27,,,,,,,0,0,0,-5.00,-5.00,-1122.00,0.00,0.00,-1322.00,14,19.00,0.00,39.21,0.00,0.00,0.00,0,,,100,100,0,2,0,0,0,1,0,,,,,0.0,0.0,0.0,0.0,0.0,0.0,0
34.182563,-118.129091,1.90,2.00,0.00,3.90,1.90,1.90,2.01,3.95,11010,2022-06-07 23:53:34.432,2022-06-07 16:53:34.432,15,0,0,15.799,34.182598,-118.129086,0.00,0.00,0.00,0.70,-0.50,-104.70,0,1,0,67,100,-7538,2349,15799,3171.50,10,WP,1,0,0,0,0,0,0,1654646014431,3954,3955,3950,3940,0,0,27,,,,,,,0,0,0,-7.00,-5.00,-1047.00,0.00,0.00,-1245.00,14,19.00,0.00,38.96,0.00,0.00,0.00,0,,,100,100,0,2,0,0,0,1,0,,,,,0.0,0.0,0.0,0.0,0.0,0.0,0
34.182563,-118.129091,1.90,2.00,0.00,3.89,1.90,1.90,2.01,3.95,11108,2022-06-07 23:53:34.530,2022-06-07 16:53:34.530,15,0,0,15.799,34.182598,-118.129086,0.00,0.00,0.00,0.90,-0.50,-97.20,0,1,0,67,100,-7538,2349,15799,3171.50,10,WP,1,0,0,0,0,0,0,1654646014529,3954,3955,3950,3940,0,0,27,,,,,,,0,0,0,-9.00,-5.00,-972.00,0.00,0.00,-1169.00,14,19.00,0.00,38.92,0.00,0.00,0.00,0,,,100,100,0,2,0,0,0,1,0,,,,,0.0,0.0,0.0,0.0,0.0,0.0,0
34.182564,-118.129091,1.90,2.00,0.00,3.88,1.90,1.90,2.01,3.95,11208,2022-06-07 23:53:34.629,2022-06-07 16:53:34.629,15,0,0,15.745,34.182598,-118.129086,0.00,0.00,0.00,1.10,-0.30,-89.70,0,1,0,67,100,-7936,2345,15745,3171.50,10,WP,1,0,0,0,0,0,0,1654646014629,3954,3955,3950,3940,0,0,27,,,,,,,0,0,0,-11.00,-3.00,-897.00,0.00,0.00,-1092.00,14,19.00,0.00,38.75,0.00,0.00,0.00,0,,,100,100,0,2,0,0,0,1,0,,,,,0.0,0.0,0.0,0.0,0.0,0.0,0
34.182564,-118.129091,1.90,2.00,0.00,3.87,1.90,1.90,2.01,3.95,11308,2022-06-07 23:53:34.730,2022-06-07 16:53:34.730,15,0,0,15.745,34.182598,-118.129086,0.00,0.00,0.00,1.20,-0.10,-82.20,0,1,0,67,100,-7936,2345,15745,3171.50,10,WP,1,0,0,0,0,0,0,1654646014729,3954,3955,3950,3940,0,0,27,,,,,,,0,0,0,-12.00,-1.00,-822.00,0.00,0.00,-1017.00,14,19.00,0.00,38.71,0.00,0.00,0.00,0,,,100,100,0,2,0,0,0,1,0,,,,,0.0,0.0,0.0,0.0,0.0,0.0,0
34.182564,-118.129091,1.90,2.00,0.00,3.86,1.90,1.90,2.01,3.95,11509,2022-06-07 23:53:34.930,2022-06-07 16:53:34.930,15,0,0,15.745,34.182598,-118.129086,0.00,0.00,0.00,1.40,0.40,-67.30,0,1,0,67,100,-7936,2345,15745,3171.50,10,WP,1,0,0,0,0,0,0,1654646014930,3954,3955,3950,3940,0,0,27,,,,,,,0,0,0,-14.00,4.00,-673.00,0.00,0.00,-866.00,14,19.00,0.00,38.56,0.00,0.00,0.00,0,,,100,100,0,2,0,0,0,1,0,,,,,0.0,0.0,0.0,0.0,0.0,0.0,0
34.182564,-118.129091,1.90,2.00,0.00,3.87,1.90,1.90,2.01,3.95,11659,2022-06-07 23:53:35.081,2022-06-07 16:53:35.081,15,0,0,15.745,34.182598,-118.129086,0.00,0.00,0.00,1.50,0.60,-59.80,0,1,0,67,100,-7936,2345,15745,3171.50,10,WP,1,0,0,0,0,0,0,1654646015080,3954,3955,3950,3940,0,0,27,,,,,,,0,0,0,-15.00,6.00,-598.00,0.00,0.00,-790.00,14,19.00,0.00,38.66,0.00,0.00,0.00,0,,,100,100,0,2,0,0,0,1,0,,,,,0.0,0.0,0.0,0.0,0.0,0.0,0
34.182564,-118.129091,1.90,2.00,0.00,3.86,1.90,1.90,2.01,3.95,11760,2022-06-07 23:53:35.181,2022-06-07 16:53:35.181,15,0,0,15.745,34.182598,-118.129086,0.00,0.00,0.00,1.60,0.60,-52.40,0,1,0,67,100,-7936,2345,15745,3171.50,10,WP,1,0,0,0,0,0,0,1654646015181,3954,3955,3950,3940,0,0,27,,,,,,,0,0,0,-16.00,6.00,-524.00,0.00,0.00,-715.00,14,19.00,0.00,38.60,0.00,0.00,0.00,0,,,100,100,0,2,0,0,0,1,0,,,,,0.0,0.0,0.0,0.0,0.0,0.0,0
34.182564,-118.129091,1.90,2.00,0.00,3.85,1.90,1.90,2.01,3.95,11858,2022-06-07 23:53:35.280,2022-06-07 16:53:35.280,15,0,0,15.745,34.182598,-118.129086,0.00,0.00,0.00,1.50,0.70,-44.90,0,1,0,67,100,-7936,2345,15745,3171.50,10,WP,1,0,0,0,0,0,0,1654646015279,3954,3955,3950,3940,0,0,27,,,,,,,0,0,0,-15.00,7.00,-449.00,0.00,0.00,-640.00,14,19.00,0.00,38.48,0.00,0.00,0.00,0,,,100,100,0,2,0,0,0,1,0,,,,,0.0,0.0,0.0,0.0,0.0,0.0,0
34.182564,-118.129090,1.90,2.00,0.00,3.84,1.90,1.90,2.01,3.95,11959,2022-06-07 23:53:35.380,2022-06-07 16:53:35.380,15,0,0,15.745,34.182598,-118.129086,0.00,0.00,0.00,1.30,0.70,-37.30,0,1,0,67,100,-7936,2345,15745,3171.50,10,WP,1,0,0,0,0,0,0,1654646015380,3954,3955,3950,3940,0,0,27,,,,,,,0,0,0,-13.00,7.00,-373.00,0.00,0.00,-565.00,14,19.00,0.00,38.40,0.00,0.00,0.00,0,,,100,100,0,2,0,0,0,1,0,,,,,0.0,0.0,0.0,0.0,0.0,0.0,0
34.182564,-118.129090,1.90,2.00,0.00,3.83,1.90,1.90,2.01,3.95,12059,2022-06-07 23:53:35.480,2022-06-07 16:53:35.480,15,0,0,15.745,34.182598,-118.129086,0.00,0.00,0.00,1.20,0.70,-30.20,0,1,0,67,100,-7936,2345,15745,3171.50,10,WP,1,0,0,0,0,0,0,1654646015480,3954,3955,3950,3940,0,0,27,,,,,,,0,0,0,-12.00,7.00,-302.00,0.00,0.00,-489.00,14,19.00,0.00,38.32,0.00,0.00,0.00,0,,,100,100,0,2,0,0,0,1,0,,,,,0.0,0.0,0.0,0.0,0.0,0.0,0
34.182564,-118.129090,1.90,2.00,0.00,3.82,1.90,1.90,2.01,3.95,12159,2022-06-07 23:53:35.580,2022-06-07 16:53:35.580,15,0,0,15.745,34.182598,-118.129086,0.00,0.00,0.00,1.10,0.50,-24.30,0,1,0,67,100,-7936,2345,15745,3171.50,10,WP,1,0,0,0,0,0,0,1654646015580,3954,3955,3950,3940,0,0,27,,,,,,,0,0,0,-11.00,5.00,-243.00,0.00,0.00,-415.00,14,19.00,0.00,38.24,0.00,0.00,0.00,0,,,100,100,0,2,0,0,0,1,0,,,,,0.0,0.0,0.0,0.0,0.0,0.0,0
34.182564,-118.129090,1.90,2.00,0.00,3.83,1.90,1.90,2.01,3.95,12209,2022-06-07 23:53:35.630,2022-06-07 16:53:35.630,15,0,0,15.745,34.182598,-118.129086,0.00,0.00,0.00,1.00,0.40,-19.60,0,1,0,67,100,-7936,2345,15745,3171.50,10,WP,1,0,0,0,0,0,0,1654646015630,3954,3955,3950,3940,0,0,27,,,,,,,0,0,0,-10.00,4.00,-196.00,0.00,0.00,-349.00,14,19.00,0.00,38.32,0.00,0.00,0.00,0,,,100,100,0,2,0,0,0,1,0,,,,,0.0,0.0,0.0,0.0,0.0,0.0,0
34.182564,-118.129090,1.90,2.00,0.00,3.83,1.90,1.90,2.01,3.95,12309,2022-06-07 23:53:35.730,2022-06-07 16:53:35.730,15,0,0,15.745,34.182598,-118.129086,0.00,0.00,0.00,0.90,0.20,-15.80,0,1,0,67,100,-7936,2345,15745,3171.50,10,WP,1,0,0,0,0,0,0,1654646015730,3954,3955,3950,3940,0,0,27,,,,,,,0,0,0,-9.00,2.00,-158.00,0.00,0.00,-294.00,14,19.00,0.00,38.26,0.00,0.00,0.00,0,,,100,100,0,2,0,0,0,1,0,,,,,0.0,0.0,0.0,0.0,0.0,0.0,0
34.182564,-118.129090,1.90,2.00,0.00,3.83,1.90,1.90,2.01,3.95,12409,2022-06-07 23:53:35.830,2022-06-07 16:53:35.830,15,0,0,15.745,34.182598,-118.129086,0.00,0.00,0.00,0.80,0.10,-12.80,0,1,0,67,100,-7936,2345,15745,3171.50,10,WP,1,0,0,0,0,0,0,1654646015830,3954,3955,3950,3940,0,0,27,,,,,,,0,0,0,-8.00,1.00,-128.00,0.00,0.00,-250.00,14,19.00,0.00,38.32,0.00,0.00,0.00,0,,,100,100,0,2,0,0,0,1,0,,,,,0.0,0.0,0.0,0.0,0.0,0.0,0
34.182564,-118.129090,1.90,2.00,0.00,3.83,1.90,1.90,2.01,3.95,12560,2022-06-07 23:53:35.981,2022-06-07 16:53:35.981,15,0,0,15.745,34.182598,-118.129086,0.00,0.00,0.00,0.70,0.20,-10.40,0,1,0,67,100,-7936,2345,15745,3171.50,10,WP,1,0,0,0,0,0,0,1654646015981,3954,3955,3950,3940,0,0,27,,,,,,,0,0,0,-7.00,2.00,-104.00,0.00,0.00,-214.00,14,19.00,0.00,38.28,0.00,0.00,0.00,0,,,100,100,0,2,0,0,0,1,0,,,,,0.0,0.0,0.0,0.0,0.0,0.0,0
34.182564,-118.129090,1.90,2.00,0.00,3.83,1.90,1.90,2.01,3.95,12660,2022-06-07 23:53:36.081,2022-06-07 16:53:36.081,15,0,0,15.745,34.182598,-118.129086,0.00,0.00,0.00,0.60,0.30,-8.40,0,1,0,67,100,-7936,2345,15745,3171.50,10,WP,1,0,0,0,0,0,0,1654646016081,3954,3955,3950,3940,0,0,27,,,,,,,0,0,0,-6.00,3.00,-84.00,0.00,0.00,-186.00,14,19.00,0.00,38.30,0.00,0.00,0.00,0,,,100,100,0,2,0,0,0,1,0,,,,,0.0,0.0,0.0,0.0,0.0,0.0,0
34.182564,-118.129090,1.90,2.00,0.00,3.83,1.90,1.90,2.01,3.95,12760,2022-06-07 23:53:36.181,2022-06-07 16:53:36.181,15,0,0,15.745,34.182598,-118.129086,0.00,0.00,0.00,0.50,0.50,-6.70,0,1,0,67,100,-7936,2345,15745,3171.50,10,WP,1,0,0,0,0,0,0,1654646016181,3954,3955,3950,3940,0,0,27,,,,,,,0,0,0,-5.00,5.00,-67.00,0.00,0.00,-162.00,14,19.00,0.00,38.27,0.00,0.00,0.00,0,,,100,100,0,2,0,0,0,1,0,,,,,0.0,0.0,0.0,0.0,0.0,0.0,0
34.182564,-118.129090,1.90,2.00,0.00,3.82,1.90,1.90,2.01,3.95,12810,2022-06-07 23:53:36.232,2022-06-07 16:53:36.232,15,0,0,15.745,34.182598,-118.129086,0.00,0.00,0.00,0.50,0.60,-5.30,0,1,0,67,100,-7936,2345,15745,3171.50,10,WP,1,0,0,0,0,0,0,1654646016231,3954,3955,3950,3940,0,0,27,,,,,,,0,0,0,-5.00,6.00,-53.00,0.00,0.00,-144.00,14,19.00,0.00,38.22,0.00,0.00,0.00,0,,,100,100,0,2,0,0,0,1,0,,,,,0.0,0.0,0.0,0.0,0.0,0.0,0
34.182564,-118.129090,1.90,2.00,0.00,3.82,1.90,1.90,2.01,3.95,12910,2022-06-07 23:53:36.332,2022-06-07 16:53:36.332,15,0,0,15.745,34.182598,-118.129086,0.00,0.00,0.00,0.30,0.60,-4.10,0,1,0,67,100,-7936,2345,15745,3171.50,10,WP,1,0,0,0,0,0,0,1654646016331,3954,3955,3950,3940,0,0,27,,,,,,,0,0,0,-3.00,6.00,-41.00,0.00,0.00,-128.00,14,19.00,0.00,38.19,0.00,0.00,0.00,0,,,100,100,0,2,0,0,0,1,0,,,,,0.0,0.0,0.0,0.0,0.0,0.0,0
34.182564,-118.129090,1.90,2.00,0.00,3.83,1.90,1.90,2.01,3.95,13010,2022-06-07 23:53:36.432,2022-06-07 16:53:36.432,15,0,0,15.745,34.182598,-118.129086,0.00,0.00,0.00,-0.10,0.20,-1.50,0,1,0,67,100,-7936,2345,15745,3171.50,10,WP,1,0,0,0,0,0,0,1654646016431,3954,3955,3950,3940,0,0,27,,,,,,,0,0,0,1.00,2.00,-15.00,0.00,0.00,-116.00,14,19.00,0.00,38.26,0.00,0.00,0.00,0,,,100,100,0,2,0,0,0,1,0,,,,,0.0,0.0,0.0,0.0,0.0,0.0,0
34.182564,-118.129090,1.90,2.00,0.00,3.82,1.90,1.90,2.01,3.95,13110,2022-06-07 23:53:36.532,2022-06-07 16:53:36.532,15,0,0,15.745,34.182598,-118.129086,0.00,0.00,0.00,0.00,0.40,0.30,0,1,0,67,100,-7936,2345,15745,3171.50,10,WP,1,0,0,0,0,0,0,1654646016531,3954,3955,3950,3940,0,0,27,,,,,,,0,0,0,-0.00,4.00,3.00,0.00,0.00,-103.00,14,19.00,0.00,38.23,0.00,0.00,0.00,0,,,100,100,0,2,0,0,0,1,0,,,,,0.0,0.0,0.0,0.0,0.0,0.0,0
34.182564,-118.129090,1.90,2.00,0.00,3.83,1.90,1.90,2.01,3.95,13210,2022-06-07 23:53:36.632,2022-06-07 16:53:36.632,15,0,0,15.765,34.182598,-118.129086,0.00,0.00,0.00,0.10,0.40,1.70,0,1,0,67,100,-7663,2341,15765,3171.50,10,WP,1,0,0,0,0,0,0,1654646016631,3954,3955,3950,3940,0,0,27,,,,,,,0,0,0,-1.00,4.00,17.00,0.00,0.00,-82.00,14,19.00,0.00,38.26,0.00,0.00,0.00,0,,,100,100,0,2,0,0,0,1,0,,,,,0.0,0.0,0.0,0.0,0.0,0.0,0
34.182564,-118.129090,1.90,2.00,0.00,3.82,1.90,1.90,2.01,3.95,13310,2022-06-07 23:53:36.732,2022-06-07 16:53:36.732,15,0,0,15.765,34.182598,-118.129086,0.00,0.00,0.00,0.20,0.50,2.70,0,1,0,67,100,-7663,2341,15765,3171.50,10,WP,1,0,0,0,0,0,0,1654646016731,3954,3955,3950,3940,0,0,27,,,,,,,0,0,0,-2.00,5.00,27.00,0.00,0.00,-64.00,14,19.00,0.00,38.22,0.00,0.00,0.00,0,,,100,100,0,2,0,0,0,1,0,,,,,0.0,0.0,0.0,0.0,0.0,0.0,0
34.182564,-118.129090,1.90,2.00,0.00,3.82,1.90,1.90,2.01,3.95,13411,2022-06-07 23:53:36.832,2022-06-07 16:53:36.832,15,0,0,15.765,34.182598,-118.129086,0.00,0.00,0.00,0.30,0.50,3.50,0,1,0,67,100,-7663,2341,15765,3171.50,10,WP,1,0,0,0,0,0,0,1654646016832,3954,3955,3950,3940,0,0,27,,,,,,,0,0,0,-3.00,5.00,35.00,0.00,0.00,-51.00,14,19.00,0.00,38.24,0.00,0.00,0.00,0,,,100,100,0,2,0,0,0,1,0,,,,,0.0,0.0,0.0,0.0,0.0,0.0,0
34.182564,-118.129090,1.90,2.00,0.00,3.82,1.90,1.90,2.01,3.95,13510,2022-06-07 23:53:36.932,2022-06-07 16:53:36.932,15,0,0,15.765,34.182598,-118.129086,0.00,0.00,0.00,0.30,0.40,3.90,0,1,0,67,100,-7663,2341,15765,3171.50,10,WP,1,0,0,0,0,0,0,1654646016931,3954,3955,3950,3940,0,0,27,,,,,,,0,0,0,-3.00,4.00,39.00,0.00,0.00,-41.00,14,19.00,0.00,38.20,0.00,0.00,0.00,0,,,100,100,0,2,0,0,0,1,0,,,,,0.0,0.0,0.0,0.0,0.0,0.0,0
34.182564,-118.129090,1.90,2.00,0.00,3.81,1.90,1.90,2.01,3.95,13611,2022-06-07 23:53:37.032,2022-06-07 16:53:37.032,15,0,0,15.765,34.182598,-118.129086,0.00,0.00,0.00,0.40,0.40,4.20,0,1,0,67,100,-7663,2341,15765,3171.50,10,WP,1,0,0,0,0,0,0,1654646017032,3954,3955,3950,3940,0,0,27,,,,,,,0,0,0,-4.00,4.00,42.00,0.00,0.00,-35.00,14,19.00,0.00,38.09,0.00,0.00,0.00,0,,,100,100,0,2,0,0,0,1,0,,,,,0.0,0.0,0.0,0.0,0.0,0.0,0
34.182564,-118.129090,1.90,2.00,0.00,3.80,1.90,1.90,2.01,3.95,13710,2022-06-07 23:53:37.132,2022-06-07 16:53:37.132,15,0,0,15.765,34.182598,-118.129086,0.00,0.00,0.00,0.50,0.30,4.50,0,1,0,67,100,-7663,2341,15765,3171.50,10,WP,1,0,0,0,0,0,0,1654646017131,3954,3955,3950,3940,0,0,27,,,,,,,0,0,0,-5.00,3.00,45.00,0.00,0.00,-30.00,14,19.00,0.00,38.04,0.00,0.00,0.00,0,,,100,100,0,2,0,0,0,1,0,,,,,0.0,0.0,0.0,0.0,0.0,0.0,0
