latitude,longitude,altitude(m),ultrasonicHeight(m),speed(mps),distance(m),max_altitude(m),max_ascent(m),max_speed(mps),max_distance(m),time(millisecond),datetime(utc),datetime(local),satellites,pressure(Pa),temperature(F),voltage(v),home_latitude,home_longitude,velocityX(mps),velocityY(mps),velocityZ(mps),pitch(deg),roll(deg),yaw(deg),powerlevel,isflying,istakingphoto,remainPowerPercent,remainLifePercent,currentCurrent,currentElectricity,currentVoltage,batteryTemperature,dischargeCount,flightmode,isMotorsOn,isTakingVideo,Rc_elevator,Rc_aileron,Rc_throttle,Rc_rudder,Rc_gyro,timestamp,Battery_Cell1,Battery_Cell2,Battery_Cell3,Battery_Cell4,Battery_Cell5,Battery_Cell6,Dronetype,AppVersion,Planename,FlyControllerSerialNumber,RemoteSerialNumber,BatterySerialNumber,CENTER_BATTERY.productDate,CENTER_BATTERY.serialNo,CENTER_BATTERY.fullCapacity,CENTER_BATTERY.productDateRaw,pitchRaw,rollRaw,yawRaw,gimbalPitchRaw,gimbalRollRaw,gimbalYawRaw,flyState,altitudeRaw,speedRaw,distanceRaw,velocityXRaw,velocityYRaw,velocityZRaw,data_reuse,App_Tip,App_Warning,downlinkSignalQuality,uplinkSignalQuality,transmissionChannel,rcModeSwitch,rcHome,rcPause,rcTransform,rcJoystickMode,appMode,FlyControllerSerialNumber_legacy,RemoteSerialNumber_legacy,BatterySerialNumber_legacy,Battery2SerialNumber,frontAvoidDist,backAvoidDist,rightAvoidDist,leftAvoidDist,upAvoidDist,downAvoidDist,isBrakingToAvoid
34.182599,-118.129084,0.30,0.40,0.40,0.09,0.30,0.30,0.40,0.09,1,2022-06-08 00:09:10.865,2022-06-07 17:09:10.865,15,0,0,15.185,34.182598,-118.129084,0.00,0.00,-0.40,0.90,-1.30,-33.40,0,1,0,42,100,-4507,1453,15185,3211.50,10,TakeOff,1,0,0,0,0,0,0,1654646950865,3826,3828,3827,3820,0,0,27,Litchi_iOS_2.14.0,Brian-MAVIC 2,163DFCK001S13F,1DUCFB800104PR,0P2AFBV5340045,,0,3507,0,-9.00,-13.00,-334.00,0.00,0.00,-369.00,11,3.00,4.00,0.88,0.00,0.00,-4.00,0,,,100,100,0,2,0,0,0,1,0,(null),(null),(null),(null),0.0,0.0,0.0,0.0,0.0,0.0,0
34.182599,-118.129084,0.40,0.40,0.40,0.09,0.40,0.40,0.40,0.09,100,2022-06-08 00:09:10.964,2022-06-07 17:09:10.964,15,0,0,15.185,34.182598,-118.129084,0.00,0.00,-0.40,0.70,-1.60,-33.40,0,1,0,42,100,-4507,1453,15185,3211.50,10,TakeOff,1,0,0,0,0,0,0,1654646950964,3826,3828,3827,3820,0,0,27,,,,,,,0,0,0,-7.00,-16.00,-334.00,0.00,0.00,-369.00,11,4.00,4.00,0.90,0.00,0.00,-4.00,0,,,100,100,0,2,0,0,0,1,0,,,,,0.0,0.0,0.0,0.0,0.0,0.0,0
34.182599,-118.129084,0.40,0.50,0.40,0.09,0.40,0.40,0.40,0.09,200,2022-06-08 00:09:11.065,2022-06-07 17:09:11.065,15,0,0,15.185,34.182598,-118.129084,0.00,0.00,-0.40,0.70,-1.80,-33.40,0,1,0,42,100,-4507,1453,15185,3211.50,10,TakeOff,1,0,0,0,0,0,0,1654646951064,3826,3828,3827,3820,0,0,27,,,,,,,0,0,0,-7.00,-18.00,-334.00,0.00,0.00,-369.00,11,4.00,4.00,0.88,0.00,0.00,-4.00,0,,,100,100,0,2,0,0,0,1,0,,,,,0.0,0.0,0.0,0.0,0.0,0.0,0
34.182599,-118.129084,0.50,0.50,0.40,0.09,0.50,0.50,0.40,0.09,301,2022-06-08 00:09:11.166,2022-06-07 17:09:11.166,15,0,0,15.185,34.182598,-118.129084,0.00,0.00,-0.40,0.60,-1.50,-33.40,0,1,0,42,100,-4507,1453,15185,3211.50,10,TakeOff,1,0,0,0,0,0,0,1654646951165,3826,3828,3827,3820,0,0,27,,,,,,,0,0,0,-6.00,-15.00,-334.00,0.00,0.00,-370.00,11,5.00,4.00,0.88,0.00,0.00,-4.00,0,,,100,100,0,2,0,0,0,1,0,,,,,0.0,0.0,0.0,0.0,0.0,0.0,0
34.182599,-118.129084,0.50,0.60,0.50,0.09,0.50,0.50,0.50,0.09,400,2022-06-08 00:09:11.264,2022-06-07 17:09:11.264,14,0,0,15.185,34.182598,-118.129084,0.00,0.00,-0.50,0.40,-1.30,-33.40,0,1,0,42,100,-4507,1453,15185,3211.50,10,TakeOff,1,0,0,0,0,0,0,1654646951264,3826,3828,3827,3820,0,0,27,,,,,,,0,0,0,-4.00,-13.00,-334.00,0.00,0.00,-370.00,11,5.00,5.00,0.91,0.00,0.00,-5.00,0,,,100,100,0,2,0,0,0,1,0,,,,,0.0,0.0,0.0,0.0,0.0,0.0,0
34.182599,-118.129084,0.60,0.60,0.50,0.09,0.60,0.60,0.50,0.09,500,2022-06-08 00:09:11.364,2022-06-07 17:09:11.364,14,0,0,15.185,34.182598,-118.129084,0.00,0.00,-0.50,0.20,-1.10,-33.40,0,1,0,42,100,-4507,1453,15185,3211.50,10,TakeOff,1,0,0,0,0,0,0,1654646951364,3826,3828,3827,3820,0,0,27,,,,,,,0,0,0,-2.00,-11.00,-334.00,0.00,0.00,-370.00,11,6.00,5.00,0.88,0.00,0.00,-5.00,0,,,100,100,0,2,0,0,0,1,0,,,,,0.0,0.0,0.0,0.0,0.0,0.0,0
34.182599,-118.129084,0.60,0.70,0.50,0.08,0.60,0.60,0.50,0.09,600,2022-06-08 00:09:11.465,2022-06-07 17:09:11.465,14,0,0,15.185,34.182598,-118.129084,0.00,0.00,-0.50,0.30,-1.00,-33.30,0,1,0,42,100,-4507,1453,15185,3211.50,10,TakeOff,1,0,0,0,0,0,0,1654646951464,3826,3828,3827,3820,0,0,27,,,,,,,0,0,0,-3.00,-10.00,-333.00,0.00,0.00,-370.00,11,6.00,5.00,0.80,0.00,0.00,-5.00,0,,,100,100,0,2,0,0,0,1,0,,,,,0.0,0.0,0.0,0.0,0.0,0.0,0
34.182599,-118.129084,0.70,0.70,0.50,0.08,0.70,0.70,0.50,0.09,700,2022-06-08 00:09:11.565,2022-06-07 17:09:11.565,14,0,0,15.185,34.182598,-118.129084,0.00,0.00,-0.50,0.20,-0.80,-33.30,0,1,0,42,100,-4507,1453,15185,3211.50,10,TakeOff,1,0,0,0,0,0,0,1654646951564,3826,3828,3827,3820,0,0,27,,,,,,,0,0,0,-2.00,-8.00,-333.00,0.00,0.00,-370.00,11,7.00,5.00,0.76,0.00,0.00,-5.00,0,,,100,100,0,2,0,0,0,1,0,,,,,0.0,0.0,0.0,0.0,0.0,0.0,0
34.182599,-118.129084,0.70,0.80,0.50,0.09,0.70,0.70,0.50,0.09,800,2022-06-08 00:09:11.664,2022-06-07 17:09:11.664,15,0,0,15.185,34.182598,-118.129084,0.00,0.00,-0.50,0.30,-0.80,-33.30,0,1,0,42,100,-4507,1453,15185,3211.50,10,TakeOff,1,0,0,0,0,0,0,1654646951664,3826,3828,3827,3820,0,0,27,,,,,,,0,0,0,-3.00,-8.00,-333.00,0.00,0.00,-370.00,11,7.00,5.00,0.92,0.00,0.00,-5.00,0,,,100,100,0,2,0,0,0,1,0,,,,,0.0,0.0,0.0,0.0,0.0,0.0,0
34.182599,-118.129084,0.80,0.80,0.50,0.09,0.80,0.80,0.50,0.09,900,2022-06-08 00:09:11.764,2022-06-07 17:09:11.764,15,0,0,15.185,34.182598,-118.129084,0.00,0.00,-0.50,0.40,-1.00,-33.30,0,1,0,42,100,-4507,1453,15185,3211.50,10,TakeOff,1,0,0,0,0,0,0,1654646951764,3826,3828,3827,3820,0,0,27,,,,,,,0,0,0,-4.00,-10.00,-333.00,0.00,0.00,-370.00,11,8.00,5.00,0.89,0.00,0.00,-5.00,0,,,100,100,0,2,0,0,0,1,0,,,,,0.0,0.0,0.0,0.0,0.0,0.0,0
34.182599,-118.129084,0.80,0.90,0.50,0.06,0.80,0.80,0.50,0.09,1000,2022-06-08 00:09:11.865,2022-06-07 17:09:11.865,15,0,0,15.185,34.182598,-118.129084,0.00,0.00,-0.50,0.10,-0.80,-33.30,0,1,0,42,100,-4507,1453,15185,3211.50,10,TakeOff,1,0,0,0,0,0,0,1654646951864,3826,3828,3827,3820,0,0,27,,,,,,,0,0,0,-1.00,-8.00,-333.00,0.00,0.00,-370.00,11,8.00,5.00,0.57,0.00,0.00,-5.00,0,,,100,100,0,2,0,0,0,1,0,,,,,0.0,0.0,0.0,0.0,0.0,0.0,0
34.182599,-118.129084,0.90,0.90,0.50,0.05,0.90,0.90,0.50,0.09,1100,2022-06-08 00:09:11.965,2022-06-07 17:09:11.965,15,0,0,15.185,34.182598,-118.129084,0.00,0.00,-0.50,0.00,-0.50,-33.30,0,1,0,42,100,-4507,1453,15185,3211.50,10,TakeOff,1,0,0,0,0,0,0,1654646951964,3826,3828,3827,3820,0,0,27,,,,,,,0,0,0,-0.00,-5.00,-333.00,0.00,0.00,-370.00,11,9.00,5.00,0.50,0.00,0.00,-5.00,0,,,100,100,0,2,0,0,0,1,0,,,,,0.0,0.0,0.0,0.0,0.0,0.0,0
34.182599,-118.129084,0.90,1.00,0.50,0.06,0.90,0.90,0.50,0.09,1200,2022-06-08 00:09:12.065,2022-06-07 17:09:12.065,15,0,0,15.185,34.182598,-118.129084,0.00,0.00,-0.50,-0.20,-0.50,-33.30,0,1,0,42,100,-4507,1453,15185,3211.50,10,TakeOff,1,0,0,0,0,0,0,1654646952064,3826,3828,3827,3820,0,0,27,,,,,,,0,0,0,2.00,-5.00,-333.00,0.00,0.00,-370.00,11,9.00,5.00,0.59,0.00,0.00,-5.00,0,,,100,100,0,2,0,0,0,1,0,,,,,0.0,0.0,0.0,0.0,0.0,0.0,0
34.182599,-118.129084,1.00,1.00,0.50,0.05,1.00,1.00,0.50,0.09,1301,2022-06-08 00:09:12.165,2022-06-07 17:09:12.165,15,0,0,15.185,34.182598,-118.129084,0.00,0.00,-0.50,-0.30,-0.50,-33.30,0,1,0,42,100,-4507,1453,15185,3211.50,10,TakeOff,1,0,0,0,0,0,0,1654646952165,3826,3828,3827,3820,0,0,27,,,,,,,0,0,0,3.00,-5.00,-333.00,0.00,0.00,-370.00,11,10.00,5.00,0.55,0.00,0.00,-5.00,0,,,100,100,0,2,0,0,0,1,0,,,,,0.0,0.0,0.0,0.0,0.0,0.0,0
34.182599,-118.129084,1.00,1.10,0.50,0.05,1.00,1.00,0.50,0.09,1401,2022-06-08 00:09:12.266,2022-06-07 17:09:12.266,15,0,0,15.185,34.182598,-118.129084,0.00,0.00,-0.50,-0.20,-0.40,-33.40,0,1,0,42,100,-4507,1453,15185,3211.50,10,GPS,1,0,0,0,0,0,0,1654646952265,3826,3828,3827,3820,0,0,27,,,,,,,0,0,0,2.00,-4.00,-334.00,0.00,0.00,-370.00,6,10.00,5.00,0.49,0.00,0.00,-5.00,0,,,100,100,0,2,0,0,0,1,0,,,,,0.0,0.0,0.0,0.0,0.0,0.0,0
34.182599,-118.129084,1.10,1.10,0.40,0.05,1.10,1.10,0.50,0.09,1502,2022-06-08 00:09:12.366,2022-06-07 17:09:12.366,15,0,0,15.185,34.182598,-118.129084,0.00,0.00,-0.40,-0.20,-0.20,-33.50,0,1,0,42,100,-4507,1453,15185,3211.50,10,WP,1,0,0,0,0,0,0,1654646952366,3826,3828,3827,3820,0,0,27,,,,,,,0,0,0,2.00,-2.00,-335.00,0.00,0.00,-370.00,14,11.00,4.00,0.46,0.00,0.00,-4.00,0,,,100,100,0,2,0,0,0,1,0,,,,,0.0,0.0,0.0,0.0,0.0,0.0,0
34.182599,-118.129084,1.10,1.20,0.40,0.05,1.10,1.10,0.50,0.09,1600,2022-06-08 00:09:12.465,2022-06-07 17:09:12.465,15,0,0,15.185,34.182598,-118.129084,0.00,0.00,-0.40,0.00,-0.30,-33.60,0,1,0,42,100,-4507,1453,15185,3211.50,10,WP,1,0,0,0,0,0,0,1654646952464,3826,3828,3827,3820,0,0,27,,,,,,,0,0,0,-0.00,-3.00,-336.00,0.00,0.00,-370.00,14,11.00,4.00,0.47,0.00,0.00,-4.00,0,,,100,100,0,2,0,0,0,1,0,,,,,0.0,0.0,0.0,0.0,0.0,0.0,0
34.182599,-118.129084,1.10,1.20,0.40,0.05,1.10,1.10,0.50,0.09,1702,2022-06-08 00:09:12.566,2022-06-07 17:09:12.566,15,0,0,15.083,34.182598,-118.129084,0.00,0.00,-0.40,0.00,-0.40,-33.70,0,1,0,42,100,-8352,1450,15083,3211.50,10,WP,1,0,0,0,0,0,0,1654646952566,3826,3828,3827,3820,0,0,27,,,,,,,0,0,0,-0.00,-4.00,-337.00,0.00,0.00,-370.00,14,11.00,4.00,0.46,0.00,0.00,-4.00,0,,,100,100,0,2,0,0,0,1,0,,,,,0.0,0.0,0.0,0.0,0.0,0.0,0
34.182599,-118.129084,1.20,1.30,0.40,0.04,1.20,1.20,0.50,0.09,1800,2022-06-08 00:09:12.665,2022-06-07 17:09:12.665,15,0,0,15.083,34.182598,-118.129084,0.00,0.00,-0.40,0.00,-0.50,-33.70,0,1,0,42,100,-8352,1450,15083,3211.50,10,WP,1,0,0,0,0,0,0,1654646952664,3826,3828,3827,3820,0,0,27,,,,,,,0,0,0,-0.00,-5.00,-337.00,0.00,0.00,-370.00,14,12.00,4.00,0.40,0.00,0.00,-4.00,0,,,100,100,0,2,0,0,0,1,0,,,,,0.0,0.0,0.0,0.0,0.0,0.0,0
34.182599,-118.129084,1.20,1.30,0.40,0.04,1.20,1.20,0.50,0.09,1901,2022-06-08 00:09:12.765,2022-06-07 17:09:12.765,15,0,0,15.083,34.182598,-118.129084,0.00,0.00,-0.40,0.00,-0.60,-33.80,0,1,0,42,100,-8352,1450,15083,3211.50,10,WP,1,0,0,0,0,0,0,1654646952765,3826,3828,3827,3820,0,0,27,,,,,,,0,0,0,-0.00,-6.00,-338.00,0.00,0.00,-370.00,14,12.00,4.00,0.40,0.00,0.00,-4.00,0,,,100,100,0,2,0,0,0,1,0,,,,,0.0,0.0,0.0,0.0,0.0,0.0,0
34.182599,-118.129084,1.30,1.40,0.40,0.03,1.30,1.30,0.50,0.09,2001,2022-06-08 00:09:12.865,2022-06-07 17:09:12.865,15,0,0,15.083,34.182598,-118.129084,0.00,0.00,-0.40,-0.10,-0.50,-33.80,0,1,0,42,100,-8352,1450,15083,3211.50,10,WP,1,0,0,0,0,0,0,1654646952865,3826,3828,3827,3820,0,0,27,,,,,,,0,0,0,1.00,-5.00,-338.00,0.00,0.00,-370.00,14,13.00,4.00,0.32,0.00,0.00,-4.00,0,,,100,100,0,2,0,0,0,1,0,,,,,0.0,0.0,0.0,0.0,0.0,0.0,0
34.182599,-118.129084,1.30,1.40,0.40,0.03,1.30,1.30,0.50,0.09,2102,2022-06-08 00:09:12.966,2022-06-07 17:09:12.966,15,0,0,15.083,34.182598,-118.129084,0.00,0.00,-0.40,-0.10,-0.70,-33.70,0,1,0,42,100,-8352,1450,15083,3211.50,10,WP,1,0,0,0,0,0,0,1654646952966,3826,3828,3827,3820,0,0,27,,,,,,,0,0,0,1.00,-7.00,-337.00,0.00,0.00,-370.00,14,13.00,4.00,0.31,0.00,0.00,-4.00,0,,,100,100,0,2,0,0,0,1,0,,,,,0.0,0.0,0.0,0.0,0.0,0.0,0
34.182599,-118.129084,1.40,1.50,0.40,0.05,1.40,1.40,0.50,0.09,2202,2022-06-08 00:09:13.066,2022-06-07 17:09:13.066,15,0,0,15.083,34.182598,-118.129084,0.00,0.00,-0.40,0.00,-1.40,-33.70,0,1,0,42,100,-8352,1450,15083,3211.50,10,WP,1,0,0,0,0,0,0,1654646953066,3826,3828,3827,3820,0,0,27,,,,,,,0,0,0,-0.00,-14.00,-337.00,0.00,0.00,-370.00,14,14.00,4.00,0.52,0.00,0.00,-4.00,0,,,100,100,0,2,0,0,0,1,0,,,,,0.0,0.0,0.0,0.0,0.0,0.0,0
34.182599,-118.129084,1.40,1.50,0.40,0.06,1.40,1.40,0.50,0.09,2302,2022-06-08 00:09:13.166,2022-06-07 17:09:13.166,15,0,0,15.083,34.182598,-118.129084,0.00,0.00,-0.40,0.30,-1.60,-33.70,0,1,0,42,100,-8352,1450,15083,3211.50,10,WP,1,0,0,0,0,0,0,1654646953166,3826,3828,3827,3820,0,0,27,,,,,,,0,0,0,-3.00,-16.00,-337.00,0.00,0.00,-370.00,14,14.00,4.00,0.56,0.00,0.00,-4.00,0,,,100,100,0,2,0,0,0,1,0,,,,,0.0,0.0,0.0,0.0,0.0,0.0,0
34.182599,-118.129084,1.50,1.60,0.40,0.05,1.50,1.50,0.50,0.09,2401,2022-06-08 00:09:13.266,2022-06-07 17:09:13.266,15,0,0,15.083,34.182598,-118.129084,0.00,0.00,-0.40,0.30,-1.40,-33.70,0,1,0,42,100,-8352,1450,15083,3211.50,10,WP,1,0,0,0,0,0,0,1654646953265,3826,3828,3827,3820,0,0,27,,,,,,,0,0,0,-3.00,-14.00,-337.00,0.00,0.00,-370.00,14,15.00,4.00,0.53,0.00,0.00,-4.00,0,,,100,100,0,2,0,0,0,1,0,,,,,0.0,0.0,0.0,0.0,0.0,0.0,0
34.182599,-118.129084,1.50,1.60,0.40,0.05,1.50,1.50,0.50,0.09,2501,2022-06-08 00:09:13.366,2022-06-07 17:09:13.366,15,0,0,15.083,34.182598,-118.129084,0.00,0.00,-0.40,0.40,-1.50,-33.70,0,1,0,42,100,-8352,1450,15083,3211.50,10,WP,1,0,0,0,0,0,0,1654646953365,3826,3828,3827,3820,0,0,27,,,,,,,0,0,0,-4.00,-15.00,-337.00,0.00,0.00,-370.00,14,15.00,4.00,0.55,0.00,0.00,-4.00,0,,,100,100,0,2,0,0,0,1,0,,,,,0.0,0.0,0.0,0.0,0.0,0.0,0
34.182599,-118.129084,1.60,1.70,0.40,0.05,1.60,1.60,0.50,0.09,2602,2022-06-08 00:09:13.466,2022-06-07 17:09:13.466,15,0,0,15.083,34.182598,-118.129084,0.00,0.00,-0.40,0.10,-1.50,-33.60,0,1,0,42,100,-8352,1450,15083,3211.50,10,WP,1,0,0,0,0,0,0,1654646953466,3826,3828,3827,3820,0,0,27,,,,,,,0,0,0,-1.00,-15.00,-336.00,0.00,0.00,-370.00,14,16.00,4.00,0.48,0.00,0.00,-4.00,0,,,100,100,0,2,0,0,0,1,0,,,,,0.0,0.0,0.0,0.0,0.0,0.0,0
34.182599,-118.129084,1.60,1.70,0.40,0.05,1.60,1.60,0.50,0.09,2702,2022-06-08 00:09:13.567,2022-06-07 17:09:13.567,15,0,0,15.083,34.182598,-118.129084,0.00,0.00,-0.40,0.10,-1.40,-33.60,0,1,0,42,100,-8352,1450,15083,3211.50,10,WP,1,0,0,0,0,0,0,1654646953566,3826,3828,3827,3820,0,0,27,,,,,,,0,0,0,-1.00,-14.00,-336.00,0.00,0.00,-370.00,14,16.00,4.00,0.49,0.00,0.00,-4.00,0,,,100,100,0,2,0,0,0,1,0,,,,,0.0,0.0,0.0,0.0,0.0,0.0,0
34.182599,-118.129084,1.70,1.70,0.40,0.06,1.70,1.70,0.50,0.09,2802,2022-06-08 00:09:13.667,2022-06-07 17:09:13.667,15,0,0,15.083,34.182598,-118.129084,0.00,0.00,-0.40,0.30,-1.50,-33.60,0,1,0,42,100,-8352,1450,15083,3211.50,10,WP,1,0,0,0,0,0,0,1654646953666,3826,3828,3827,3820,0,0,27,,,,,,,0,0,0,-3.00,-15.00,-336.00,0.00,0.00,-370.00,14,17.00,4.00,0.61,0.00,0.00,-4.00,0,,,100,100,0,2,0,0,0,1,0,,,,,0.0,0.0,0.0,0.0,0.0,0.0,0
34.182599,-118.129084,1.70,1.80,0.40,0.06,1.70,1.70,0.50,0.09,2903,2022-06-08 00:09:13.768,2022-06-07 17:09:13.768,15,0,0,15.083,34.182598,-118.129084,0.00,0.00,-0.40,0.30,-1.30,-33.60,0,1,0,42,100,-8352,1450,15083,3211.50,10,WP,1,0,0,0,0,0,0,1654646953767,3826,3828,3827,3820,0,0,27,,,,,,,0,0,0,-3.00,-13.00,-336.00,0.00,0.00,-370.00,14,17.00,4.00,0.61,0.00,0.00,-4.00,0,,,100,100,0,2,0,0,0,1,0,,,,,0.0,0.0,0.0,0.0,0.0,0.0,0
34.182599,-118.129083,1.70,1.80,0.30,0.07,1.70,1.70,0.50,0.09,3004,2022-06-08 00:09:13.868,2022-06-07 17:09:13.868,15,0,0,15.083,34.182598,-118.129084,0.00,0.00,-0.30,0.20,-1.00,-34.10,0,1,0,42,100,-8352,1450,15083,3211.50,10,WP,1,0,0,0,0,0,0,1654646953868,3826,3828,3827,3820,0,0,27,,,,,,,0,0,0,-2.00,-10.00,-341.00,0.00,0.00,-370.00,14,17.00,3.00,0.67,0.00,0.00,-3.00,0,,,100,100,0,2,0,0,0,1,0,,,,,0.0,0.0,0.0,0.0,0.0,0.0,0
34.182599,-118.129083,1.80,1.90,0.20,0.07,1.80,1.80,0.50,0.09,3104,2022-06-08 00:09:13.968,2022-06-07 17:09:13.968,15,0,0,15.083,34.182598,-118.129084,0.00,0.00,-0.20,0.10,-1.20,-35.10,0,1,0,42,100,-8352,1450,15083,3211.50,10,WP,1,0,0,0,0,0,0,1654646953968,3826,3828,3827,3820,0,0,27,,,,,,,0,0,0,-1.00,-12.00,-351.00,0.00,0.00,-371.00,14,18.00,2.00,0.70,0.00,0.00,-2.00,0,,,100,100,0,2,0,0,0,1,0,,,,,0.0,0.0,0.0,0.0,0.0,0.0,0
34.182599,-118.129083,1.80,1.90,0.20,0.07,1.80,1.80,0.50,0.09,3206,2022-06-08 00:09:14.070,2022-06-07 17:09:14.070,15,0,0,15.083,34.182598,-118.129084,0.00,0.00,-0.20,0.00,-1.30,-36.70,0,1,0,42,100,-8352,1450,15083,3211.50,10,WP,1,0,0,0,0,0,0,1654646954070,3826,3828,3827,3820,0,0,27,,,,,,,0,0,0,-0.00,-13.00,-367.00,0.00,0.00,-371.00,14,18.00,2.00,0.66,0.00,0.00,-2.00,0,,,100,100,0,2,0,0,0,1,0,,,,,0.0,0.0,0.0,0.0,0.0,0.0,0
34.182599,-118.129083,1.80,1.90,0.10,0.07,1.80,1.80,0.50,0.09,3309,2022-06-08 00:09:14.173,2022-06-07 17:09:14.173,15,0,0,15.083,34.182598,-118.129084,0.00,0.00,-0.10,0.10,-1.20,-38.80,0,1,0,42,100,-8352,1450,15083,3211.50,10,WP,1,0,0,0,0,0,0,1654646954173,3826,3828,3827,3820,0,0,27,,,,,,,0,0,0,-1.00,-12.00,-388.00,0.00,0.00,-374.00,14,18.00,1.00,0.69,0.00,0.00,-1.00,0,,,100,100,0,2,0,0,0,1,0,,,,,0.0,0.0,0.0,0.0,0.0,0.0,0
34.182599,-118.129083,1.80,1.90,0.10,0.08,1.80,1.80,0.50,0.09,3421,2022-06-08 00:09:14.285,2022-06-07 17:09:14.285,15,0,0,15.083,34.182598,-118.129084,0.00,0.00,-0.10,0.20,-1.20,-41.60,0,1,0,42,100,-8352,1450,15083,3211.50,10,WP,1,0,0,0,0,0,0,1654646954285,3826,3828,3827,3820,0,0,27,,,,,,,0,0,0,-2.00,-12.00,-416.00,0.00,0.00,-383.00,14,18.00,1.00,0.82,0.00,0.00,-1.00,0,,,100,100,0,2,0,0,0,1,0,,,,,0.0,0.0,0.0,0.0,0.0,0.0,0
34.182599,-118.129083,1.80,1.90,0.00,0.09,1.80,1.80,0.50,0.09,3502,2022-06-08 00:09:14.367,2022-06-07 17:09:14.367,15,0,0,15.083,34.182598,-118.129084,0.00,0.00,0.00,0.20,-1.40,-44.90,0,1,0,42,100,-8352,1450,15083,3211.50,10,WP,1,0,0,0,0,0,0,1654646954366,3826,3828,3827,3820,0,0,27,,,,,,,0,0,0,-2.00,-14.00,-449.00,0.00,0.00,-402.00,14,18.00,0.00,0.86,0.00,0.00,0.00,0,,,100,100,0,2,0,0,0,1,0,,,,,0.0,0.0,0.0,0.0,0.0,0.0,0
34.182599,-118.129083,1.80,1.90,0.00,0.08,1.80,1.80,0.50,0.09,3603,2022-06-08 00:09:14.468,2022-06-07 17:09:14.468,15,0,0,15.083,34.182598,-118.129084,0.00,0.00,0.00,0.00,-1.40,-48.70,0,1,0,42,100,-8352,1450,15083,3211.50,10,WP,1,0,0,0,0,0,0,1654646954467,3826,3828,3827,3820,0,0,27,,,,,,,0,0,0,-0.00,-14.00,-487.00,0.00,0.00,-431.00,14,18.00,0.00,0.84,0.00,0.00,0.00,0,,,100,100,0,2,0,0,0,1,0,,,,,0.0,0.0,0.0,0.0,0.0,0.0,0
34.182599,-118.129083,1.80,1.90,0.00,0.09,1.80,1.80,0.50,0.09,3703,2022-06-08 00:09:14.568,2022-06-07 17:09:14.568,15,0,0,15.083,34.182598,-118.129084,0.00,0.00,0.00,0.00,-1.50,-53.10,0,1,0,42,100,-8352,1450,15083,3211.50,10,WP,1,0,0,0,0,0,0,1654646954567,3826,3828,3827,3820,0,0,27,,,,,,,0,0,0,-0.00,-15.00,-531.00,0.00,0.00,-467.00,14,18.00,0.00,0.87,0.00,0.00,0.00,0,,,100,100,0,2,0,0,0,1,0,,,,,0.0,0.0,0.0,0.0,0.0,0.0,0
34.182599,-118.129083,1.80,1.90,0.00,0.09,1.80,1.80,0.50,0.09,3803,2022-06-08 00:09:14.668,2022-06-07 17:09:14.668,15,0,0,15.093,34.182598,-118.129084,0.00,0.00,0.00,-0.10,-1.60,-58.20,0,1,0,42,100,-7858,1443,15093,3211.50,10,WP,1,0,0,0,0,0,0,1654646954667,3826,3828,3827,3820,0,0,27,,,,,,,0,0,0,1.00,-16.00,-582.00,0.00,0.00,-510.00,14,18.00,0.00,0.92,0.00,0.00,0.00,0,,,100,100,0,2,0,0,0,1,0,,,,,0.0,0.0,0.0,0.0,0.0,0.0,0
34.182599,-118.129083,1.90,1.90,0.00,0.10,1.90,1.90,0.50,0.10,3903,2022-06-08 00:09:14.767,2022-06-07 17:09:14.767,15,0,0,15.093,34.182598,-118.129084,0.00,0.00,0.00,-0.30,-1.50,-63.80,0,1,0,42,100,-7858,1443,15093,3211.50,10,WP,1,0,0,0,0,0,0,1654646954767,3826,3828,3827,3820,0,0,27,,,,,,,0,0,0,3.00,-15.00,-638.00,0.00,0.00,-560.00,14,19.00,0.00,0.95,0.00,0.00,0.00,0,,,100,100,0,2,0,0,0,1,0,,,,,0.0,0.0,0.0,0.0,0.0,0.0,0
34.182599,-118.129083,1.90,1.90,0.00,0.09,1.90,1.90,0.50,0.10,4003,2022-06-08 00:09:14.868,2022-06-07 17:09:14.868,15,0,0,15.093,34.182598,-118.129084,0.00,0.00,0.00,-0.40,-1.20,-69.90,0,1,0,42,100,-7858,1443,15093,3211.50,10,WP,1,0,0,0,0,0,0,1654646954867,3826,3828,3827,3820,0,0,27,,,,,,,0,0,0,4.00,-12.00,-699.00,0.00,0.00,-615.00,14,19.00,0.00,0.93,0.00,0.00,0.00,0,,,100,100,0,2,0,0,0,1,0,,,,,0.0,0.0,0.0,0.0,0.0,0.0,0
34.182599,-118.129083,1.90,2.00,0.00,0.09,1.90,1.90,0.50,0.10,4103,2022-06-08 00:09:14.968,2022-06-07 17:09:14.968,15,0,0,15.093,34.182598,-118.129084,0.00,0.00,0.00,-0.30,-1.20,-76.60,0,1,0,42,100,-7858,1443,15093,3211.50,10,WP,1,0,0,0,0,0,0,1654646954967,3826,3828,3827,3820,0,0,27,,,,,,,0,0,0,3.00,-12.00,-766.00,0.00,0.00,-676.00,14,19.00,0.00,0.94,0.00,0.00,0.00,0,,,100,100,0,2,0,0,0,1,0,,,,,0.0,0.0,0.0,0.0,0.0,0.0,0
34.182599,-118.129083,1.90,1.90,0.00,0.08,1.90,1.90,0.50,0.10,4202,2022-06-08 00:09:15.067,2022-06-07 17:09:15.067,15,0,0,15.093,34.182598,-118.129084,0.00,0.00,0.00,-0.20,-1.20,-83.90,0,1,0,42,100,-7858,1443,15093,3211.50,10,WP,1,0,0,0,0,0,0,1654646955066,3826,3828,3827,3820,0,0,27,,,,,,,0,0,0,2.00,-12.00,-839.00,0.00,0.00,-742.00,14,19.00,0.00,0.82,0.00,0.00,0.00,0,,,100,100,0,2,0,0,0,1,0,,,,,0.0,0.0,0.0,0.0,0.0,0.0,0
34.182599,-118.129083,1.90,1.90,0.00,0.08,1.90,1.90,0.50,0.10,4315,2022-06-08 00:09:15.180,2022-06-07 17:09:15.180,15,0,0,15.093,34.182598,-118.129084,0.00,0.00,0.00,-0.30,-1.20,-91.50,0,1,0,42,100,-7858,1443,15093,3211.50,10,WP,1,0,0,0,0,0,0,1654646955179,3826,3828,3827,3820,0,0,27,,,,,,,0,0,0,3.00,-12.00,-915.00,0.00,0.00,-814.00,14,19.00,0.00,0.81,0.00,0.00,0.00,0,,,100,100,0,2,0,0,0,1,0,,,,,0.0,0.0,0.0,0.0,0.0,0.0,0
34.182599,-118.129083,1.90,2.00,0.00,0.08,1.90,1.90,0.50,0.10,4403,2022-06-08 00:09:15.268,2022-06-07 17:09:15.268,15,0,0,15.093,34.182598,-118.129084,0.00,0.00,0.00,-0.30,-1.10,-99.00,0,1,0,42,100,-7858,1443,15093,3211.50,10,WP,1,0,0,0,0,0,0,1654646955267,3826,3828,3827,3820,0,0,27,,,,,,,0,0,0,3.00,-11.00,-990.00,0.00,0.00,-891.00,14,19.00,0.00,0.83,0.00,0.00,0.00,0,,,100,100,0,2,0,0,0,1,0,,,,,0.0,0.0,0.0,0.0,0.0,0.0,0
34.182599,-118.129083,1.90,2.00,0.00,0.08,1.90,1.90,0.50,0.10,4503,2022-06-08 00:09:15.368,2022-06-07 17:09:15.368,15,0,0,15.093,34.182598,-118.129084,0.00,0.00,0.00,-0.30,-1.10,-106.60,0,1,0,42,100,-7858,1443,15093,3211.50,10,WP,1,0,0,0,0,0,0,1654646955367,3826,3828,3827,3820,0,0,27,,,,,,,0,0,0,3.00,-11.00,-1066.00,0.00,0.00,-968.00,14,19.00,0.00,0.79,0.00,0.00,0.00,0,,,100,100,0,2,0,0,0,1,0,,,,,0.0,0.0,0.0,0.0,0.0,0.0,0
34.182599,-118.129083,1.90,2.00,0.00,0.07,1.90,1.90,0.50,0.10,4603,2022-06-08 00:09:15.468,2022-06-07 17:09:15.468,15,0,0,15.093,34.182598,-118.129084,0.00,0.00,0.00,-0.20,-0.80,-114.20,0,1,0,42,100,-7858,1443,15093,3211.50,10,WP,1,0,0,0,0,0,0,1654646955467,3826,3828,3827,3820,0,0,27,,,,,,,0,0,0,2.00,-8.00,-1142.00,0.00,0.00,-1045.00,14,19.00,0.00,0.74,0.00,0.00,0.00,0,,,100,100,0,2,0,0,0,1,0,,,,,0.0,0.0,0.0,0.0,0.0,0.0,0
34.182599,-118.129083,1.90,2.00,0.00,0.07,1.90,1.90,0.50,0.10,4703,2022-06-08 00:09:15.568,2022-06-07 17:09:15.568,15,0,0,15.093,34.182598,-118.129084,0.00,0.00,0.00,-0.10,-0.50,-121.70,0,1,0,42,100,-7858,1443,15093,3211.50,10,WP,1,0,0,0,0,0,0,1654646955567,3826,3828,3827,3820,0,0,27,,,,,,,0,0,0,1.00,-5.00,-1217.00,0.00,0.00,-1121.00,14,19.00,0.00,0.69,0.00,0.00,0.00,0,,,100,100,0,2,0,0,0,1,0,,,,,0.0,0.0,0.0,0.0,0.0,0.0,0
34.182599,-118.129083,1.90,2.00,0.00,0.05,1.90,1.90,0.50,0.10,4803,2022-06-08 00:09:15.668,2022-06-07 17:09:15.668,14,0,0,15.093,34.182598,-118.129084,0.00,0.00,0.00,0.00,-0.30,-129.30,0,1,0,42,100,-7858,1443,15093,3211.50,10,WP,1,0,0,0,0,0,0,1654646955667,3826,3828,3827,3820,0,0,27,,,,,,,0,0,0,-0.00,-3.00,-1293.00,0.00,0.00,-1198.00,14,19.00,0.00,0.53,0.00,0.00,0.00,0,,,100,100,0,2,0,0,0,1,0,,,,,0.0,0.0,0.0,0.0,0.0,0.0,0
34.182599,-118.129083,1.90,2.00,0.00,0.05,1.90,1.90,0.50,0.10,4903,2022-06-08 00:09:15.768,2022-06-07 17:09:15.768,14,0,0,15.093,34.182598,-118.129084,0.00,0.00,0.00,0.00,0.00,-136.90,0,1,0,42,100,-7858,1443,15093,3211.50,10,WP,1,0,0,0,0,0,0,1654646955767,3826,3828,3827,3820,0,0,27,,,,,,,0,0,0,-0.00,0.00,-1369.00,0.00,0.00,-1275.00,14,19.00,0.00,0.47,0.00,0.00,0.00,0,,,100,100,0,2,0,0,0,1,0,,,,,0.0,0.0,0.0,0.0,0.0,0.0,0
34.182599,-118.129083,1.90,2.00,0.00,0.06,1.90,1.90,0.50,0.10,5004,2022-06-08 00:09:15.868,2022-06-07 17:09:15.868,14,0,0,15.093,34.182598,-118.129084,0.00,0.00,0.00,0.10,0.40,-144.50,0,1,0,42,100,-7858,1443,15093,3211.50,10,WP,1,0,0,0,0,0,0,1654646955868,3826,3828,3827,3820,0,0,27,,,,,,,0,0,0,-1.00,4.00,-1445.00,0.00,0.00,-1352.00,14,19.00,0.00,0.59,0.00,0.00,0.00,0,,,100,100,0,2,0,0,0,1,0,,,,,0.0,0.0,0.0,0.0,0.0,0.0,0
34.182599,-118.129083,1.90,2.00,0.00,0.06,1.90,1.90,0.50,0.10,5103,2022-06-08 00:09:15.968,2022-06-07 17:09:15.968,14,0,0,15.093,34.182598,-118.129084,0.00,0.00,0.00,0.10,0.80,-152.00,0,1,0,42,100,-7858,1443,15093,3211.50,10,WP,1,0,0,0,0,0,0,1654646955967,3826,3828,3827,3820,0,0,27,,,,,,,0,0,0,-1.00,8.00,-1520.00,0.00,0.00,-1428.00,14,19.00,0.00,0.56,0.00,0.00,0.00,0,,,100,100,0,2,0,0,0,1,0,,,,,0.0,0.0,0.0,0.0,0.0,0.0,0
34.182599,-118.129083,1.90,2.00,0.00,0.04,1.90,1.90,0.50,0.10,5203,2022-06-08 00:09:16.067,2022-06-07 17:09:16.067,14,0,0,15.093,34.182598,-118.129084,0.00,0.00,0.00,0.50,0.70,-158.70,0,1,0,42,100,-7858,1443,15093,3211.50,10,WP,1,0,0,0,0,0,0,1654646956067,3826,3828,3827,3820,0,0,27,,,,,,,0,0,0,-5.00,7.00,-1587.00,0.00,0.00,-1504.00,14,19.00,0.00,0.44,0.00,0.00,0.00,0,,,100,100,0,2,0,0,0,1,0,,,,,0.0,0.0,0.0,0.0,0.0,0.0,0
34.182598,-118.129083,1.90,2.00,0.00,0.04,1.90,1.90,0.50,0.10,5303,2022-06-08 00:09:16.168,2022-06-07 17:09:16.168,14,0,0,15.093,34.182598,-118.129084,0.00,0.00,0.00,0.60,0.60,-163.50,0,1,0,42,100,-7858,1443,15093,3211.50,10,WP,1,0,0,0,0,0,0,1654646956167,3826,3828,3827,3820,0,0,27,,,,,,,0,0,0,-6.00,6.00,-1635.00,0.00,0.00,-1577.00,14,19.00,0.00,0.42,0.00,0.00,0.00,0,,,100,100,0,2,0,0,0,1,0,,,,,0.0,0.0,0.0,0.0,0.0,0.0,0
34.182598,-118.129083,1.90,2.00,0.00,0.05,1.90,1.90,0.50,0.10,5403,2022-06-08 00:09:16.267,2022-06-07 17:09:16.267,15,0,0,15.093,34.182598,-118.129084,0.00,0.00,0.00,0.50,0.60,-166.70,0,1,0,42,100,-7858,1443,15093,3211.50,10,WP,1,0,0,0,0,0,0,1654646956267,3826,3828,3827,3820,0,0,27,,,,,,,0,0,0,-5.00,6.00,-1667.00,0.00,0.00,-1635.00,14,19.00,0.00,0.55,0.00,0.00,0.00,0,,,100,100,0,2,0,0,0,1,0,,,,,0.0,0.0,0.0,0.0,0.0,0.0,0
34.182598,-118.129083,1.90,2.00,0.00,0.06,1.90,1.90,0.50,0.10,5503,2022-06-08 00:09:16.368,2022-06-07 17:09:16.368,15,0,0,15.093,34.182598,-118.129084,0.00,0.00,0.00,0.20,0.80,-168.70,0,1,0,42,100,-7858,1443,15093,3211.50,10,WP,1,0,0,0,0,0,0,1654646956367,3826,3828,3827,3820,0,0,27,,,,,,,0,0,0,-2.00,8.00,-1687.00,0.00,0.00,-1675.00,14,19.00,0.00,0.56,0.00,0.00,0.00,0,,,100,100,0,2,0,0,0,1,0,,,,,0.0,0.0,0.0,0.0,0.0,0.0,0
34.182598,-118.129083,1.90,2.00,0.00,0.07,1.90,1.90,0.50,0.10,5603,2022-06-08 00:09:16.468,2022-06-07 17:09:16.468,15,0,0,15.093,34.182598,-118.129084,0.00,0.00,0.00,0.00,0.90,-169.80,0,1,0,42,100,-7858,1443,15093,3211.50,10,WP,1,0,0,0,0,0,0,1654646956467,3826,3828,3827,3820,0,0,27,,,,,,,0,0,0,-0.00,9.00,-1698.00,0.00,0.00,-1702.00,14,19.00,0.00,0.66,0.00,0.00,0.00,0,,,100,100,0,2,0,0,0,1,0,,,,,0.0,0.0,0.0,0.0,0.0,0.0,0
34.182598,-118.129083,1.90,2.00,0.00,0.07,1.90,1.90,0.50,0.10,5703,2022-06-08 00:09:16.568,2022-06-07 17:09:16.568,15,0,0,15.056,34.182598,-118.129084,0.00,0.00,0.00,0.00,0.90,-170.40,0,1,0,42,100,-7881,1439,15056,3211.50,10,WP,1,0,0,0,0,0,0,1654646956567,3826,3828,3827,3820,0,0,27,,,,,,,0,0,0,-0.00,9.00,-1704.00,0.00,0.00,-1719.00,14,19.00,0.00,0.68,0.00,0.00,0.00,0,,,100,100,0,2,0,0,0,1,0,,,,,0.0,0.0,0.0,0.0,0.0,0.0,0
34.182598,-118.129083,1.90,2.00,0.00,0.07,1.90,1.90,0.50,0.10,5804,2022-06-08 00:09:16.668,2022-06-07 17:09:16.668,15,0,0,15.056,34.182598,-118.129084,0.00,0.00,0.00,0.00,0.90,-170.50,0,1,0,42,100,-7881,1439,15056,3211.50,10,WP,1,0,0,0,0,0,0,1654646956668,3826,3828,3827,3820,0,0,27,,,,,,,0,0,0,-0.00,9.00,-1705.00,0.00,0.00,-1730.00,14,19.00,0.00,0.67,0.00,0.00,0.00,0,,,100,100,0,2,0,0,0,1,0,,,,,0.0,0.0,0.0,0.0,0.0,0.0,0
34.182598,-118.129083,1.90,2.00,0.00,0.07,1.90,1.90,0.50,0.10,5905,2022-06-08 00:09:16.769,2022-06-07 17:09:16.769,15,0,0,15.056,34.182598,-118.129084,0.00,0.00,0.00,0.00,1.00,-170.40,0,1,0,42,100,-7881,1439,15056,3211.50,10,WP,1,0,0,0,0,0,0,1654646956769,3826,3828,3827,3820,0,0,27,,,,,,,0,0,0,-0.00,10.00,-1704.00,0.00,0.00,-1735.00,14,19.00,0.00,0.69,0.00,0.00,0.00,0,,,100,100,0,2,0,0,0,1,0,,,,,0.0,0.0,0.0,0.0,0.0,0.0,0
34.182598,-118.129083,1.90,2.00,0.00,0.08,1.90,1.90,0.50,0.10,6005,2022-06-08 00:09:16.869,2022-06-07 17:09:16.869,15,0,0,15.056,34.182598,-118.129084,0.00,0.00,0.00,0.00,1.10,-170.20,0,1,0,42,100,-7881,1439,15056,3211.50,10,WP,1,0,0,0,0,0,0,1654646956869,3826,3828,3827,3820,0,0,27,,,,,,,0,0,0,-0.00,11.00,-1702.00,0.00,0.00,-1737.00,14,19.00,0.00,0.85,0.00,0.00,0.00,0,,,100,100,0,2,0,0,0,1,0,,,,,0.0,0.0,0.0,0.0,0.0,0.0,0
34.182598,-118.129083,1.90,2.00,0.00,0.09,1.90,1.90,0.50,0.10,6104,2022-06-08 00:09:16.969,2022-06-07 17:09:16.969,15,0,0,15.056,34.182598,-118.129084,0.00,0.00,0.00,-2.10,0.80,-170.20,0,1,0,42,100,-7881,1439,15056,3211.50,10,WP,1,0,0,0,0,0,0,1654646956968,3826,3828,3827,3820,0,0,27,,,,,,,0,0,0,21.00,8.00,-1702.00,0.00,0.00,-1738.00,14,19.00,0.00,0.86,0.00,0.00,0.00,0,,,100,100,0,2,0,0,0,1,0,,,,,0.0,0.0,0.0,0.0,0.0,0.0,0
34.182598,-118.129083,1.90,2.00,0.00,0.09,1.90,1.90,0.50,0.10,6205,2022-06-08 00:09:17.069,2022-06-07 17:09:17.069,15,0,0,15.056,34.182598,-118.129084,0.00,0.00,0.00,-6.20,0.70,-170.20,0,1,0,42,100,-7881,1439,15056,3211.50,10,WP,1,0,0,0,0,0,0,1654646957069,3826,3828,3827,3820,0,0,27,,,,,,,0,0,0,62.00,7.00,-1702.00,0.00,0.00,-1738.00,14,19.00,0.00,0.91,0.00,0.00,0.00,0,,,100,100,0,2,0,0,0,1,0,,,,,0.0,0.0,0.0,0.0,0.0,0.0,0
34.182598,-118.129083,1.90,2.00,0.10,0.09,1.90,1.90,0.50,0.10,6305,2022-06-08 00:09:17.169,2022-06-07 17:09:17.169,15,0,0,15.056,34.182598,-118.129084,-0.10,0.00,0.00,-9.70,0.60,-170.20,0,1,0,42,100,-7881,1439,15056,3211.50,10,WP,1,0,0,0,0,0,0,1654646957169,3826,3828,3827,3820,0,0,27,,,,,,,0,0,0,97.00,6.00,-1702.00,0.00,0.00,-1738.00,14,19.00,1.00,0.92,-1.00,0.00,0.00,0,,,100,100,0,2,0,0,0,1,0,,,,,0.0,0.0,0.0,0.0,0.0,0.0,0
34.182598,-118.129083,1.90,2.00,0.30,0.09,1.90,1.90,0.50,0.10,6404,2022-06-08 00:09:17.269,2022-06-07 17:09:17.269,15,0,0,15.056,34.182598,-118.129084,-0.30,0.00,0.00,-12.20,0.30,-170.30,0,1,0,42,100,-7881,1439,15056,3211.50,10,WP,1,0,0,0,0,0,0,1654646957268,3826,3828,3827,3820,0,0,27,,,,,,,0,0,0,122.00,3.00,-1703.00,0.00,0.00,-1738.00,14,19.00,3.00,0.91,-3.00,0.00,0.00,0,,,100,100,0,2,0,0,0,1,0,,,,,0.0,0.0,0.0,0.0,0.0,0.0,0
34.182597,-118.129083,1.90,2.00,0.51,0.12,1.90,1.90,0.51,0.12,6504,2022-06-08 00:09:17.369,2022-06-07 17:09:17.369,15,0,0,15.056,34.182598,-118.129084,-0.50,-0.10,0.00,-13.30,0.30,-170.30,0,1,0,42,100,-7881,1439,15056,3211.50,10,WP,1,0,0,0,0,0,0,1654646957368,3826,3828,3827,3820,0,0,27,,,,,,,0,0,0,133.00,3.00,-1703.00,0.00,0.00,-1738.00,14,19.00,5.10,1.19,-5.00,-1.00,0.00,0,,,100,100,0,2,0,0,0,1,0,,,,,0.0,0.0,0.0,0.0,0.0,0.0,0
34.182597,-118.129083,1.90,2.00,0.71,0.16,1.90,1.90,0.71,0.16,6615,2022-06-08 00:09:17.479,2022-06-07 17:09:17.479,15,0,0,15.056,34.182598,-118.129084,-0.70,-0.10,0.00,-14.10,0.50,-170.30,0,1,0,42,100,-7881,1439,15056,3211.50,10,WP,1,0,0,0,0,0,0,1654646957479,3826,3828,3827,3820,0,0,27,,,,,,,0,0,0,141.00,5.00,-1703.00,0.00,0.00,-1738.00,14,19.00,7.07,1.61,-7.00,-1.00,0.00,0,,,100,100,0,2,0,0,0,1,0,,,,,0.0,0.0,0.0,0.0,0.0,0.0,0
34.182596,-118.129083,1.90,2.00,0.91,0.25,1.90,1.90,0.91,0.25,6705,2022-06-08 00:09:17.569,2022-06-07 17:09:17.569,15,0,0,15.056,34.182598,-118.129084,-0.90,-0.10,0.00,-14.60,0.60,-170.30,0,1,0,42,100,-7881,1439,15056,3211.50,10,WP,1,0,0,0,0,0,0,1654646957569,3826,3828,3827,3820,0,0,27,,,,,,,0,0,0,146.00,6.00,-1703.00,0.00,0.00,-1738.00,14,19.00,9.06,2.47,-9.00,-1.00,0.00,0,,,100,100,0,2,0,0,0,1,0,,,,,0.0,0.0,0.0,0.0,0.0,0.0,0
34.182595,-118.129083,1.90,2.00,1.22,0.35,1.90,1.90,1.22,0.35,6804,2022-06-08 00:09:17.669,2022-06-07 17:09:17.669,15,0,0,15.056,34.182598,-118.129084,-1.20,-0.20,0.00,-14.60,0.60,-170.30,0,1,0,42,100,-7881,1439,15056,3211.50,10,WP,1,0,0,0,0,0,0,1654646957668,3826,3828,3827,3820,0,0,27,,,,,,,0,0,0,146.00,6.00,-1703.00,0.00,0.00,-1738.00,14,19.00,12.17,3.48,-12.00,-2.00,0.00,0,,,100,100,0,2,0,0,0,1,0,,,,,0.0,0.0,0.0,0.0,0.0,0.0,0
34.182594,-118.129084,1.90,2.00,1.41,0.49,1.90,1.90,1.41,0.49,6904,2022-06-08 00:09:17.769,2022-06-07 17:09:17.769,15,0,0,15.056,34.182598,-118.129084,-1.40,-0.20,0.00,-13.50,0.90,-170.20,0,1,0,42,100,-7881,1439,15056,3211.50,10,WP,1,0,0,0,0,0,0,1654646957768,3826,3828,3827,3820,0,0,27,,,,,,,0,0,0,135.00,9.00,-1702.00,0.00,0.00,-1738.00,14,19.00,14.14,4.87,-14.00,-2.00,0.00,0,,,100,100,0,2,0,0,0,1,0,,,,,0.0,0.0,0.0,0.0,0.0,0.0,0
34.182593,-118.129084,1.90,2.00,1.61,0.62,1.90,1.90,1.61,0.62,7004,2022-06-08 00:09:17.869,2022-06-07 17:09:17.869,15,0,0,15.056,34.182598,-118.129084,-1.60,-0.20,0.00,-11.50,0.60,-170.10,0,1,0,42,100,-7881,1439,15056,3211.50,10,WP,1,0,0,0,0,0,0,1654646957868,3763,3765,3761,3754,0,0,27,,,,,,,0,0,0,115.00,6.00,-1701.00,0.00,0.00,-1738.00,14,19.00,16.12,6.23,-16.00,-2.00,0.00,0,,,100,100,0,2,0,0,0,1,0,,,,,0.0,0.0,0.0,0.0,0.0,0.0,0
34.182591,-118.129085,1.90,2.00,1.82,0.80,1.90,1.90,1.82,0.80,7104,2022-06-08 00:09:17.969,2022-06-07 17:09:17.969,15,0,0,15.056,34.182598,-118.129084,-1.80,-0.30,0.00,-7.40,0.80,-170.00,0,1,0,42,100,-7881,1439,15056,3211.50,10,WP,1,0,0,0,0,0,0,1654646957968,3763,3765,3761,3754,0,0,27,,,,,,,0,0,0,74.00,8.00,-1700.00,0.00,0.00,-1738.00,14,19.00,18.25,8.02,-18.00,-3.00,0.00,0,,,100,100,0,2,0,0,0,1,0,,,,,0.0,0.0,0.0,0.0,0.0,0.0,0
34.182590,-118.129086,1.90,2.00,1.92,0.99,1.90,1.90,1.92,0.99,7215,2022-06-08 00:09:18.079,2022-06-07 17:09:18.079,15,0,0,15.056,34.182598,-118.129084,-1.90,-0.30,0.00,-3.80,0.00,-169.90,0,1,0,42,100,-7881,1439,15056,3211.50,10,WP,1,0,0,0,0,0,0,1654646958079,3763,3765,3761,3754,0,0,27,,,,,,,0,0,0,38.00,0.00,-1699.00,0.00,0.00,-1738.00,14,19.00,19.24,9.90,-19.00,-3.00,0.00,0,,,100,100,0,2,0,0,0,1,0,,,,,0.0,0.0,0.0,0.0,0.0,0.0,0
34.182588,-118.129086,1.90,2.00,1.92,1.19,1.90,1.90,1.92,1.19,7304,2022-06-08 00:09:18.169,2022-06-07 17:09:18.169,15,0,0,15.056,34.182598,-118.129084,-1.90,-0.30,0.00,-1.10,0.10,-169.60,0,1,0,42,100,-7881,1439,15056,3211.50,10,WP,1,0,0,0,0,0,0,1654646958168,3763,3765,3761,3754,0,0,27,,,,,,,0,0,0,11.00,1.00,-1696.00,0.00,0.00,-1738.00,14,19.00,19.24,11.85,-19.00,-3.00,0.00,0,,,100,100,0,2,0,0,0,1,0,,,,,0.0,0.0,0.0,0.0,0.0,0.0,0
34.182586,-118.129087,1.90,2.00,1.92,1.36,1.90,1.90,1.92,1.36,7404,2022-06-08 00:09:18.269,2022-06-07 17:09:18.269,15,0,0,15.056,34.182598,-118.129084,-1.90,-0.30,0.00,0.20,-0.80,-169.80,0,1,0,42,100,-7881,1439,15056,3211.50,10,WP,1,0,0,0,0,0,0,1654646958268,3763,3765,3761,3754,0,0,27,,,,,,,0,0,0,-2.00,-8.00,-1698.00,0.00,0.00,-1738.00,14,19.00,19.24,13.64,-19.00,-3.00,0.00,0,,,100,100,0,2,0,0,0,1,0,,,,,0.0,0.0,0.0,0.0,0.0,0.0,0
34.182585,-118.129088,1.90,2.00,1.82,1.55,1.90,1.90,1.92,1.55,7505,2022-06-08 00:09:18.369,2022-06-07 17:09:18.369,15,0,0,15.056,34.182598,-118.129084,-1.80,-0.30,0.00,1.30,-0.60,-169.50,0,1,0,42,100,-7881,1439,15056,3211.50,10,WP,1,0,0,0,0,0,0,1654646958369,3763,3765,3761,3754,0,0,27,,,,,,,0,0,0,-13.00,-6.00,-1695.00,0.00,0.00,-1738.00,14,19.00,18.25,15.55,-18.00,-3.00,0.00,0,,,100,100,0,2,0,0,0,1,0,,,,,0.0,0.0,0.0,0.0,0.0,0.0,0
34.182583,-118.129089,1.90,2.00,1.81,1.73,1.90,1.90,1.92,1.73,7604,2022-06-08 00:09:18.469,2022-06-07 17:09:18.469,15,0,0,15.056,34.182598,-118.129084,-1.80,-0.20,0.00,2.00,-1.30,-169.70,0,1,0,42,100,-7881,1439,15056,3211.50,10,WP,1,0,0,0,0,0,0,1654646958468,3763,3765,3761,3754,0,0,27,,,,,,,0,0,0,-20.00,-13.00,-1697.00,0.00,0.00,-1738.00,14,19.00,18.11,17.26,-18.00,-2.00,0.00,0,,,100,100,0,2,0,0,0,1,0,,,,,0.0,0.0,0.0,0.0,0.0,0.0,0
34.182582,-118.129089,1.90,2.00,1.71,1.90,1.90,1.90,1.92,1.90,7704,2022-06-08 00:09:18.569,2022-06-07 17:09:18.569,15,0,0,15.034,34.182598,-118.129084,-1.70,-0.20,0.00,2.50,-1.00,-169.50,0,1,0,41,100,-8294,1434,15034,3211.50,10,WP,1,0,0,0,0,0,0,1654646958568,3763,3765,3761,3754,0,0,27,,,,,,,0,0,0,-25.00,-10.00,-1695.00,0.00,0.00,-1738.00,14,19.00,17.12,19.04,-17.00,-2.00,0.00,0,,,100,100,0,2,0,0,0,1,0,,,,,0.0,0.0,0.0,0.0,0.0,0.0,0
34.182580,-118.129090,1.90,2.00,1.71,2.08,1.90,1.90,1.92,2.08,7805,2022-06-08 00:09:18.669,2022-06-07 17:09:18.669,15,0,0,15.034,34.182598,-118.129084,-1.70,-0.20,0.00,3.00,-1.80,-169.80,0,1,0,41,100,-8294,1434,15034,3211.50,10,WP,1,0,0,0,0,0,0,1654646958669,3763,3765,3761,3754,0,0,27,,,,,,,0,0,0,-30.00,-18.00,-1698.00,0.00,0.00,-1738.00,14,19.00,17.12,20.80,-17.00,-2.00,0.00,0,,,100,100,0,2,0,0,0,1,0,,,,,0.0,0.0,0.0,0.0,0.0,0.0,0
34.182579,-118.129090,1.90,2.00,1.60,2.24,1.90,1.90,1.92,2.24,7904,2022-06-08 00:09:18.769,2022-06-07 17:09:18.769,15,0,0,15.034,34.182598,-118.129084,-1.60,-0.10,0.00,3.40,-1.90,-169.70,0,1,0,41,100,-8294,1434,15034,3211.50,10,WP,1,0,0,0,0,0,0,1654646958768,3763,3765,3761,3754,0,0,27,,,,,,,0,0,0,-34.00,-19.00,-1697.00,0.00,0.00,-1738.00,14,19.00,16.03,22.44,-16.00,-1.00,0.00,0,,,100,100,0,2,0,0,0,1,0,,,,,0.0,0.0,0.0,0.0,0.0,0.0,0
34.182577,-118.129091,1.90,2.00,1.50,2.42,1.90,1.90,1.92,2.42,8005,2022-06-08 00:09:18.869,2022-06-07 17:09:18.869,15,0,0,15.034,34.182598,-118.129084,-1.50,-0.10,0.00,4.30,-2.10,-170.00,0,1,0,41,100,-8294,1434,15034,3211.50,10,WP,1,0,0,0,0,0,0,1654646958869,3763,3765,3761,3754,0,0,27,,,,,,,0,0,0,-43.00,-21.00,-1700.00,0.00,0.00,-1738.00,14,19.00,15.03,24.17,-15.00,-1.00,0.00,0,,,100,100,0,2,0,0,0,1,0,,,,,0.0,0.0,0.0,0.0,0.0,0.0,0
34.182576,-118.129091,1.90,2.00,1.40,2.56,1.90,1.90,1.92,2.56,8115,2022-06-08 00:09:18.980,2022-06-07 17:09:18.980,15,0,0,15.034,34.182598,-118.129084,-1.40,0.00,0.00,4.40,-2.00,-169.90,0,1,0,41,100,-8294,1434,15034,3211.50,10,WP,1,0,0,0,0,0,0,1654646958979,3763,3765,3761,3754,0,0,27,,,,,,,0,0,0,-44.00,-20.00,-1699.00,0.00,0.00,-1738.00,14,19.00,14.00,25.63,-14.00,0.00,0.00,0,,,100,100,0,2,0,0,0,1,0,,,,,0.0,0.0,0.0,0.0,0.0,0.0,0
34.182575,-118.129092,1.90,2.00,1.30,2.70,1.90,1.90,1.92,2.70,8205,2022-06-08 00:09:19.069,2022-06-07 17:09:19.069,15,0,0,15.034,34.182598,-118.129084,-1.30,0.00,0.00,4.30,-2.20,-170.00,0,1,0,41,100,-8294,1434,15034,3211.50,10,WP,1,0,0,0,0,0,0,1654646959069,3763,3765,3761,3754,0,0,27,,,,,,,0,0,0,-43.00,-22.00,-1700.00,0.00,0.00,-1738.00,14,19.00,13.00,27.00,-13.00,0.00,0.00,0,,,100,100,0,2,0,0,0,1,0,,,,,0.0,0.0,0.0,0.0,0.0,0.0,0
34.182574,-118.129092,1.90,2.00,1.20,2.83,1.90,1.90,1.92,2.83,8305,2022-06-08 00:09:19.169,2022-06-07 17:09:19.169,15,0,0,15.034,34.182598,-118.129084,-1.20,0.00,0.00,4.00,-1.70,-170.00,0,1,0,41,100,-8294,1434,15034,3211.50,10,WP,1,0,0,0,0,0,0,1654646959169,3763,3765,3761,3754,0,0,27,,,,,,,0,0,0,-40.00,-17.00,-1700.00,0.00,0.00,-1738.00,14,19.00,12.00,28.26,-12.00,0.00,0.00,0,,,100,100,0,2,0,0,0,1,0,,,,,0.0,0.0,0.0,0.0,0.0,0.0,0
34.182572,-118.129092,1.90,2.10,1.20,2.97,1.90,1.90,1.92,2.97,8405,2022-06-08 00:09:19.270,2022-06-07 17:09:19.270,15,0,0,15.034,34.182598,-118.129084,-1.20,0.10,0.00,4.30,-0.40,-170.00,0,1,0,41,100,-8294,1434,15034,3211.50,10,WP,1,0,0,0,0,0,0,1654646959269,3763,3765,3761,3754,0,0,27,,,,,,,0,0,0,-43.00,-4.00,-1700.00,0.00,0.00,-1738.00,14,19.00,12.04,29.73,-12.00,1.00,0.00,0,,,100,100,0,2,0,0,0,1,0,,,,,0.0,0.0,0.0,0.0,0.0,0.0,0
34.182571,-118.129092,1.90,2.10,1.10,3.08,1.90,1.90,1.92,3.08,8506,2022-06-08 00:09:19.370,2022-06-07 17:09:19.370,15,0,0,15.034,34.182598,-118.129084,-1.10,0.10,0.00,3.70,0.10,-169.90,0,1,0,41,100,-8294,1434,15034,3211.50,10,WP,1,0,0,0,0,0,0,1654646959370,3763,3765,3761,3754,0,0,27,,,,,,,0,0,0,-37.00,1.00,-1699.00,0.00,0.00,-1738.00,14,19.00,11.05,30.83,-11.00,1.00,0.00,0,,,100,100,0,2,0,0,0,1,0,,,,,0.0,0.0,0.0,0.0,0.0,0.0,0
34.182570,-118.129092,1.90,2.10,1.00,3.19,1.90,1.90,1.92,3.19,8605,2022-06-08 00:09:19.469,2022-06-07 17:09:19.469,15,0,0,15.034,34.182598,-118.129084,-1.00,0.10,0.00,3.40,0.60,-170.00,0,1,0,41,100,-8294,1434,15034,3211.50,10,WP,1,0,0,0,0,0,0,1654646959469,3763,3765,3761,3754,0,0,27,,,,,,,0,0,0,-34.00,6.00,-1700.00,0.00,0.00,-1738.00,14,19.00,10.05,31.95,-10.00,1.00,0.00,0,,,100,100,0,2,0,0,0,1,0,,,,,0.0,0.0,0.0,0.0,0.0,0.0,0
34.182570,-118.129092,1.90,2.00,0.91,3.29,1.90,1.90,1.92,3.29,8706,2022-06-08 00:09:19.570,2022-06-07 17:09:19.570,15,0,0,15.034,34.182598,-118.129084,-0.90,0.10,0.00,2.90,0.80,-169.90,0,1,0,41,100,-8294,1434,15034,3211.50,10,WP,1,0,0,0,0,0,0,1654646959570,3763,3765,3761,3754,0,0,27,,,,,,,0,0,0,-29.00,8.00,-1699.00,0.00,0.00,-1738.00,14,19.00,9.06,32.90,-9.00,1.00,0.00,0,,,100,100,0,2,0,0,0,1,0,,,,,0.0,0.0,0.0,0.0,0.0,0.0,0
34.182569,-118.129092,1.90,2.00,0.91,3.39,1.90,1.90,1.92,3.39,8806,2022-06-08 00:09:19.670,2022-06-07 17:09:19.670,15,0,0,15.034,34.182598,-118.129084,-0.90,0.10,0.00,2.80,1.30,-170.00,0,1,0,41,100,-8294,1434,15034,3211.50,10,WP,1,0,0,0,0,0,0,1654646959670,3763,3765,3761,3754,0,0,27,,,,,,,0,0,0,-28.00,13.00,-1700.00,0.00,0.00,-1738.00,14,19.00,9.06,33.90,-9.00,1.00,0.00,0,,,100,100,0,2,0,0,0,1,0,,,,,0.0,0.0,0.0,0.0,0.0,0.0,0
34.182568,-118.129092,1.90,2.00,0.81,3.47,1.90,1.90,1.92,3.47,8905,2022-06-08 00:09:19.769,2022-06-07 17:09:19.769,15,0,0,15.034,34.182598,-118.129084,-0.80,0.10,0.00,2.50,1.40,-170.00,0,1,0,41,100,-8294,1434,15034,3211.50,10,WP,1,0,0,0,0,0,0,1654646959769,3763,3765,3761,3754,0,0,27,,,,,,,0,0,0,-25.00,14.00,-1700.00,0.00,0.00,-1738.00,14,19.00,8.06,34.73,-8.00,1.00,0.00,0,,,100,100,0,2,0,0,0,1,0,,,,,0.0,0.0,0.0,0.0,0.0,0.0,0
34.182567,-118.129092,1.90,2.00,0.71,3.57,1.90,1.90,1.92,3.57,9006,2022-06-08 00:09:19.870,2022-06-07 17:09:19.870,15,0,0,15.034,34.182598,-118.129084,-0.70,0.10,0.00,3.00,2.20,-170.00,0,1,0,41,100,-8294,1434,15034,3211.50,10,WP,1,0,0,0,0,0,0,1654646959870,3763,3765,3761,3754,0,0,27,,,,,,,0,0,0,-30.00,22.00,-1700.00,0.00,0.00,-1738.00,14,19.00,7.07,35.72,-7.00,1.00,0.00,0,,,100,100,0,2,0,0,0,1,0,,,,,0.0,0.0,0.0,0.0,0.0,0.0,0
34.182566,-118.129092,1.90,2.10,0.71,3.65,1.90,1.90,1.92,3.65,9105,2022-06-08 00:09:19.970,2022-06-07 17:09:19.970,15,0,0,15.034,34.182598,-118.129084,-0.70,0.10,0.00,3.50,2.20,-169.90,0,1,0,41,100,-8294,1434,15034,3211.50,10,WP,1,0,0,0,0,0,0,1654646959969,3763,3765,3761,3754,0,0,27,,,,,,,0,0,0,-35.00,22.00,-1699.00,0.00,0.00,-1738.00,14,19.00,7.07,36.46,-7.00,1.00,0.00,0,,,100,100,0,2,0,0,0,1,0,,,,,0.0,0.0,0.0,0.0,0.0,0.0,0
34.182565,-118.129091,1.90,2.10,0.61,3.72,1.90,1.90,1.92,3.72,9206,2022-06-08 00:09:20.070,2022-06-07 17:09:20.070,15,0,0,15.034,34.182598,-118.129084,-0.60,0.10,0.00,4.10,3.00,-169.90,0,1,0,41,100,-8294,1434,15034,3211.50,10,WP,1,0,0,0,0,0,0,1654646960070,3763,3765,3761,3754,0,0,27,,,,,,,0,0,0,-41.00,30.00,-1699.00,0.00,0.00,-1738.00,14,19.00,6.08,37.20,-6.00,1.00,0.00,0,,,100,100,0,2,0,0,0,1,0,,,,,0.0,0.0,0.0,0.0,0.0,0.0,0
34.182565,-118.129091,1.90,2.10,0.51,3.78,1.90,1.90,1.92,3.78,9306,2022-06-08 00:09:20.170,2022-06-07 17:09:20.170,15,0,0,15.034,34.182598,-118.129084,-0.50,0.10,0.00,4.40,2.50,-170.00,0,1,0,41,100,-8294,1434,15034,3211.50,10,WP,1,0,0,0,0,0,0,1654646960170,3763,3765,3761,3754,0,0,27,,,,,,,0,0,0,-44.00,25.00,-1700.00,0.00,0.00,-1738.00,14,19.00,5.10,37.80,-5.00,1.00,0.00,0,,,100,100,0,2,0,0,0,1,0,,,,,0.0,0.0,0.0,0.0,0.0,0.0,0
34.182564,-118.129091,1.90,2.10,0.41,3.82,1.90,1.90,1.92,3.82,9406,2022-06-08 00:09:20.270,2022-06-07 17:09:20.270,15,0,0,15.034,34.182598,-118.129084,-0.40,0.10,0.00,4.20,2.50,-170.00,0,1,0,41,100,-8294,1434,15034,3211.50,10,WP,1,0,0,0,0,0,0,1654646960270,3763,3765,3761,3754,0,0,27,,,,,,,0,0,0,-42.00,25.00,-1700.00,0.00,0.00,-1738.00,14,19.00,4.12,38.22,-4.00,1.00,0.00,0,,,100,100,0,2,0,0,0,1,0,,,,,0.0,0.0,0.0,0.0,0.0,0.0,0
34.182564,-118.129091,1.90,2.10,0.40,3.87,1.90,1.90,1.92,3.87,9506,2022-06-08 00:09:20.370,2022-06-07 17:09:20.370,15,0,0,15.034,34.182598,-118.129084,-0.40,0.00,0.00,3.90,2.00,-170.00,0,1,0,41,100,-8294,1434,15034,3211.50,10,WP,1,0,0,0,0,0,0,1654646960370,3763,3765,3761,3754,0,0,27,,,,,,,0,0,0,-39.00,20.00,-1700.00,0.00,0.00,-1738.00,14,19.00,4.00,38.67,-4.00,0.00,0.00,0,,,100,100,0,2,0,0,0,1,0,,,,,0.0,0.0,0.0,0.0,0.0,0.0,0
34.182564,-118.129091,1.90,2.10,0.30,3.91,1.90,1.90,1.92,3.91,9606,2022-06-08 00:09:20.470,2022-06-07 17:09:20.470,15,0,0,15.034,34.182598,-118.129084,-0.30,0.00,0.00,5.60,3.10,-169.80,0,1,0,41,100,-8294,1434,15034,3211.50,10,WP,1,0,0,0,0,0,0,1654646960470,3763,3765,3761,3754,0,0,27,,,,,,,0,0,0,-56.00,31.00,-1698.00,0.00,0.00,-1738.00,14,19.00,3.00,39.08,-3.00,0.00,0.00,0,,,100,100,0,2,0,0,0,1,0,,,,,0.0,0.0,0.0,0.0,0.0,0.0,0
34.182563,-118.129091,1.90,2.10,0.20,3.94,1.90,1.90,1.92,3.94,9706,2022-06-08 00:09:20.570,2022-06-07 17:09:20.570,15,0,0,15.023,34.182598,-118.129084,-0.20,0.00,0.00,4.70,2.40,-169.90,0,1,0,41,100,-8044,1430,15023,3211.50,10,WP,1,0,0,0,0,0,0,1654646960570,3763,3765,3761,3754,0,0,27,,,,,,,0,0,0,-47.00,24.00,-1699.00,0.00,0.00,-1738.00,14,19.00,2.00,39.37,-2.00,0.00,0.00,0,,,100,100,0,2,0,0,0,1,0,,,,,0.0,0.0,0.0,0.0,0.0,0.0,0
34.182563,-118.129091,1.90,2.10,0.10,3.96,1.90,1.90,1.92,3.96,9806,2022-06-08 00:09:20.670,2022-06-07 17:09:20.670,15,0,0,15.023,34.182598,-118.129084,-0.10,0.00,0.00,3.20,1.60,-169.90,0,1,0,41,100,-8044,1430,15023,3211.50,10,WP,1,0,0,0,0,0,0,1654646960670,3763,3765,3761,3754,0,0,27,,,,,,,0,0,0,-32.00,16.00,-1699.00,0.00,0.00,-1738.00,14,19.00,1.00,39.56,-1.00,0.00,0.00,0,,,100,100,0,2,0,0,0,1,0,,,,,0.0,0.0,0.0,0.0,0.0,0.0,0
34.182563,-118.129091,1.90,2.10,0.00,3.97,1.90,1.90,1.92,3.97,9906,2022-06-08 00:09:20.771,2022-06-07 17:09:20.771,15,0,0,15.023,34.182598,-118.129084,0.00,0.00,0.00,2.10,1.00,-167.30,0,1,0,41,100,-8044,1430,15023,3211.50,10,WP,1,0,0,0,0,0,0,1654646960770,3763,3765,3761,3754,0,0,27,,,,,,,0,0,0,-21.00,10.00,-1673.00,0.00,0.00,-1738.00,14,19.00,0.00,39.70,0.00,0.00,0.00,0,,,100,100,0,2,0,0,0,1,0,,,,,0.0,0.0,0.0,0.0,0.0,0.0,0
34.182563,-118.129091,1.90,2.10,0.00,3.98,1.90,1.90,1.92,3.98,10006,2022-06-08 00:09:20.871,2022-06-07 17:09:20.871,15,0,0,15.023,34.182598,-118.129084,0.00,0.00,0.00,1.30,1.20,-159.60,0,1,0,41,100,-8044,1430,15023,3211.50,10,WP,1,0,0,0,0,0,0,1654646960870,3763,3765,3761,3754,0,0,27,,,,,,,0,0,0,-13.00,12.00,-1596.00,0.00,0.00,-1738.00,14,19.00,0.00,39.79,0.00,0.00,0.00,0,,,100,100,0,2,0,0,0,1,0,,,,,0.0,0.0,0.0,0.0,0.0,0.0,0
34.182563,-118.129091,1.90,2.10,0.00,3.99,1.90,1.90,1.92,3.99,10106,2022-06-08 00:09:20.971,2022-06-07 17:09:20.971,15,0,0,15.023,34.182598,-118.129084,0.00,0.00,0.00,0.70,1.30,-152.00,0,1,0,41,100,-8044,1430,15023,3211.50,10,WP,1,0,0,0,0,0,0,1654646960970,3763,3765,3761,3754,0,0,27,,,,,,,0,0,0,-7.00,13.00,-1520.00,0.00,0.00,-1719.00,14,19.00,0.00,39.87,0.00,0.00,0.00,0,,,100,100,0,2,0,0,0,1,0,,,,,0.0,0.0,0.0,0.0,0.0,0.0,0
34.182563,-118.129091,1.90,2.10,0.00,3.97,1.90,1.90,1.92,3.99,10206,2022-06-08 00:09:21.071,2022-06-07 17:09:21.071,15,0,0,15.023,34.182598,-118.129084,0.00,0.00,0.00,0.30,1.40,-144.40,0,1,0,41,100,-8044,1430,15023,3211.50,10,WP,1,0,0,0,0,0,0,1654646961070,3763,3765,3761,3754,0,0,27,,,,,,,0,0,0,-3.00,14.00,-1444.00,0.00,0.00,-1647.00,14,19.00,0.00,39.73,0.00,0.00,0.00,0,,,100,100,0,2,0,0,0,1,0,,,,,0.0,0.0,0.0,0.0,0.0,0.0,0
34.182563,-118.129091,1.90,2.10,0.00,3.97,1.90,1.90,1.92,3.99,10308,2022-06-08 00:09:21.172,2022-06-07 17:09:21.172,15,0,0,15.023,34.182598,-118.129084,0.00,0.00,0.00,0.00,1.10,-136.90,0,1,0,41,100,-8044,1430,15023,3211.50,10,WP,1,0,0,0,0,0,0,1654646961172,3763,3765,3761,3754,0,0,27,,,,,,,0,0,0,-0.00,11.00,-1369.00,0.00,0.00,-1560.00,14,19.00,0.00,39.74,0.00,0.00,0.00,0,,,100,100,0,2,0,0,0,1,0,,,,,0.0,0.0,0.0,0.0,0.0,0.0,0
34.182563,-118.129090,1.90,2.10,0.00,3.96,1.90,1.90,1.92,3.99,10407,2022-06-08 00:09:21.271,2022-06-07 17:09:21.271,15,0,0,15.023,34.182598,-118.129084,0.00,0.00,0.00,0.00,0.70,-129.40,0,1,0,41,100,-8044,1430,15023,3211.50,10,WP,1,0,0,0,0,0,0,1654646961271,3763,3765,3761,3754,0,0,27,,,,,,,0,0,0,-0.00,7.00,-1294.00,0.00,0.00,-1477.00,14,19.00,0.00,39.61,0.00,0.00,0.00,0,,,100,100,0,2,0,0,0,1,0,,,,,0.0,0.0,0.0,0.0,0.0,0.0,0
34.182563,-118.129091,1.90,2.10,0.00,3.96,1.90,1.90,1.92,3.99,10507,2022-06-08 00:09:21.372,2022-06-07 17:09:21.372,15,0,0,15.023,34.182598,-118.129084,0.00,0.00,0.00,-0.10,0.30,-121.90,0,1,0,41,100,-8044,1430,15023,3211.50,10,WP,1,0,0,0,0,0,0,1654646961371,3763,3765,3761,3754,0,0,27,,,,,,,0,0,0,1.00,3.00,-1219.00,0.00,0.00,-1396.00,14,19.00,0.00,39.58,0.00,0.00,0.00,0,,,100,100,0,2,0,0,0,1,0,,,,,0.0,0.0,0.0,0.0,0.0,0.0,0
34.182563,-118.129090,1.90,2.00,0.00,3.94,1.90,1.90,1.92,3.99,10606,2022-06-08 00:09:21.471,2022-06-07 17:09:21.471,15,0,0,15.023,34.182598,-118.129084,0.00,0.00,0.00,-0.20,0.00,-114.30,0,1,0,41,100,-8044,1430,15023,3211.50,10,WP,1,0,0,0,0,0,0,1654646961470,3763,3765,3761,3754,0,0,27,,,,,,,0,0,0,2.00,0.00,-1143.00,0.00,0.00,-1318.00,14,19.00,0.00,39.36,0.00,0.00,0.00,0,,,100,100,0,2,0,0,0,1,0,,,,,0.0,0.0,0.0,0.0,0.0,0.0,0
34.182563,-118.129090,1.90,2.00,0.00,3.93,1.90,1.90,1.92,3.99,10708,2022-06-08 00:09:21.572,2022-06-07 17:09:21.572,15,0,0,15.023,34.182598,-118.129084,0.00,0.00,0.00,-0.10,-0.20,-106.80,0,1,0,41,100,-8044,1430,15023,3211.50,10,WP,1,0,0,0,0,0,0,1654646961572,3763,3765,3761,3754,0,0,27,,,,,,,0,0,0,1.00,-2.00,-1068.00,0.00,0.00,-1240.00,14,19.00,0.00,39.30,0.00,0.00,0.00,0,,,100,100,0,2,0,0,0,1,0,,,,,0.0,0.0,0.0,0.0,0.0,0.0,0
34.182564,-118.129090,1.90,2.00,0.00,3.91,1.90,1.90,1.92,3.99,10807,2022-06-08 00:09:21.672,2022-06-07 17:09:21.672,15,0,0,15.023,34.182598,-118.129084,0.00,0.00,0.00,-0.10,-0.40,-99.30,0,1,0,41,100,-8044,1430,15023,3211.50,10,WP,1,0,0,0,0,0,0,1654646961671,3763,3765,3761,3754,0,0,27,,,,,,,0,0,0,1.00,-4.00,-993.00,0.00,0.00,-1163.00,14,19.00,0.00,39.09,0.00,0.00,0.00,0,,,100,100,0,2,0,0,0,1,0,,,,,0.0,0.0,0.0,0.0,0.0,0.0,0
34.182564,-118.129090,1.90,2.00,0.00,3.90,1.90,1.90,1.92,3.99,10907,2022-06-08 00:09:21.772,2022-06-07 17:09:21.772,15,0,0,15.023,34.182598,-118.129084,0.00,0.00,0.00,-0.10,-0.60,-91.70,0,1,0,41,100,-8044,1430,15023,3211.50,10,WP,1,0,0,0,0,0,0,1654646961771,3763,3765,3761,3754,0,0,27,,,,,,,0,0,0,1.00,-6.00,-917.00,0.00,0.00,-1086.00,14,19.00,0.00,39.01,0.00,0.00,0.00,0,,,100,100,0,2,0,0,0,1,0,,,,,0.0,0.0,0.0,0.0,0.0,0.0,0
34.182564,-118.129090,1.90,2.00,0.00,3.89,1.90,1.90,1.92,3.99,11008,2022-06-08 00:09:21.872,2022-06-07 17:09:21.872,15,0,0,15.023,34.182598,-118.129084,0.00,0.00,0.00,0.00,-0.70,-84.10,0,1,0,41,100,-8044,1430,15023,3211.50,10,WP,1,0,0,0,0,0,0,1654646961872,3763,3765,3761,3754,0,0,27,,,,,,,0,0,0,-0.00,-7.00,-841.00,0.00,0.00,-1009.00,14,19.00,0.00,38.93,0.00,0.00,0.00,0,,,100,100,0,2,0,0,0,1,0,,,,,0.0,0.0,0.0,0.0,0.0,0.0,0
34.182564,-118.129090,1.90,2.00,0.00,3.88,1.90,1.90,1.92,3.99,11107,2022-06-08 00:09:21.972,2022-06-07 17:09:21.972,15,0,0,15.023,34.182598,-118.129084,0.00,0.00,0.00,0.00,-0.80,-76.70,0,1,0,41,100,-8044,1430,15023,3211.50,10,WP,1,0,0,0,0,0,0,1654646961971,3763,3765,3761,3754,0,0,27,,,,,,,0,0,0,-0.00,-8.00,-767.00,0.00,0.00,-933.00,14,19.00,0.00,38.84,0.00,0.00,0.00,0,,,100,100,0,2,0,0,0,1,0,,,,,0.0,0.0,0.0,0.0,0.0,0.0,0
34.182564,-118.129090,1.90,2.00,0.00,3.88,1.90,1.90,1.92,3.99,11208,2022-06-08 00:09:22.072,2022-06-07 17:09:22.072,15,0,0,15.023,34.182598,-118.129084,0.00,0.00,0.00,0.10,-1.00,-69.10,0,1,0,41,100,-8044,1430,15023,3211.50,10,WP,1,0,0,0,0,0,0,1654646962072,3763,3765,3761,3754,0,0,27,,,,,,,0,0,0,-1.00,-10.00,-691.00,0.00,0.00,-857.00,14,19.00,0.00,38.79,0.00,0.00,0.00,0,,,100,100,0,2,0,0,0,1,0,,,,,0.0,0.0,0.0,0.0,0.0,0.0,0
34.182564,-118.129090,1.90,2.00,0.00,3.87,1.90,1.90,1.92,3.99,11307,2022-06-08 00:09:22.172,2022-06-07 17:09:22.172,15,0,0,15.023,34.182598,-118.129084,0.00,0.00,0.00,0.20,-1.20,-61.50,0,1,0,41,100,-8044,1430,15023,3211.50,10,WP,1,0,0,0,0,0,0,1654646962171,3763,3765,3761,3754,0,0,27,,,,,,,0,0,0,-2.00,-12.00,-615.00,0.00,0.00,-780.00,14,19.00,0.00,38.71,0.00,0.00,0.00,0,,,100,100,0,2,0,0,0,1,0,,,,,0.0,0.0,0.0,0.0,0.0,0.0,0
34.182564,-118.129090,1.90,2.00,0.00,3.87,1.90,1.90,1.92,3.99,11408,2022-06-08 00:09:22.272,2022-06-07 17:09:22.272,15,0,0,15.023,34.182598,-118.129084,0.00,0.00,0.00,0.40,-1.20,-54.10,0,1,0,41,100,-8044,1430,15023,3211.50,10,WP,1,0,0,0,0,0,0,1654646962272,3763,3765,3761,3754,0,0,27,,,,,,,0,0,0,-4.00,-12.00,-541.00,0.00,0.00,-705.00,14,19.00,0.00,38.68,0.00,0.00,0.00,0,,,100,100,0,2,0,0,0,1,0,,,,,0.0,0.0,0.0,0.0,0.0,0.0,0
34.182564,-118.129090,1.90,2.00,0.00,3.86,1.90,1.90,1.92,3.99,11507,2022-06-08 00:09:22.372,2022-06-07 17:09:22.372,15,0,0,15.023,34.182598,-118.129084,0.00,0.00,0.00,0.40,-1.10,-46.60,0,1,0,41,100,-8044,1430,15023,3211.50,10,WP,1,0,0,0,0,0,0,1654646962371,3763,3765,3761,3754,0,0,27,,,,,,,0,0,0,-4.00,-11.00,-466.00,0.00,0.00,-630.00,14,19.00,0.00,38.60,0.00,0.00,0.00,0,,,100,100,0,2,0,0,0,1,0,,,,,0.0,0.0,0.0,0.0,0.0,0.0,0
34.182564,-118.129090,1.90,2.00,0.00,3.84,1.90,1.90,1.92,3.99,11607,2022-06-08 00:09:22.471,2022-06-07 17:09:22.471,15,0,0,15.023,34.182598,-118.129084,0.00,0.00,0.00,0.50,-1.10,-39.10,0,1,0,41,100,-8044,1430,15023,3211.50,10,WP,1,0,0,0,0,0,0,1654646962471,3763,3765,3761,3754,0,0,27,,,,,,,0,0,0,-5.00,-11.00,-391.00,0.00,0.00,-630.00,14,19.00,0.00,38.45,0.00,0.00,0.00,0,,,100,100,0,2,0,0,0,1,0,,,,,0.0,0.0,0.0,0.0,0.0,0.0,0
34.182564,-118.129090,1.90,2.00,0.00,3.84,1.90,1.90,1.92,3.99,11708,2022-06-08 00:09:22.572,2022-06-07 17:09:22.572,15,0,0,15.028,34.182598,-118.129084,0.00,0.00,0.00,0.50,-1.10,-31.90,0,1,0,41,100,-8021,1425,15028,3211.50,10,WP,1,0,0,0,0,0,0,1654646962572,3763,3765,3761,3754,0,0,27,,,,,,,0,0,0,-5.00,-11.00,-319.00,0.00,0.00,-480.00,14,19.00,0.00,38.36,0.00,0.00,0.00,0,,,100,100,0,2,0,0,0,1,0,,,,,0.0,0.0,0.0,0.0,0.0,0.0,0
34.182564,-118.129090,1.90,2.00,0.00,3.83,1.90,1.90,1.92,3.99,11807,2022-06-08 00:09:22.672,2022-06-07 17:09:22.672,15,0,0,15.028,34.182598,-118.129084,0.00,0.00,0.00,0.70,-1.00,-25.70,0,1,0,41,100,-8021,1425,15028,3211.50,10,WP,1,0,0,0,0,0,0,1654646962671,3763,3765,3761,3754,0,0,27,,,,,,,0,0,0,-7.00,-10.00,-257.00,0.00,0.00,-406.00,14,19.00,0.00,38.31,0.00,0.00,0.00,0,,,100,100,0,2,0,0,0,1,0,,,,,0.0,0.0,0.0,0.0,0.0,0.0,0
34.182564,-118.129090,1.90,2.00,0.00,3.82,1.90,1.90,1.92,3.99,11908,2022-06-08 00:09:22.772,2022-06-07 17:09:22.772,15,0,0,15.028,34.182598,-118.129084,0.00,0.00,0.00,0.80,-1.10,-20.70,0,1,0,41,100,-8021,1425,15028,3211.50,10,WP,1,0,0,0,0,0,0,1654646962772,3763,3765,3761,3754,0,0,27,,,,,,,0,0,0,-8.00,-11.00,-207.00,0.00,0.00,-337.00,14,19.00,0.00,38.23,0.00,0.00,0.00,0,,,100,100,0,2,0,0,0,1,0,,,,,0.0,0.0,0.0,0.0,0.0,0.0,0
34.182564,-118.129090,1.90,2.00,0.00,3.84,1.90,1.90,1.92,3.99,12008,2022-06-08 00:09:22.872,2022-06-07 17:09:22.872,15,0,0,15.028,34.182598,-118.129084,0.00,0.00,0.00,0.90,-1.20,-16.70,0,1,0,41,100,-8021,1425,15028,3211.50,10,WP,1,0,0,0,0,0,0,1654646962872,3763,3765,3761,3754,0,0,27,,,,,,,0,0,0,-9.00,-12.00,-167.00,0.00,0.00,-281.00,14,19.00,0.00,38.37,0.00,0.00,0.00,0,,,100,100,0,2,0,0,0,1,0,,,,,0.0,0.0,0.0,0.0,0.0,0.0,0
34.182564,-118.129090,1.90,2.00,0.00,3.83,1.90,1.90,1.92,3.99,12108,2022-06-08 00:09:22.973,2022-06-07 17:09:22.973,15,0,0,15.028,34.182598,-118.129084,0.00,0.00,0.00,1.00,-1.20,-13.50,0,1,0,41,100,-8021,1425,15028,3211.50,10,WP,1,0,0,0,0,0,0,1654646962972,3763,3765,3761,3754,0,0,27,,,,,,,0,0,0,-10.00,-12.00,-135.00,0.00,0.00,-236.00,14,19.00,0.00,38.32,0.00,0.00,0.00,0,,,100,100,0,2,0,0,0,1,0,,,,,0.0,0.0,0.0,0.0,0.0,0.0,0
34.182564,-118.129090,1.90,2.00,0.00,3.84,1.90,1.90,1.92,3.99,12208,2022-06-08 00:09:23.072,2022-06-07 17:09:23.072,15,0,0,15.028,34.182598,-118.129084,0.00,0.00,0.00,1.00,-1.40,-10.90,0,1,0,41,100,-8021,1425,15028,3211.50,10,WP,1,0,0,0,0,0,0,1654646963072,3763,3765,3761,3754,0,0,27,,,,,,,0,0,0,-10.00,-14.00,-109.00,0.00,0.00,-201.00,14,19.00,0.00,38.39,0.00,0.00,0.00,0,,,100,100,0,2,0,0,0,1,0,,,,,0.0,0.0,0.0,0.0,0.0,0.0,0
34.182564,-118.129090,1.90,2.00,0.00,3.84,1.90,1.90,1.92,3.99,12308,2022-06-08 00:09:23.172,2022-06-07 17:09:23.172,15,0,0,15.028,34.182598,-118.129084,0.00,0.00,0.00,0.90,-1.40,-8.80,0,1,0,41,100,-8021,1425,15028,3211.50,10,WP,1,0,0,0,0,0,0,1654646963172,3763,3765,3761,3754,0,0,27,,,,,,,0,0,0,-9.00,-14.00,-88.00,0.00,0.00,-172.00,14,19.00,0.00,38.37,0.00,0.00,0.00,0,,,100,100,0,2,0,0,0,1,0,,,,,0.0,0.0,0.0,0.0,0.0,0.0,0
34.182564,-118.129090,1.90,2.00,0.00,3.85,1.90,1.90,1.92,3.99,12407,2022-06-08 00:09:23.272,2022-06-07 17:09:23.272,15,0,0,15.028,34.182598,-118.129084,0.00,0.00,0.00,0.90,-1.40,-7.00,0,1,0,41,100,-8021,1425,15028,3211.50,10,WP,1,0,0,0,0,0,0,1654646963271,3763,3765,3761,3754,0,0,27,,,,,,,0,0,0,-9.00,-14.00,-70.00,0.00,0.00,-148.00,14,19.00,0.00,38.53,0.00,0.00,0.00,0,,,100,100,0,2,0,0,0,1,0,,,,,0.0,0.0,0.0,0.0,0.0,0.0,0
34.182564,-118.129090,1.90,2.00,0.00,3.85,1.90,1.90,1.92,3.99,12509,2022-06-08 00:09:23.373,2022-06-07 17:09:23.373,15,0,0,15.028,34.182598,-118.129084,0.00,0.00,0.00,0.70,-1.30,-5.60,0,1,0,41,100,-8021,1425,15028,3211.50,10,WP,1,0,0,0,0,0,0,1654646963373,3763,3765,3761,3754,0,0,27,,,,,,,0,0,0,-7.00,-13.00,-56.00,0.00,0.00,-129.00,14,19.00,0.00,38.53,0.00,0.00,0.00,0,,,100,100,0,2,0,0,0,1,0,,,,,0.0,0.0,0.0,0.0,0.0,0.0,0
34.182564,-118.129090,1.90,2.00,0.00,3.86,1.90,1.90,1.92,3.99,12609,2022-06-08 00:09:23.473,2022-06-07 17:09:23.473,15,0,0,15.028,34.182598,-118.129084,0.00,0.00,0.00,0.70,-1.20,-4.50,0,1,0,41,100,-8021,1425,15028,3211.50,10,WP,1,0,0,0,0,0,0,1654646963473,3763,3765,3761,3754,0,0,27,,,,,,,0,0,0,-7.00,-12.00,-45.00,0.00,0.00,-113.00,14,19.00,0.00,38.61,0.00,0.00,0.00,0,,,100,100,0,2,0,0,0,1,0,,,,,0.0,0.0,0.0,0.0,0.0,0.0,0
34.182564,-118.129090,1.90,2.00,0.00,3.86,1.90,1.90,1.92,3.99,12709,2022-06-08 00:09:23.573,2022-06-07 17:09:23.573,15,0,0,15.028,34.182598,-118.129084,0.00,0.00,0.00,-0.60,-1.00,-4.30,0,1,0,41,100,-8021,1425,15028,3211.50,10,WP,1,0,0,0,0,0,0,1654646963573,3763,3765,3761,3754,0,0,27,,,,,,,0,0,0,6.00,-10.00,-43.00,0.00,0.00,-101.00,14,19.00,0.00,38.62,0.00,0.00,0.00,0,,,100,100,0,2,0,0,0,1,0,,,,,0.0,0.0,0.0,0.0,0.0,0.0,0
34.182564,-118.129090,1.90,2.00,0.00,3.88,1.90,1.90,1.92,3.99,12810,2022-06-08 00:09:23.674,2022-06-07 17:09:23.674,15,0,0,15.028,34.182598,-118.129084,0.00,0.00,0.00,-0.30,-1.20,-4.30,0,1,0,41,100,-8021,1425,15028,3211.50,10,WP,1,0,0,0,0,0,0,1654646963674,3763,3765,3761,3754,0,0,27,,,,,,,0,0,0,3.00,-12.00,-43.00,0.00,0.00,-92.00,14,19.00,0.00,38.79,0.00,0.00,0.00,0,,,100,100,0,2,0,0,0,1,0,,,,,0.0,0.0,0.0,0.0,0.0,0.0,0
34.182564,-118.129090,1.90,2.00,0.00,3.88,1.90,1.90,1.92,3.99,12909,2022-06-08 00:09:23.774,2022-06-07 17:09:23.774,15,0,0,15.028,34.182598,-118.129084,0.00,0.00,0.00,0.10,-1.30,-4.30,0,1,0,41,100,-8021,1425,15028,3211.50,10,WP,1,0,0,0,0,0,0,1654646963773,3763,3765,3761,3754,0,0,27,,,,,,,0,0,0,-1.00,-13.00,-43.00,0.00,0.00,-88.00,14,19.00,0.00,38.79,0.00,0.00,0.00,0,,,100,100,0,2,0,0,0,1,0,,,,,0.0,0.0,0.0,0.0,0.0,0.0,0
34.182564,-118.129090,1.90,2.00,0.00,3.89,1.90,1.90,1.92,3.99,13010,2022-06-08 00:09:23.874,2022-06-07 17:09:23.874,15,0,0,15.028,34.182598,-118.129084,0.00,0.00,0.00,0.40,-1.10,-4.30,0,1,0,41,100,-8021,1425,15028,3211.50,10,WP,1,0,0,0,0,0,0,1654646963874,3763,3765,3761,3754,0,0,27,,,,,,,0,0,0,-4.00,-11.00,-43.00,0.00,0.00,-86.00,14,19.00,0.00,38.86,0.00,0.00,0.00,0,,,100,100,0,2,0,0,0,1,0,,,,,0.0,0.0,0.0,0.0,0.0,0.0,0
34.182564,-118.129090,1.90,2.00,0.00,3.89,1.90,1.90,1.92,3.99,13109,2022-06-08 00:09:23.973,2022-06-07 17:09:23.973,15,0,0,15.028,34.182598,-118.129084,0.00,0.00,0.00,0.50,-1.00,-4.30,0,1,0,41,100,-8021,1425,15028,3211.50,10,WP,1,0,0,0,0,0,0,1654646963973,3763,3765,3761,3754,0,0,27,,,,,,,0,0,0,-5.00,-10.00,-43.00,0.00,0.00,-85.00,14,19.00,0.00,38.85,0.00,0.00,0.00,0,,,100,100,0,2,0,0,0,1,0,,,,,0.0,0.0,0.0,0.0,0.0,0.0,0
34.182564,-118.129090,1.90,2.00,0.00,3.89,1.90,1.90,1.92,3.99,13209,2022-06-08 00:09:24.073,2022-06-07 17:09:24.073,15,0,0,15.028,34.182598,-118.129084,0.00,0.00,0.00,0.60,-0.90,-4.40,0,1,0,41,100,-8021,1425,15028,3211.50,10,WP,1,0,0,0,0,0,0,1654646964073,3763,3765,3761,3754,0,0,27,,,,,,,0,0,0,-6.00,-9.00,-44.00,0.00,0.00,-85.00,14,19.00,0.00,38.94,0.00,0.00,0.00,0,,,100,100,0,2,0,0,0,1,0,,,,,0.0,0.0,0.0,0.0,0.0,0.0,0
34.182564,-118.129090,1.90,2.00,0.00,3.89,1.90,1.90,1.92,3.99,13308,2022-06-08 00:09:24.173,2022-06-07 17:09:24.173,15,0,0,15.028,34.182598,-118.129084,0.00,0.00,0.00,0.70,-0.90,-4.40,0,1,0,41,100,-8021,1425,15028,3211.50,10,WP,1,0,0,0,0,0,0,1654646964172,3763,3765,3761,3754,0,0,27,,,,,,,0,0,0,-7.00,-9.00,-44.00,0.00,0.00,-85.00,14,19.00,0.00,38.93,0.00,0.00,0.00,0,,,100,100,0,2,0,0,0,1,0,,,,,0.0,0.0,0.0,0.0,0.0,0.0,0
34.182564,-118.129090,1.90,2.00,0.00,3.89,1.90,1.90,1.92,3.99,13409,2022-06-08 00:09:24.273,2022-06-07 17:09:24.274,15,0,0,15.028,34.182598,-118.129084,0.00,0.00,0.00,0.80,-0.80,-4.50,0,1,0,41,100,-8021,1425,15028,3211.50,10,WP,1,0,0,0,0,0,0,1654646964273,3763,3765,3761,3754,0,0,27,,,,,,,0,0,0,-8.00,-8.00,-45.00,0.00,0.00,-84.00,14,19.00,0.00,38.94,0.00,0.00,0.00,0,,,100,100,0,2,0,0,0,1,0,,,,,0.0,0.0,0.0,0.0,0.0,0.0,0
34.182564,-118.129090,1.90,2.00,0.00,3.89,1.90,1.90,1.92,3.99,13509,2022-06-08 00:09:24.373,2022-06-07 17:09:24.373,15,0,0,15.028,34.182598,-118.129084,0.00,0.00,0.00,0.60,-0.90,-4.50,0,1,0,41,100,-8021,1425,15028,3211.50,10,WP,1,0,0,0,0,0,0,1654646964373,3763,3765,3761,3754,0,0,27,,,,,,,0,0,0,-6.00,-9.00,-45.00,0.00,0.00,-84.00,14,19.00,0.00,38.94,0.00,0.00,0.00,0,,,100,100,0,2,0,0,0,1,0,,,,,0.0,0.0,0.0,0.0,0.0,0.0,0
34.182564,-118.129090,1.90,2.00,0.00,3.89,1.90,1.90,1.92,3.99,13622,2022-06-08 00:09:24.486,2022-06-07 17:09:24.486,15,0,0,15.028,34.182598,-118.129084,0.00,0.00,0.00,0.40,-1.10,-4.40,0,1,0,41,100,-8021,1425,15028,3211.50,10,WP,1,0,0,0,0,0,0,1654646964486,3763,3765,3761,3754,0,0,27,,,,,,,0,0,0,-4.00,-11.00,-44.00,0.00,0.00,-84.00,14,19.00,0.00,38.95,0.00,0.00,0.00,0,,,100,100,0,2,0,0,0,1,0,,,,,0.0,0.0,0.0,0.0,0.0,0.0,0
