latitude,longitude,altitude(m),ultrasonicHeight(m),speed(mps),distance(m),max_altitude(m),max_ascent(m),max_speed(mps),max_distance(m),time(millisecond),datetime(utc),datetime(local),satellites,pressure(Pa),temperature(F),voltage(v),home_latitude,home_longitude,velocityX(mps),velocityY(mps),velocityZ(mps),pitch(deg),roll(deg),yaw(deg),powerlevel,isflying,istakingphoto,remainPowerPercent,remainLifePercent,currentCurrent,currentElectricity,currentVoltage,batteryTemperature,dischargeCount,flightmode,isMotorsOn,isTakingVideo,Rc_elevator,Rc_aileron,Rc_throttle,Rc_rudder,Rc_gyro,timestamp,Battery_Cell1,Battery_Cell2,Battery_Cell3,Battery_Cell4,Battery_Cell5,Battery_Cell6,Dronetype,AppVersion,Planename,FlyControllerSerialNumber,RemoteSerialNumber,BatterySerialNumber,CENTER_BATTERY.productDate,CENTER_BATTERY.serialNo,CENTER_BATTERY.fullCapacity,CENTER_BATTERY.productDateRaw,pitchRaw,rollRaw,yawRaw,gimbalPitchRaw,gimbalRollRaw,gimbalYawRaw,flyState,altitudeRaw,speedRaw,distanceRaw,velocityXRaw,velocityYRaw,velocityZRaw,data_reuse,App_Tip,App_Warning,downlinkSignalQuality,uplinkSignalQuality,transmissionChannel,rcModeSwitch,rcHome,rcPause,rcTransform,rcJoystickMode,appMode,FlyControllerSerialNumber_legacy,RemoteSerialNumber_legacy,BatterySerialNumber_legacy,Battery2SerialNumber,frontAvoidDist,backAvoidDist,rightAvoidDist,leftAvoidDist,upAvoidDist,downAvoidDist,isBrakingToAvoid
34.182603,-118.129083,0.30,0.30,0.40,0.07,0.30,0.30,0.40,0.07,1,2022-06-08 00:02:20.163,2022-06-07 17:02:20.163,15,0,0,15.600,34.182602,-118.129083,0.00,0.00,-0.40,0.40,-1.20,-24.00,0,1,0,56,100,-4009,1961,15600,3201.50,10,TakeOff,1,0,0,0,0,0,0,1654646540163,3906,3897,3893,3882,0,0,27,Litchi_iOS_2.14.0,Brian-MAVIC 2,163DFCK001S13F,1DUCFB800104PR,0P2AFBV5340045,,0,3507,0,-4.00,-12.00,-240.00,0.00,0.00,-282.00,11,3.00,4.00,0.70,0.00,0.00,-4.00,0,,,100,100,0,2,0,0,0,1,0,(null),(null),(null),(null),0.0,0.0,0.0,0.0,0.0,0.0,0
34.182603,-118.129083,0.30,0.40,0.40,0.08,0.30,0.30,0.40,0.08,100,2022-06-08 00:02:20.263,2022-06-07 17:02:20.263,15,0,0,15.600,34.182602,-118.129083,0.00,0.00,-0.40,0.20,-1.50,-24.00,0,1,0,56,100,-4009,1961,15600,3201.50,10,TakeOff,1,0,0,0,0,0,0,1654646540262,3906,3897,3893,3882,0,0,27,,,,,,,0,0,0,-2.00,-15.00,-240.00,0.00,0.00,-282.00,11,3.00,4.00,0.80,0.00,0.00,-4.00,0,,,100,100,0,2,0,0,0,1,0,,,,,0.0,0.0,0.0,0.0,0.0,0.0,0
34.182603,-118.129083,0.40,0.40,0.40,0.08,0.40,0.40,0.40,0.08,200,2022-06-08 00:02:20.362,2022-06-07 17:02:20.362,15,0,0,15.600,34.182602,-118.129083,0.00,0.00,-0.40,0.00,-1.40,-24.00,0,1,0,56,100,-4009,1961,15600,3201.50,10,TakeOff,1,0,0,0,0,0,0,1654646540362,3906,3897,3893,3882,0,0,27,,,,,,,0,0,0,-0.00,-14.00,-240.00,0.00,0.00,-282.00,11,4.00,4.00,0.78,0.00,0.00,-4.00,0,,,100,100,0,2,0,0,0,1,0,,,,,0.0,0.0,0.0,0.0,0.0,0.0,0
34.182603,-118.129083,0.40,0.50,0.40,0.07,0.40,0.40,0.40,0.08,300,2022-06-08 00:02:20.462,2022-06-07 17:02:20.462,15,0,0,15.600,34.182602,-118.129083,0.00,0.00,-0.40,-0.10,-1.20,-23.90,0,1,0,56,100,-4009,1961,15600,3201.50,10,TakeOff,1,0,0,0,0,0,0,1654646540462,3906,3897,3893,3882,0,0,27,,,,,,,0,0,0,1.00,-12.00,-239.00,0.00,0.00,-282.00,11,4.00,4.00,0.65,0.00,0.00,-4.00,0,,,100,100,0,2,0,0,0,1,0,,,,,0.0,0.0,0.0,0.0,0.0,0.0,0
34.182603,-118.129083,0.50,0.50,0.40,0.06,0.50,0.50,0.40,0.08,399,2022-06-08 00:02:20.562,2022-06-07 17:02:20.562,15,0,0,15.600,34.182602,-118.129083,0.00,0.00,-0.40,-0.20,-0.90,-23.90,0,1,0,56,100,-4009,1961,15600,3201.50,10,TakeOff,1,0,0,0,0,0,0,1654646540561,3906,3897,3893,3882,0,0,27,,,,,,,0,0,0,2.00,-9.00,-239.00,0.00,0.00,-282.00,11,5.00,4.00,0.61,0.00,0.00,-4.00,0,,,100,100,0,2,0,0,0,1,0,,,,,0.0,0.0,0.0,0.0,0.0,0.0,0
34.182603,-118.129083,0.50,0.60,0.50,0.07,0.50,0.50,0.50,0.08,500,2022-06-08 00:02:20.662,2022-06-07 17:02:20.662,15,0,0,15.475,34.182602,-118.129083,0.00,0.00,-0.50,-0.50,-1.00,-23.90,0,1,0,56,100,-7883,1958,15475,3201.50,10,TakeOff,1,0,0,0,0,0,0,1654646540662,3906,3897,3893,3882,0,0,27,,,,,,,0,0,0,5.00,-10.00,-239.00,0.00,0.00,-283.00,11,5.00,5.00,0.66,0.00,0.00,-5.00,0,,,100,100,0,2,0,0,0,1,0,,,,,0.0,0.0,0.0,0.0,0.0,0.0,0
34.182603,-118.129083,0.60,0.60,0.50,0.06,0.60,0.60,0.50,0.08,599,2022-06-08 00:02:20.762,2022-06-07 17:02:20.762,15,0,0,15.475,34.182602,-118.129083,0.00,0.00,-0.50,-0.60,-0.90,-23.90,0,1,0,56,100,-7883,1958,15475,3201.50,10,TakeOff,1,0,0,0,0,0,0,1654646540761,3906,3897,3893,3882,0,0,27,,,,,,,0,0,0,6.00,-9.00,-239.00,0.00,0.00,-283.00,11,6.00,5.00,0.64,0.00,0.00,-5.00,0,,,100,100,0,2,0,0,0,1,0,,,,,0.0,0.0,0.0,0.0,0.0,0.0,0
34.182603,-118.129083,0.60,0.70,0.50,0.05,0.60,0.60,0.50,0.08,701,2022-06-08 00:02:20.863,2022-06-07 17:02:20.863,15,0,0,15.475,34.182602,-118.129083,0.00,0.00,-0.50,-0.30,-0.90,-24.00,0,1,0,56,100,-7883,1958,15475,3201.50,10,TakeOff,1,0,0,0,0,0,0,1654646540863,3906,3897,3893,3882,0,0,27,,,,,,,0,0,0,3.00,-9.00,-240.00,0.00,0.00,-283.00,11,6.00,5.00,0.47,0.00,0.00,-5.00,0,,,100,100,0,2,0,0,0,1,0,,,,,0.0,0.0,0.0,0.0,0.0,0.0,0
34.182603,-118.129083,0.70,0.70,0.50,0.04,0.70,0.70,0.50,0.08,799,2022-06-08 00:02:20.962,2022-06-07 17:02:20.962,15,0,0,15.475,34.182602,-118.129083,0.00,0.00,-0.50,0.00,-0.80,-24.00,0,1,0,56,100,-7883,1958,15475,3201.50,10,TakeOff,1,0,0,0,0,0,0,1654646540961,3906,3897,3893,3882,0,0,27,,,,,,,0,0,0,-0.00,-8.00,-240.00,0.00,0.00,-283.00,11,7.00,5.00,0.44,0.00,0.00,-5.00,0,,,100,100,0,2,0,0,0,1,0,,,,,0.0,0.0,0.0,0.0,0.0,0.0,0
34.182603,-118.129084,0.70,0.80,0.50,0.05,0.70,0.70,0.50,0.08,900,2022-06-08 00:02:21.062,2022-06-07 17:02:21.062,15,0,0,15.475,34.182602,-118.129083,0.00,0.00,-0.50,0.10,-0.70,-24.10,0,1,0,56,100,-7883,1958,15475,3201.50,10,TakeOff,1,0,0,0,0,0,0,1654646541062,3906,3897,3893,3882,0,0,27,,,,,,,0,0,0,-1.00,-7.00,-241.00,0.00,0.00,-283.00,11,7.00,5.00,0.45,0.00,0.00,-5.00,0,,,100,100,0,2,0,0,0,1,0,,,,,0.0,0.0,0.0,0.0,0.0,0.0,0
34.182603,-118.129084,0.80,0.80,0.50,0.04,0.80,0.80,0.50,0.08,1001,2022-06-08 00:02:21.163,2022-06-07 17:02:21.163,15,0,0,15.475,34.182602,-118.129083,0.00,0.00,-0.50,0.00,-0.70,-24.10,0,1,0,56,100,-7883,1958,15475,3201.50,10,TakeOff,1,0,0,0,0,0,0,1654646541163,3906,3897,3893,3882,0,0,27,,,,,,,0,0,0,-0.00,-7.00,-241.00,0.00,0.00,-283.00,11,8.00,5.00,0.45,0.00,0.00,-5.00,0,,,100,100,0,2,0,0,0,1,0,,,,,0.0,0.0,0.0,0.0,0.0,0.0,0
34.182603,-118.129084,0.80,0.90,0.50,0.06,0.80,0.80,0.50,0.08,1101,2022-06-08 00:02:21.263,2022-06-07 17:02:21.263,15,0,0,15.475,34.182602,-118.129083,0.00,0.00,-0.50,0.00,-0.60,-24.10,0,1,0,56,100,-7883,1958,15475,3201.50,10,TakeOff,1,0,0,0,0,0,0,1654646541263,3906,3897,3893,3882,0,0,27,,,,,,,0,0,0,-0.00,-6.00,-241.00,0.00,0.00,-283.00,11,8.00,5.00,0.57,0.00,0.00,-5.00,0,,,100,100,0,2,0,0,0,1,0,,,,,0.0,0.0,0.0,0.0,0.0,0.0,0
34.182603,-118.129084,0.90,1.00,0.50,0.06,0.90,0.90,0.50,0.08,1200,2022-06-08 00:02:21.362,2022-06-07 17:02:21.362,15,0,0,15.475,34.182602,-118.129083,0.00,0.00,-0.50,0.10,-0.50,-24.00,0,1,0,56,100,-7883,1958,15475,3201.50,10,TakeOff,1,0,0,0,0,0,0,1654646541362,3906,3897,3893,3882,0,0,27,,,,,,,0,0,0,-1.00,-5.00,-240.00,0.00,0.00,-283.00,11,9.00,5.00,0.58,0.00,0.00,-5.00,0,,,100,100,0,2,0,0,0,1,0,,,,,0.0,0.0,0.0,0.0,0.0,0.0,0
34.182603,-118.129084,0.90,1.00,0.50,0.06,0.90,0.90,0.50,0.08,1301,2022-06-08 00:02:21.464,2022-06-07 17:02:21.464,15,0,0,15.475,34.182602,-118.129083,0.00,0.00,-0.50,0.20,-0.50,-24.00,0,1,0,56,100,-7883,1958,15475,3201.50,10,TakeOff,1,0,0,0,0,0,0,1654646541463,3906,3897,3893,3882,0,0,27,,,,,,,0,0,0,-2.00,-5.00,-240.00,0.00,0.00,-283.00,11,9.00,5.00,0.64,0.00,0.00,-5.00,0,,,100,100,0,2,0,0,0,1,0,,,,,0.0,0.0,0.0,0.0,0.0,0.0,0
34.182603,-118.129084,1.00,1.10,0.40,0.06,1.00,1.00,0.50,0.08,1400,2022-06-08 00:02:21.562,2022-06-07 17:02:21.562,15,0,0,15.475,34.182602,-118.129083,0.00,0.00,-0.40,0.10,-0.50,-24.00,0,1,0,56,100,-7883,1958,15475,3201.50,10,TakeOff,1,0,0,0,0,0,0,1654646541562,3906,3897,3893,3882,0,0,27,,,,,,,0,0,0,-1.00,-5.00,-240.00,0.00,0.00,-284.00,11,10.00,4.00,0.65,0.00,0.00,-4.00,0,,,100,100,0,2,0,0,0,1,0,,,,,0.0,0.0,0.0,0.0,0.0,0.0,0
34.182603,-118.129084,1.00,1.10,0.40,0.05,1.00,1.00,0.50,0.08,1500,2022-06-08 00:02:21.663,2022-06-07 17:02:21.663,14,0,0,15.475,34.182602,-118.129083,0.00,0.00,-0.40,0.00,-0.30,-24.00,0,1,0,56,100,-7883,1958,15475,3201.50,10,WP,1,0,0,0,0,0,0,1654646541662,3906,3897,3893,3882,0,0,27,,,,,,,0,0,0,-0.00,-3.00,-240.00,0.00,0.00,-284.00,14,10.00,4.00,0.48,0.00,0.00,-4.00,0,,,100,100,0,2,0,0,0,1,0,,,,,0.0,0.0,0.0,0.0,0.0,0.0,0
34.182603,-118.129084,1.10,1.10,0.40,0.05,1.10,1.10,0.50,0.08,1600,2022-06-08 00:02:21.762,2022-06-07 17:02:21.762,14,0,0,15.475,34.182602,-118.129083,0.00,0.00,-0.40,-0.10,-0.30,-24.00,0,1,0,56,100,-7883,1958,15475,3201.50,10,WP,1,0,0,0,0,0,0,1654646541762,3906,3897,3893,3882,0,0,27,,,,,,,0,0,0,1.00,-3.00,-240.00,0.00,0.00,-284.00,14,11.00,4.00,0.47,0.00,0.00,-4.00,0,,,100,100,0,2,0,0,0,1,0,,,,,0.0,0.0,0.0,0.0,0.0,0.0,0
34.182603,-118.129084,1.10,1.20,0.40,0.06,1.10,1.10,0.50,0.08,1701,2022-06-08 00:02:21.863,2022-06-07 17:02:21.864,15,0,0,15.475,34.182602,-118.129083,0.00,0.00,-0.40,-0.10,-0.40,-24.00,0,1,0,56,100,-7883,1958,15475,3201.50,10,WP,1,0,0,0,0,0,0,1654646541863,3906,3897,3893,3882,0,0,27,,,,,,,0,0,0,1.00,-4.00,-240.00,0.00,0.00,-284.00,14,11.00,4.00,0.57,0.00,0.00,-4.00,0,,,100,100,0,2,0,0,0,1,0,,,,,0.0,0.0,0.0,0.0,0.0,0.0,0
34.182603,-118.129084,1.20,1.20,0.40,0.06,1.20,1.20,0.50,0.08,1800,2022-06-08 00:02:21.963,2022-06-07 17:02:21.963,15,0,0,15.475,34.182602,-118.129083,0.00,0.00,-0.40,0.00,-0.30,-23.90,0,1,0,56,100,-7883,1958,15475,3201.50,10,WP,1,0,0,0,0,0,0,1654646541962,3906,3897,3893,3882,0,0,27,,,,,,,0,0,0,-0.00,-3.00,-239.00,0.00,0.00,-284.00,14,12.00,4.00,0.57,0.00,0.00,-4.00,0,,,100,100,0,2,0,0,0,1,0,,,,,0.0,0.0,0.0,0.0,0.0,0.0,0
34.182603,-118.129084,1.20,1.30,0.40,0.07,1.20,1.20,0.50,0.08,1901,2022-06-08 00:02:22.064,2022-06-07 17:02:22.064,15,0,0,15.475,34.182602,-118.129083,0.00,0.00,-0.40,0.40,-0.30,-24.00,0,1,0,56,100,-7883,1958,15475,3201.50,10,WP,1,0,0,0,0,0,0,1654646542063,3906,3897,3893,3882,0,0,27,,,,,,,0,0,0,-4.00,-3.00,-240.00,0.00,0.00,-284.00,14,12.00,4.00,0.68,0.00,0.00,-4.00,0,,,100,100,0,2,0,0,0,1,0,,,,,0.0,0.0,0.0,0.0,0.0,0.0,0
34.182603,-118.129084,1.30,1.30,0.40,0.07,1.30,1.30,0.50,0.08,2001,2022-06-08 00:02:22.164,2022-06-07 17:02:22.164,15,0,0,15.475,34.182602,-118.129083,0.00,0.00,-0.40,0.40,-0.40,-24.00,0,1,0,56,100,-7883,1958,15475,3201.50,10,WP,1,0,0,0,0,0,0,1654646542163,3906,3897,3893,3882,0,0,27,,,,,,,0,0,0,-4.00,-4.00,-240.00,0.00,0.00,-284.00,14,13.00,4.00,0.69,0.00,0.00,-4.00,0,,,100,100,0,2,0,0,0,1,0,,,,,0.0,0.0,0.0,0.0,0.0,0.0,0
34.182603,-118.129084,1.30,1.40,0.40,0.07,1.30,1.30,0.50,0.08,2101,2022-06-08 00:02:22.263,2022-06-07 17:02:22.263,16,0,0,15.475,34.182602,-118.129083,0.00,0.00,-0.40,0.50,-0.60,-24.10,0,1,0,56,100,-7883,1958,15475,3201.50,10,WP,1,0,0,0,0,0,0,1654646542263,3906,3897,3893,3882,0,0,27,,,,,,,0,0,0,-5.00,-6.00,-241.00,0.00,0.00,-284.00,14,13.00,4.00,0.66,0.00,0.00,-4.00,0,,,100,100,0,2,0,0,0,1,0,,,,,0.0,0.0,0.0,0.0,0.0,0.0,0
34.182603,-118.129084,1.40,1.40,0.40,0.07,1.40,1.40,0.50,0.08,2201,2022-06-08 00:02:22.364,2022-06-07 17:02:22.364,16,0,0,15.475,34.182602,-118.129083,0.00,0.00,-0.40,0.40,-0.50,-24.10,0,1,0,56,100,-7883,1958,15475,3201.50,10,WP,1,0,0,0,0,0,0,1654646542363,3906,3897,3893,3882,0,0,27,,,,,,,0,0,0,-4.00,-5.00,-241.00,0.00,0.00,-284.00,14,14.00,4.00,0.67,0.00,0.00,-4.00,0,,,100,100,0,2,0,0,0,1,0,,,,,0.0,0.0,0.0,0.0,0.0,0.0,0
34.182603,-118.129084,1.40,1.50,0.40,0.05,1.40,1.40,0.50,0.08,2301,2022-06-08 00:02:22.463,2022-06-07 17:02:22.463,16,0,0,15.475,34.182602,-118.129083,0.00,0.00,-0.40,0.00,-0.30,-24.10,0,1,0,56,100,-7883,1958,15475,3201.50,10,WP,1,0,0,0,0,0,0,1654646542463,3906,3897,3893,3882,0,0,27,,,,,,,0,0,0,-0.00,-3.00,-241.00,0.00,0.00,-284.00,14,14.00,4.00,0.54,0.00,0.00,-4.00,0,,,100,100,0,2,0,0,0,1,0,,,,,0.0,0.0,0.0,0.0,0.0,0.0,0
34.182603,-118.129084,1.50,1.50,0.40,0.05,1.50,1.50,0.50,0.08,2401,2022-06-08 00:02:22.563,2022-06-07 17:02:22.563,16,0,0,15.475,34.182602,-118.129083,0.00,0.00,-0.40,0.00,-0.10,-24.10,0,1,0,56,100,-7883,1958,15475,3201.50,10,WP,1,0,0,0,0,0,0,1654646542563,3906,3897,3893,3882,0,0,27,,,,,,,0,0,0,-0.00,-1.00,-241.00,0.00,0.00,-284.00,14,15.00,4.00,0.53,0.00,0.00,-4.00,0,,,100,100,0,2,0,0,0,1,0,,,,,0.0,0.0,0.0,0.0,0.0,0.0,0
34.182603,-118.129084,1.50,1.60,0.40,0.05,1.50,1.50,0.50,0.08,2501,2022-06-08 00:02:22.664,2022-06-07 17:02:22.664,16,0,0,15.455,34.182602,-118.129083,0.00,0.00,-0.40,0.10,-0.40,-24.10,0,1,0,56,100,-7973,1954,15455,3201.50,10,WP,1,0,0,0,0,0,0,1654646542663,3906,3897,3893,3882,0,0,27,,,,,,,0,0,0,-1.00,-4.00,-241.00,0.00,0.00,-284.00,14,15.00,4.00,0.53,0.00,0.00,-4.00,0,,,100,100,0,2,0,0,0,1,0,,,,,0.0,0.0,0.0,0.0,0.0,0.0,0
34.182603,-118.129084,1.50,1.60,0.40,0.05,1.50,1.50,0.50,0.08,2601,2022-06-08 00:02:22.764,2022-06-07 17:02:22.764,16,0,0,15.455,34.182602,-118.129083,0.00,0.00,-0.40,0.20,-0.70,-24.20,0,1,0,56,100,-7973,1954,15455,3201.50,10,WP,1,0,0,0,0,0,0,1654646542763,3906,3897,3893,3882,0,0,27,,,,,,,0,0,0,-2.00,-7.00,-242.00,0.00,0.00,-284.00,14,15.00,4.00,0.52,0.00,0.00,-4.00,0,,,100,100,0,2,0,0,0,1,0,,,,,0.0,0.0,0.0,0.0,0.0,0.0,0
34.182603,-118.129084,1.60,1.70,0.40,0.06,1.60,1.60,0.50,0.08,2701,2022-06-08 00:02:22.864,2022-06-07 17:02:22.864,15,0,0,15.455,34.182602,-118.129083,0.00,0.00,-0.40,0.60,-1.40,-24.10,0,1,0,56,100,-7973,1954,15455,3201.50,10,WP,1,0,0,0,0,0,0,1654646542863,3906,3897,3893,3882,0,0,27,,,,,,,0,0,0,-6.00,-14.00,-241.00,0.00,0.00,-284.00,14,16.00,4.00,0.58,0.00,0.00,-4.00,0,,,100,100,0,2,0,0,0,1,0,,,,,0.0,0.0,0.0,0.0,0.0,0.0,0
34.182603,-118.129084,1.60,1.70,0.40,0.06,1.60,1.60,0.50,0.08,2802,2022-06-08 00:02:22.964,2022-06-07 17:02:22.964,15,0,0,15.455,34.182602,-118.129083,0.00,0.00,-0.40,0.90,-1.60,-24.00,0,1,0,56,100,-7973,1954,15455,3201.50,10,WP,1,0,0,0,0,0,0,1654646542964,3906,3897,3893,3882,0,0,27,,,,,,,0,0,0,-9.00,-16.00,-240.00,0.00,0.00,-284.00,14,16.00,4.00,0.60,0.00,0.00,-4.00,0,,,100,100,0,2,0,0,0,1,0,,,,,0.0,0.0,0.0,0.0,0.0,0.0,0
34.182603,-118.129084,1.70,1.70,0.40,0.04,1.70,1.70,0.50,0.08,2901,2022-06-08 00:02:23.064,2022-06-07 17:02:23.064,14,0,0,15.455,34.182602,-118.129083,0.00,0.00,-0.40,0.50,-1.20,-23.90,0,1,0,56,100,-7973,1954,15455,3201.50,10,WP,1,0,0,0,0,0,0,1654646543063,3906,3897,3893,3882,0,0,27,,,,,,,0,0,0,-5.00,-12.00,-239.00,0.00,0.00,-284.00,14,17.00,4.00,0.45,0.00,0.00,-4.00,0,,,100,100,0,2,0,0,0,1,0,,,,,0.0,0.0,0.0,0.0,0.0,0.0,0
34.182603,-118.129084,1.70,1.80,0.40,0.04,1.70,1.70,0.50,0.08,3002,2022-06-08 00:02:23.164,2022-06-07 17:02:23.164,14,0,0,15.455,34.182602,-118.129083,0.00,0.00,-0.40,0.40,-1.00,-24.10,0,1,0,56,100,-7973,1954,15455,3201.50,10,WP,1,0,0,0,0,0,0,1654646543164,3906,3897,3893,3882,0,0,27,,,,,,,0,0,0,-4.00,-10.00,-241.00,0.00,0.00,-284.00,14,17.00,4.00,0.44,0.00,0.00,-4.00,0,,,100,100,0,2,0,0,0,1,0,,,,,0.0,0.0,0.0,0.0,0.0,0.0,0
34.182603,-118.129083,1.80,1.80,0.30,0.05,1.80,1.80,0.50,0.08,3102,2022-06-08 00:02:23.265,2022-06-07 17:02:23.265,15,0,0,15.455,34.182602,-118.129083,0.00,0.00,-0.30,0.30,-1.00,-24.80,0,1,0,56,100,-7973,1954,15455,3201.50,10,WP,1,0,0,0,0,0,0,1654646543264,3906,3897,3893,3882,0,0,27,,,,,,,0,0,0,-3.00,-10.00,-248.00,0.00,0.00,-284.00,14,18.00,3.00,0.50,0.00,0.00,-3.00,0,,,100,100,0,2,0,0,0,1,0,,,,,0.0,0.0,0.0,0.0,0.0,0.0,0
34.182603,-118.129083,1.80,1.90,0.20,0.05,1.80,1.80,0.50,0.08,3202,2022-06-08 00:02:23.364,2022-06-07 17:02:23.364,15,0,0,15.455,34.182602,-118.129083,0.00,0.00,-0.20,0.30,-1.00,-26.00,0,1,0,56,100,-7973,1954,15455,3201.50,10,WP,1,0,0,0,0,0,0,1654646543364,3906,3897,3893,3882,0,0,27,,,,,,,0,0,0,-3.00,-10.00,-260.00,0.00,0.00,-284.00,14,18.00,2.00,0.52,0.00,0.00,-2.00,0,,,100,100,0,2,0,0,0,1,0,,,,,0.0,0.0,0.0,0.0,0.0,0.0,0
34.182603,-118.129083,1.80,1.90,0.10,0.05,1.80,1.80,0.50,0.08,3301,2022-06-08 00:02:23.463,2022-06-07 17:02:23.463,15,0,0,15.455,34.182602,-118.129083,0.00,0.00,-0.10,0.30,-1.20,-27.80,0,1,0,56,100,-7973,1954,15455,3201.50,10,WP,1,0,0,0,0,0,0,1654646543463,3906,3897,3893,3882,0,0,27,,,,,,,0,0,0,-3.00,-12.00,-278.00,0.00,0.00,-284.00,14,18.00,1.00,0.48,0.00,0.00,-1.00,0,,,100,100,0,2,0,0,0,1,0,,,,,0.0,0.0,0.0,0.0,0.0,0.0,0
34.182603,-118.129083,1.80,1.90,0.10,0.05,1.80,1.80,0.50,0.08,3402,2022-06-08 00:02:23.564,2022-06-07 17:02:23.564,15,0,0,15.455,34.182602,-118.129083,0.00,0.00,-0.10,0.30,-1.30,-30.20,0,1,0,56,100,-7973,1954,15455,3201.50,10,WP,1,0,0,0,0,0,0,1654646543564,3906,3897,3893,3882,0,0,27,,,,,,,0,0,0,-3.00,-13.00,-302.00,0.00,0.00,-288.00,14,18.00,1.00,0.51,0.00,0.00,-1.00,0,,,100,100,0,2,0,0,0,1,0,,,,,0.0,0.0,0.0,0.0,0.0,0.0,0
34.182603,-118.129083,1.80,1.90,0.10,0.05,1.80,1.80,0.50,0.08,3502,2022-06-08 00:02:23.664,2022-06-07 17:02:23.664,15,0,0,15.455,34.182602,-118.129083,0.00,0.00,-0.10,0.20,-1.40,-33.10,0,1,0,56,100,-7973,1954,15455,3201.50,10,WP,1,0,0,0,0,0,0,1654646543664,3906,3897,3893,3882,0,0,27,,,,,,,0,0,0,-2.00,-14.00,-331.00,0.00,0.00,-299.00,14,18.00,1.00,0.47,0.00,0.00,-1.00,0,,,100,100,0,2,0,0,0,1,0,,,,,0.0,0.0,0.0,0.0,0.0,0.0,0
34.182603,-118.129083,1.80,1.90,0.00,0.05,1.80,1.80,0.50,0.08,3602,2022-06-08 00:02:23.764,2022-06-07 17:02:23.764,15,0,0,15.455,34.182602,-118.129083,0.00,0.00,0.00,0.10,-1.60,-36.60,0,1,0,56,100,-7973,1954,15455,3201.50,10,WP,1,0,0,0,0,0,0,1654646543764,3906,3897,3893,3882,0,0,27,,,,,,,0,0,0,-1.00,-16.00,-366.00,0.00,0.00,-321.00,14,18.00,0.00,0.50,0.00,0.00,0.00,0,,,100,100,0,2,0,0,0,1,0,,,,,0.0,0.0,0.0,0.0,0.0,0.0,0
34.182603,-118.129083,1.80,1.90,0.00,0.05,1.80,1.80,0.50,0.08,3702,2022-06-08 00:02:23.865,2022-06-07 17:02:23.865,15,0,0,15.455,34.182602,-118.129083,0.00,0.00,0.00,0.00,-1.60,-40.50,0,1,0,56,100,-7973,1954,15455,3201.50,10,WP,1,0,0,0,0,0,0,1654646543864,3906,3897,3893,3882,0,0,27,,,,,,,0,0,0,-0.00,-16.00,-405.00,0.00,0.00,-351.00,14,18.00,0.00,0.50,0.00,0.00,0.00,0,,,100,100,0,2,0,0,0,1,0,,,,,0.0,0.0,0.0,0.0,0.0,0.0,0
34.182603,-118.129083,1.90,1.90,0.00,0.05,1.90,1.90,0.50,0.08,3802,2022-06-08 00:02:23.964,2022-06-07 17:02:23.964,15,0,0,15.455,34.182602,-118.129083,0.00,0.00,0.00,0.00,-1.60,-45.10,0,1,0,56,100,-7973,1954,15455,3201.50,10,WP,1,0,0,0,0,0,0,1654646543964,3906,3897,3893,3882,0,0,27,,,,,,,0,0,0,-0.00,-16.00,-451.00,0.00,0.00,-389.00,14,19.00,0.00,0.52,0.00,0.00,0.00,0,,,100,100,0,2,0,0,0,1,0,,,,,0.0,0.0,0.0,0.0,0.0,0.0,0
34.182603,-118.129083,1.90,1.90,0.00,0.06,1.90,1.90,0.50,0.08,3902,2022-06-08 00:02:24.065,2022-06-07 17:02:24.065,15,0,0,15.455,34.182602,-118.129083,0.00,0.00,0.00,-0.10,-1.50,-50.30,0,1,0,56,100,-7973,1954,15455,3201.50,10,WP,1,0,0,0,0,0,0,1654646544064,3906,3897,3893,3882,0,0,27,,,,,,,0,0,0,1.00,-15.00,-503.00,0.00,0.00,-434.00,14,19.00,0.00,0.56,0.00,0.00,0.00,0,,,100,100,0,2,0,0,0,1,0,,,,,0.0,0.0,0.0,0.0,0.0,0.0,0
34.182603,-118.129083,1.90,1.90,0.00,0.06,1.90,1.90,0.50,0.08,4002,2022-06-08 00:02:24.165,2022-06-07 17:02:24.165,15,0,0,15.455,34.182602,-118.129083,0.00,0.00,0.00,-0.20,-1.50,-56.10,0,1,0,56,100,-7973,1954,15455,3201.50,10,WP,1,0,0,0,0,0,0,1654646544164,3906,3897,3893,3882,0,0,27,,,,,,,0,0,0,2.00,-15.00,-561.00,0.00,0.00,-485.00,14,19.00,0.00,0.59,0.00,0.00,0.00,0,,,100,100,0,2,0,0,0,1,0,,,,,0.0,0.0,0.0,0.0,0.0,0.0,0
34.182603,-118.129083,1.90,1.90,0.00,0.06,1.90,1.90,0.50,0.08,4103,2022-06-08 00:02:24.266,2022-06-07 17:02:24.266,15,0,0,15.455,34.182602,-118.129083,0.00,0.00,0.00,-0.30,-1.40,-62.40,0,1,0,56,100,-7973,1954,15455,3201.50,10,WP,1,0,0,0,0,0,0,1654646544265,3906,3897,3893,3882,0,0,27,,,,,,,0,0,0,3.00,-14.00,-624.00,0.00,0.00,-542.00,14,19.00,0.00,0.59,0.00,0.00,0.00,0,,,100,100,0,2,0,0,0,1,0,,,,,0.0,0.0,0.0,0.0,0.0,0.0,0
34.182603,-118.129083,1.90,1.90,0.00,0.06,1.90,1.90,0.50,0.08,4203,2022-06-08 00:02:24.365,2022-06-07 17:02:24.365,15,0,0,15.455,34.182602,-118.129083,0.00,0.00,0.00,-0.30,-1.30,-69.40,0,1,0,56,100,-7973,1954,15455,3201.50,10,WP,1,0,0,0,0,0,0,1654646544365,3906,3897,3893,3882,0,0,27,,,,,,,0,0,0,3.00,-13.00,-694.00,0.00,0.00,-604.00,14,19.00,0.00,0.61,0.00,0.00,0.00,0,,,100,100,0,2,0,0,0,1,0,,,,,0.0,0.0,0.0,0.0,0.0,0.0,0
34.182603,-118.129083,1.90,2.00,0.00,0.06,1.90,1.90,0.50,0.08,4303,2022-06-08 00:02:24.466,2022-06-07 17:02:24.466,15,0,0,15.455,34.182602,-118.129083,0.00,0.00,0.00,-0.30,-1.50,-76.90,0,1,0,56,100,-7973,1954,15455,3201.50,10,WP,1,0,0,0,0,0,0,1654646544465,3906,3897,3893,3882,0,0,27,,,,,,,0,0,0,3.00,-15.00,-769.00,0.00,0.00,-672.00,14,19.00,0.00,0.62,0.00,0.00,0.00,0,,,100,100,0,2,0,0,0,1,0,,,,,0.0,0.0,0.0,0.0,0.0,0.0,0
34.182603,-118.129083,1.90,2.00,0.00,0.06,1.90,1.90,0.50,0.08,4403,2022-06-08 00:02:24.566,2022-06-07 17:02:24.566,15,0,0,15.447,34.182602,-118.129083,0.00,0.00,0.00,-0.30,-1.50,-84.40,0,1,0,56,100,-7490,1949,15447,3201.50,10,WP,1,0,0,0,0,0,0,1654646544565,3906,3897,3893,3882,0,0,27,,,,,,,0,0,0,3.00,-15.00,-844.00,0.00,0.00,-746.00,14,19.00,0.00,0.64,0.00,0.00,0.00,0,,,100,100,0,2,0,0,0,1,0,,,,,0.0,0.0,0.0,0.0,0.0,0.0,0
34.182603,-118.129083,1.90,2.00,0.00,0.07,1.90,1.90,0.50,0.08,4503,2022-06-08 00:02:24.665,2022-06-07 17:02:24.665,15,0,0,15.447,34.182602,-118.129083,0.00,0.00,0.00,-0.50,-1.40,-92.00,0,1,0,56,100,-7490,1949,15447,3201.50,10,WP,1,0,0,0,0,0,0,1654646544665,3906,3897,3893,3882,0,0,27,,,,,,,0,0,0,5.00,-14.00,-920.00,0.00,0.00,-823.00,14,19.00,0.00,0.73,0.00,0.00,0.00,0,,,100,100,0,2,0,0,0,1,0,,,,,0.0,0.0,0.0,0.0,0.0,0.0,0
34.182603,-118.129083,1.90,2.00,0.00,0.08,1.90,1.90,0.50,0.08,4602,2022-06-08 00:02:24.765,2022-06-07 17:02:24.765,15,0,0,15.447,34.182602,-118.129083,0.00,0.00,0.00,-0.70,-1.40,-99.70,0,1,0,56,100,-7490,1949,15447,3201.50,10,WP,1,0,0,0,0,0,0,1654646544764,3906,3897,3893,3882,0,0,27,,,,,,,0,0,0,7.00,-14.00,-997.00,0.00,0.00,-901.00,14,19.00,0.00,0.76,0.00,0.00,0.00,0,,,100,100,0,2,0,0,0,1,0,,,,,0.0,0.0,0.0,0.0,0.0,0.0,0
34.182603,-118.129084,1.90,2.00,0.00,0.07,1.90,1.90,0.50,0.08,4702,2022-06-08 00:02:24.865,2022-06-07 17:02:24.865,15,0,0,15.447,34.182602,-118.129083,0.00,0.00,0.00,-0.70,-1.40,-107.30,0,1,0,56,100,-7490,1949,15447,3201.50,10,WP,1,0,0,0,0,0,0,1654646544864,3906,3897,3893,3882,0,0,27,,,,,,,0,0,0,7.00,-14.00,-1073.00,0.00,0.00,-978.00,14,19.00,0.00,0.74,0.00,0.00,0.00,0,,,100,100,0,2,0,0,0,1,0,,,,,0.0,0.0,0.0,0.0,0.0,0.0,0
34.182603,-118.129084,1.90,2.00,0.00,0.08,1.90,1.90,0.50,0.08,4803,2022-06-08 00:02:24.966,2022-06-07 17:02:24.966,15,0,0,15.447,34.182602,-118.129083,0.00,0.00,0.00,-0.70,-1.30,-114.70,0,1,0,56,100,-7490,1949,15447,3201.50,10,WP,1,0,0,0,0,0,0,1654646544965,3906,3897,3893,3882,0,0,27,,,,,,,0,0,0,7.00,-13.00,-1147.00,0.00,0.00,-1054.00,14,19.00,0.00,0.78,0.00,0.00,0.00,0,,,100,100,0,2,0,0,0,1,0,,,,,0.0,0.0,0.0,0.0,0.0,0.0,0
34.182603,-118.129084,1.90,2.00,0.00,0.08,1.90,1.90,0.50,0.08,4903,2022-06-08 00:02:25.065,2022-06-07 17:02:25.065,15,0,0,15.447,34.182602,-118.129083,0.00,0.00,0.00,-0.80,-1.30,-122.20,0,1,0,56,100,-7490,1949,15447,3201.50,10,WP,1,0,0,0,0,0,0,1654646545065,3906,3897,3893,3882,0,0,27,,,,,,,0,0,0,8.00,-13.00,-1222.00,0.00,0.00,-1130.00,14,19.00,0.00,0.77,0.00,0.00,0.00,0,,,100,100,0,2,0,0,0,1,0,,,,,0.0,0.0,0.0,0.0,0.0,0.0,0
34.182603,-118.129084,1.90,2.00,0.00,0.08,1.90,1.90,0.50,0.08,5004,2022-06-08 00:02:25.166,2022-06-07 17:02:25.166,15,0,0,15.447,34.182602,-118.129083,0.00,0.00,0.00,-0.80,-1.30,-129.90,0,1,0,56,100,-7490,1949,15447,3201.50,10,WP,1,0,0,0,0,0,0,1654646545166,3906,3897,3893,3882,0,0,27,,,,,,,0,0,0,8.00,-13.00,-1299.00,0.00,0.00,-1208.00,14,19.00,0.00,0.81,0.00,0.00,0.00,0,,,100,100,0,2,0,0,0,1,0,,,,,0.0,0.0,0.0,0.0,0.0,0.0,0
34.182603,-118.129084,1.90,2.00,0.00,0.09,1.90,1.90,0.50,0.09,5103,2022-06-08 00:02:25.266,2022-06-07 17:02:25.266,15,0,0,15.447,34.182602,-118.129083,0.00,0.00,0.00,-0.80,-1.00,-137.30,0,1,0,56,100,-7490,1949,15447,3201.50,10,WP,1,0,0,0,0,0,0,1654646545265,3906,3897,3893,3882,0,0,27,,,,,,,0,0,0,8.00,-10.00,-1373.00,0.00,0.00,-1283.00,14,19.00,0.00,0.92,0.00,0.00,0.00,0,,,100,100,0,2,0,0,0,1,0,,,,,0.0,0.0,0.0,0.0,0.0,0.0,0
34.182603,-118.129084,1.90,2.00,0.00,0.10,1.90,1.90,0.50,0.10,5204,2022-06-08 00:02:25.367,2022-06-07 17:02:25.367,15,0,0,15.447,34.182602,-118.129083,0.00,0.00,0.00,-0.80,-0.80,-144.90,0,1,0,56,100,-7490,1949,15447,3201.50,10,WP,1,0,0,0,0,0,0,1654646545366,3906,3897,3893,3882,0,0,27,,,,,,,0,0,0,8.00,-8.00,-1449.00,0.00,0.00,-1358.00,14,19.00,0.00,0.98,0.00,0.00,0.00,0,,,100,100,0,2,0,0,0,1,0,,,,,0.0,0.0,0.0,0.0,0.0,0.0,0
34.182603,-118.129084,1.90,2.00,0.00,0.10,1.90,1.90,0.50,0.10,5304,2022-06-08 00:02:25.466,2022-06-07 17:02:25.466,15,0,0,15.447,34.182602,-118.129083,0.00,0.00,0.00,-0.80,-0.80,-152.60,0,1,0,56,100,-7490,1949,15447,3201.50,10,WP,1,0,0,0,0,0,0,1654646545466,3906,3897,3893,3882,0,0,27,,,,,,,0,0,0,8.00,-8.00,-1526.00,0.00,0.00,-1435.00,14,19.00,0.00,1.01,0.00,0.00,0.00,0,,,100,100,0,2,0,0,0,1,0,,,,,0.0,0.0,0.0,0.0,0.0,0.0,0
34.182603,-118.129084,1.90,2.00,0.00,0.11,1.90,1.90,0.50,0.11,5403,2022-06-08 00:02:25.566,2022-06-07 17:02:25.566,15,0,0,15.447,34.182602,-118.129083,0.00,0.00,0.00,-0.70,-0.60,-159.30,0,1,0,56,100,-7490,1949,15447,3201.50,10,WP,1,0,0,0,0,0,0,1654646545565,3906,3897,3893,3882,0,0,27,,,,,,,0,0,0,7.00,-6.00,-1593.00,0.00,0.00,-1511.00,14,19.00,0.00,1.07,0.00,0.00,0.00,0,,,100,100,0,2,0,0,0,1,0,,,,,0.0,0.0,0.0,0.0,0.0,0.0,0
34.182603,-118.129084,1.90,2.00,0.00,0.11,1.90,1.90,0.50,0.11,5504,2022-06-08 00:02:25.666,2022-06-07 17:02:25.667,15,0,0,15.447,34.182602,-118.129083,0.00,0.00,0.00,-0.70,-0.50,-164.20,0,1,0,56,100,-7490,1949,15447,3201.50,10,WP,1,0,0,0,0,0,0,1654646545666,3906,3897,3893,3882,0,0,27,,,,,,,0,0,0,7.00,-5.00,-1642.00,0.00,0.00,-1585.00,14,19.00,0.00,1.05,0.00,0.00,0.00,0,,,100,100,0,2,0,0,0,1,0,,,,,0.0,0.0,0.0,0.0,0.0,0.0,0
34.182603,-118.129085,1.90,2.00,0.00,0.11,1.90,1.90,0.50,0.11,5603,2022-06-08 00:02:25.766,2022-06-07 17:02:25.766,15,0,0,15.447,34.182602,-118.129083,0.00,0.00,0.00,-0.70,-0.30,-167.40,0,1,0,56,100,-7490,1949,15447,3201.50,10,WP,1,0,0,0,0,0,0,1654646545765,3906,3897,3893,3882,0,0,27,,,,,,,0,0,0,7.00,-3.00,-1674.00,0.00,0.00,-1645.00,14,19.00,0.00,1.11,0.00,0.00,0.00,0,,,100,100,0,2,0,0,0,1,0,,,,,0.0,0.0,0.0,0.0,0.0,0.0,0
34.182602,-118.129085,1.90,2.00,0.00,0.12,1.90,1.90,0.50,0.12,5704,2022-06-08 00:02:25.866,2022-06-07 17:02:25.866,15,0,0,15.447,34.182602,-118.129083,0.00,0.00,0.00,-0.60,0.00,-169.20,0,1,0,56,100,-7490,1949,15447,3201.50,10,WP,1,0,0,0,0,0,0,1654646545866,3906,3897,3893,3882,0,0,27,,,,,,,0,0,0,6.00,0.00,-1692.00,0.00,0.00,-1686.00,14,19.00,0.00,1.19,0.00,0.00,0.00,0,,,100,100,0,2,0,0,0,1,0,,,,,0.0,0.0,0.0,0.0,0.0,0.0,0
34.182602,-118.129085,1.90,2.00,0.00,0.13,1.90,1.90,0.50,0.13,5804,2022-06-08 00:02:25.967,2022-06-07 17:02:25.967,15,0,0,15.447,34.182602,-118.129083,0.00,0.00,0.00,-0.60,0.00,-170.40,0,1,0,56,100,-7490,1949,15447,3201.50,10,WP,1,0,0,0,0,0,0,1654646545966,3906,3897,3893,3882,0,0,27,,,,,,,0,0,0,6.00,0.00,-1704.00,0.00,0.00,-1713.00,14,19.00,0.00,1.26,0.00,0.00,0.00,0,,,100,100,0,2,0,0,0,1,0,,,,,0.0,0.0,0.0,0.0,0.0,0.0,0
34.182602,-118.129085,1.90,2.00,0.00,0.14,1.90,1.90,0.50,0.14,5904,2022-06-08 00:02:26.067,2022-06-07 17:02:26.067,15,0,0,15.447,34.182602,-118.129083,0.00,0.00,0.00,-0.40,0.00,-171.00,0,1,0,56,100,-7490,1949,15447,3201.50,10,WP,1,0,0,0,0,0,0,1654646546066,3906,3897,3893,3882,0,0,27,,,,,,,0,0,0,4.00,0.00,-1710.00,0.00,0.00,-1731.00,14,19.00,0.00,1.41,0.00,0.00,0.00,0,,,100,100,0,2,0,0,0,1,0,,,,,0.0,0.0,0.0,0.0,0.0,0.0,0
34.182602,-118.129085,1.90,2.00,0.00,0.15,1.90,1.90,0.50,0.15,6004,2022-06-08 00:02:26.166,2022-06-07 17:02:26.166,15,0,0,15.447,34.182602,-118.129083,0.00,0.00,0.00,-0.30,0.00,-171.30,0,1,0,56,100,-7490,1949,15447,3201.50,10,WP,1,0,0,0,0,0,0,1654646546166,3906,3897,3893,3882,0,0,27,,,,,,,0,0,0,3.00,0.00,-1713.00,0.00,0.00,-1741.00,14,19.00,0.00,1.52,0.00,0.00,0.00,0,,,100,100,0,2,0,0,0,1,0,,,,,0.0,0.0,0.0,0.0,0.0,0.0,0
34.182602,-118.129085,1.90,2.00,0.00,0.15,1.90,1.90,0.50,0.15,6103,2022-06-08 00:02:26.266,2022-06-07 17:02:26.266,15,0,0,15.447,34.182602,-118.129083,0.00,0.00,0.00,0.00,0.00,-171.70,0,1,0,56,100,-7490,1949,15447,3201.50,10,WP,1,0,0,0,0,0,0,1654646546265,3906,3897,3893,3882,0,0,27,,,,,,,0,0,0,-0.00,0.00,-1717.00,0.00,0.00,-1747.00,14,19.00,0.00,1.50,0.00,0.00,0.00,0,,,100,100,0,2,0,0,0,1,0,,,,,0.0,0.0,0.0,0.0,0.0,0.0,0
34.182602,-118.129085,1.90,2.00,0.00,0.16,1.90,1.90,0.50,0.16,6203,2022-06-08 00:02:26.366,2022-06-07 17:02:26.366,15,0,0,15.447,34.182602,-118.129083,0.00,0.00,0.00,0.00,-0.10,-172.20,0,1,0,56,100,-7490,1949,15447,3201.50,10,WP,1,0,0,0,0,0,0,1654646546365,3906,3897,3893,3882,0,0,27,,,,,,,0,0,0,-0.00,-1.00,-1722.00,0.00,0.00,-1751.00,14,19.00,0.00,1.61,0.00,0.00,0.00,0,,,100,100,0,2,0,0,0,1,0,,,,,0.0,0.0,0.0,0.0,0.0,0.0,0
34.182602,-118.129085,1.90,2.00,0.00,0.17,1.90,1.90,0.50,0.17,6304,2022-06-08 00:02:26.466,2022-06-07 17:02:26.466,15,0,0,15.447,34.182602,-118.129083,0.00,0.00,0.00,-2.00,-0.10,-172.10,0,1,0,56,100,-7490,1949,15447,3201.50,10,WP,1,0,0,0,0,0,0,1654646546466,3906,3897,3893,3882,0,0,27,,,,,,,0,0,0,20.00,-1.00,-1721.00,0.00,0.00,-1755.00,14,19.00,0.00,1.69,0.00,0.00,0.00,0,,,100,100,0,2,0,0,0,1,0,,,,,0.0,0.0,0.0,0.0,0.0,0.0,0
34.182602,-118.129085,1.90,2.00,0.10,0.18,1.90,1.90,0.50,0.18,6405,2022-06-08 00:02:26.568,2022-06-07 17:02:26.568,15,0,0,15.447,34.182602,-118.129083,-0.10,0.00,0.00,-6.40,-0.40,-172.10,0,1,0,56,100,-7490,1949,15447,3201.50,10,WP,1,0,0,0,0,0,0,1654646546567,3906,3897,3893,3882,0,0,27,,,,,,,0,0,0,64.00,-4.00,-1721.00,0.00,0.00,-1758.00,14,19.00,1.00,1.82,-1.00,0.00,0.00,0,,,100,100,0,2,0,0,0,1,0,,,,,0.0,0.0,0.0,0.0,0.0,0.0,0
34.182601,-118.129085,1.90,2.00,0.20,0.20,1.90,1.90,0.50,0.20,6503,2022-06-08 00:02:26.666,2022-06-07 17:02:26.666,15,0,0,15.419,34.182602,-118.129083,-0.20,0.00,0.00,-10.30,-0.50,-172.10,0,1,0,56,100,-7742,1945,15419,3201.50,10,WP,1,0,0,0,0,0,0,1654646546665,3906,3897,3893,3882,0,0,27,,,,,,,0,0,0,103.00,-5.00,-1721.00,0.00,0.00,-1759.00,14,19.00,2.00,1.97,-2.00,0.00,0.00,0,,,100,100,0,2,0,0,0,1,0,,,,,0.0,0.0,0.0,0.0,0.0,0.0,0
34.182601,-118.129085,1.90,2.00,0.40,0.23,1.90,1.90,0.50,0.23,6604,2022-06-08 00:02:26.766,2022-06-07 17:02:26.767,15,0,0,15.419,34.182602,-118.129083,-0.40,0.00,0.00,-13.00,-0.50,-171.90,0,1,0,56,100,-7742,1945,15419,3201.50,10,WP,1,0,0,0,0,0,0,1654646546766,3906,3897,3893,3882,0,0,27,,,,,,,0,0,0,130.00,-5.00,-1719.00,0.00,0.00,-1760.00,14,19.00,4.00,2.28,-4.00,0.00,0.00,0,,,100,100,0,2,0,0,0,1,0,,,,,0.0,0.0,0.0,0.0,0.0,0.0,0
34.182600,-118.129085,1.90,2.00,0.60,0.28,1.90,1.90,0.60,0.28,6704,2022-06-08 00:02:26.867,2022-06-07 17:02:26.867,15,0,0,15.419,34.182602,-118.129083,-0.60,0.00,0.00,-14.20,-0.20,-171.90,0,1,0,56,100,-7742,1945,15419,3201.50,10,WP,1,0,0,0,0,0,0,1654646546866,3906,3897,3893,3882,0,0,27,,,,,,,0,0,0,142.00,-2.00,-1719.00,0.00,0.00,-1761.00,14,19.00,6.00,2.82,-6.00,0.00,0.00,0,,,100,100,0,2,0,0,0,1,0,,,,,0.0,0.0,0.0,0.0,0.0,0.0,0
34.182600,-118.129085,1.90,2.00,0.81,0.36,1.90,1.90,0.81,0.36,6805,2022-06-08 00:02:26.968,2022-06-07 17:02:26.968,15,0,0,15.419,34.182602,-118.129083,-0.80,-0.10,0.00,-14.90,-0.20,-171.90,0,1,0,56,100,-7742,1945,15419,3201.50,10,WP,1,0,0,0,0,0,0,1654646546967,3906,3897,3893,3882,0,0,27,,,,,,,0,0,0,149.00,-2.00,-1719.00,0.00,0.00,-1761.00,14,19.00,8.06,3.57,-8.00,-1.00,0.00,0,,,100,100,0,2,0,0,0,1,0,,,,,0.0,0.0,0.0,0.0,0.0,0.0,0
34.182599,-118.129086,1.90,2.00,1.00,0.46,1.90,1.90,1.00,0.46,6904,2022-06-08 00:02:27.066,2022-06-07 17:02:27.066,15,0,0,15.419,34.182602,-118.129083,-1.00,-0.10,0.00,-15.00,-0.40,-172.00,0,1,0,56,100,-7742,1945,15419,3201.50,10,WP,1,0,0,0,0,0,0,1654646547066,3906,3897,3893,3882,0,0,27,,,,,,,0,0,0,150.00,-4.00,-1720.00,0.00,0.00,-1761.00,14,19.00,10.05,4.63,-10.00,-1.00,0.00,0,,,100,100,0,2,0,0,0,1,0,,,,,0.0,0.0,0.0,0.0,0.0,0.0,0
34.182597,-118.129086,1.90,2.00,1.32,0.59,1.90,1.90,1.32,0.59,7004,2022-06-08 00:02:27.167,2022-06-07 17:02:27.167,15,0,0,15.419,34.182602,-118.129083,-1.30,-0.20,0.00,-14.80,-0.60,-172.00,0,1,0,56,100,-7742,1945,15419,3201.50,10,WP,1,0,0,0,0,0,0,1654646547166,3906,3897,3893,3882,0,0,27,,,,,,,0,0,0,148.00,-6.00,-1720.00,0.00,0.00,-1761.00,14,19.00,13.15,5.89,-13.00,-2.00,0.00,0,,,100,100,0,2,0,0,0,1,0,,,,,0.0,0.0,0.0,0.0,0.0,0.0,0
34.182596,-118.129086,1.90,2.00,1.51,0.72,1.90,1.90,1.51,0.72,7106,2022-06-08 00:02:27.268,2022-06-07 17:02:27.268,15,0,0,15.419,34.182602,-118.129083,-1.50,-0.20,0.00,-14.60,-1.20,-172.00,0,1,0,56,100,-7742,1945,15419,3201.50,10,WP,1,0,0,0,0,0,0,1654646547268,3906,3897,3893,3882,0,0,27,,,,,,,0,0,0,146.00,-12.00,-1720.00,0.00,0.00,-1761.00,14,19.00,15.13,7.18,-15.00,-2.00,0.00,0,,,100,100,0,2,0,0,0,1,0,,,,,0.0,0.0,0.0,0.0,0.0,0.0,0
34.182595,-118.129087,1.90,2.00,1.71,0.89,1.90,1.90,1.71,0.89,7205,2022-06-08 00:02:27.367,2022-06-07 17:02:27.368,15,0,0,15.419,34.182602,-118.129083,-1.70,-0.20,0.00,-13.50,-1.40,-171.80,0,1,0,56,100,-7742,1945,15419,3201.50,10,WP,1,0,0,0,0,0,0,1654646547367,3906,3897,3893,3882,0,0,27,,,,,,,0,0,0,135.00,-14.00,-1718.00,0.00,0.00,-1761.00,14,19.00,17.12,8.89,-17.00,-2.00,0.00,0,,,100,100,0,2,0,0,0,1,0,,,,,0.0,0.0,0.0,0.0,0.0,0.0,0
34.182593,-118.129088,1.90,2.00,1.91,1.08,1.90,1.90,1.91,1.08,7304,2022-06-08 00:02:27.467,2022-06-07 17:02:27.467,15,0,0,15.419,34.182602,-118.129083,-1.90,-0.20,0.00,-9.50,-2.80,-172.00,0,1,0,56,100,-7742,1945,15419,3201.50,10,WP,1,0,0,0,0,0,0,1654646547466,3906,3897,3893,3882,0,0,27,,,,,,,0,0,0,95.00,-28.00,-1720.00,0.00,0.00,-1761.00,14,19.00,19.10,10.82,-19.00,-2.00,0.00,0,,,100,100,0,2,0,0,0,1,0,,,,,0.0,0.0,0.0,0.0,0.0,0.0,0
34.182591,-118.129088,1.90,2.00,2.02,1.29,1.90,1.90,2.02,1.29,7405,2022-06-08 00:02:27.567,2022-06-07 17:02:27.567,15,0,0,15.419,34.182602,-118.129083,-2.00,-0.30,0.00,-5.30,-2.70,-171.70,0,1,0,56,100,-7742,1945,15419,3201.50,10,WP,1,0,0,0,0,0,0,1654646547567,3906,3897,3893,3882,0,0,27,,,,,,,0,0,0,53.00,-27.00,-1717.00,0.00,0.00,-1761.00,14,19.00,20.22,12.86,-20.00,-3.00,0.00,0,,,100,100,0,2,0,0,0,1,0,,,,,0.0,0.0,0.0,0.0,0.0,0.0,0
34.182590,-118.129090,1.90,2.00,2.11,1.52,1.90,1.90,2.11,1.52,7505,2022-06-08 00:02:27.667,2022-06-07 17:02:27.667,15,0,0,15.419,34.182602,-118.129083,-2.10,-0.20,0.00,-2.00,-3.80,-171.90,0,1,0,56,100,-7742,1945,15419,3201.50,10,WP,1,0,0,0,0,0,0,1654646547667,3906,3897,3893,3882,0,0,27,,,,,,,0,0,0,20.00,-38.00,-1719.00,0.00,0.00,-1762.00,14,19.00,21.10,15.16,-21.00,-2.00,0.00,0,,,100,100,0,2,0,0,0,1,0,,,,,0.0,0.0,0.0,0.0,0.0,0.0,0
34.182588,-118.129090,1.90,2.00,2.12,1.73,1.90,1.90,2.12,1.73,7604,2022-06-08 00:02:27.767,2022-06-07 17:02:27.767,15,0,0,15.419,34.182602,-118.129083,-2.10,-0.30,0.00,0.10,-4.00,-171.40,0,1,0,56,100,-7742,1945,15419,3201.50,10,WP,1,0,0,0,0,0,0,1654646547766,3906,3897,3893,3882,0,0,27,,,,,,,0,0,0,-1.00,-40.00,-1714.00,0.00,0.00,-1762.00,14,19.00,21.21,17.27,-21.00,-3.00,0.00,0,,,100,100,0,2,0,0,0,1,0,,,,,0.0,0.0,0.0,0.0,0.0,0.0,0
34.182586,-118.129092,1.90,2.00,2.01,1.96,1.90,1.90,2.12,1.96,7705,2022-06-08 00:02:27.868,2022-06-07 17:02:27.868,15,0,0,15.419,34.182602,-118.129083,-2.00,-0.20,0.00,1.20,-5.40,-171.90,0,1,0,56,100,-7742,1945,15419,3201.50,10,WP,1,0,0,0,0,0,0,1654646547867,3906,3897,3893,3882,0,0,27,,,,,,,0,0,0,-12.00,-54.00,-1719.00,0.00,0.00,-1762.00,14,19.00,20.10,19.55,-20.00,-2.00,0.00,0,,,100,100,0,2,0,0,0,1,0,,,,,0.0,0.0,0.0,0.0,0.0,0.0,0
34.182584,-118.129092,1.90,2.00,2.01,2.16,1.90,1.90,2.12,2.16,7804,2022-06-08 00:02:27.967,2022-06-07 17:02:27.967,15,0,0,15.419,34.182602,-118.129083,-2.00,-0.20,0.00,2.20,-5.30,-171.30,0,1,0,56,100,-7742,1945,15419,3201.50,10,WP,1,0,0,0,0,0,0,1654646547966,3906,3897,3893,3882,0,0,27,,,,,,,0,0,0,-22.00,-53.00,-1713.00,0.00,0.00,-1762.00,14,19.00,20.10,21.57,-20.00,-2.00,0.00,0,,,100,100,0,2,0,0,0,1,0,,,,,0.0,0.0,0.0,0.0,0.0,0.0,0
34.182583,-118.129094,1.90,2.00,2.00,2.36,1.90,1.90,2.12,2.36,7905,2022-06-08 00:02:28.067,2022-06-07 17:02:28.068,15,0,0,15.419,34.182602,-118.129083,-2.00,-0.10,0.00,2.60,-6.60,-171.80,0,1,0,56,100,-7742,1945,15419,3201.50,10,WP,1,0,0,0,0,0,0,1654646548067,3906,3897,3893,3882,0,0,27,,,,,,,0,0,0,-26.00,-66.00,-1718.00,0.00,0.00,-1762.00,14,19.00,20.02,23.64,-20.00,-1.00,0.00,0,,,100,100,0,2,0,0,0,1,0,,,,,0.0,0.0,0.0,0.0,0.0,0.0,0
34.182581,-118.129094,1.90,2.00,1.90,2.55,1.90,1.90,2.12,2.55,8005,2022-06-08 00:02:28.167,2022-06-07 17:02:28.167,15,0,0,15.419,34.182602,-118.129083,-1.90,0.00,0.00,3.10,-6.40,-171.50,0,1,0,56,100,-7742,1945,15419,3201.50,10,WP,1,0,0,0,0,0,0,1654646548167,3906,3897,3893,3882,0,0,27,,,,,,,0,0,0,-31.00,-64.00,-1715.00,0.00,0.00,-1762.00,14,19.00,19.00,25.48,-19.00,0.00,0.00,0,,,100,100,0,2,0,0,0,1,0,,,,,0.0,0.0,0.0,0.0,0.0,0.0,0
34.182580,-118.129095,1.90,2.00,1.80,2.75,1.90,1.90,2.12,2.75,8105,2022-06-08 00:02:28.267,2022-06-07 17:02:28.267,15,0,0,15.419,34.182602,-118.129083,-1.80,0.00,0.00,4.30,-6.50,-172.10,0,1,0,56,100,-7742,1945,15419,3201.50,10,WP,1,0,0,0,0,0,0,1654646548267,3906,3897,3893,3882,0,0,27,,,,,,,0,0,0,-43.00,-65.00,-1721.00,0.00,0.00,-1762.00,14,19.00,18.00,27.54,-18.00,0.00,0.00,0,,,100,100,0,2,0,0,0,1,0,,,,,0.0,0.0,0.0,0.0,0.0,0.0,0
34.182578,-118.129095,1.90,2.00,1.70,2.92,1.90,1.90,2.12,2.92,8204,2022-06-08 00:02:28.367,2022-06-07 17:02:28.367,15,0,0,15.419,34.182602,-118.129083,-1.70,0.10,0.00,5.10,-5.60,-171.80,0,1,0,56,100,-7742,1945,15419,3201.50,10,WP,1,0,0,0,0,0,0,1654646548366,3906,3897,3893,3882,0,0,27,,,,,,,0,0,0,-51.00,-56.00,-1718.00,0.00,0.00,-1762.00,14,19.00,17.03,29.20,-17.00,1.00,0.00,0,,,100,100,0,2,0,0,0,1,0,,,,,0.0,0.0,0.0,0.0,0.0,0.0,0
34.182576,-118.129096,1.90,2.00,1.61,3.12,1.90,1.90,2.12,3.12,8305,2022-06-08 00:02:28.468,2022-06-07 17:02:28.468,15,0,0,15.419,34.182602,-118.129083,-1.60,0.20,0.00,6.10,-5.80,-172.30,0,1,0,56,100,-7742,1945,15419,3201.50,10,WP,1,0,0,0,0,0,0,1654646548467,3906,3897,3893,3882,0,0,27,,,,,,,0,0,0,-61.00,-58.00,-1723.00,0.00,0.00,-1762.00,14,19.00,16.12,31.23,-16.00,2.00,0.00,0,,,100,100,0,2,0,0,0,1,0,,,,,0.0,0.0,0.0,0.0,0.0,0.0,0
34.182575,-118.129096,1.90,2.00,1.51,3.27,1.90,1.90,2.12,3.27,8404,2022-06-08 00:02:28.567,2022-06-07 17:02:28.567,15,0,0,15.419,34.182602,-118.129083,-1.50,0.20,0.00,6.00,-5.30,-171.90,0,1,0,56,100,-7742,1945,15419,3201.50,10,WP,1,0,0,0,0,0,0,1654646548566,3906,3897,3893,3882,0,0,27,,,,,,,0,0,0,-60.00,-53.00,-1719.00,0.00,0.00,-1762.00,14,19.00,15.13,32.67,-15.00,2.00,0.00,0,,,100,100,0,2,0,0,0,1,0,,,,,0.0,0.0,0.0,0.0,0.0,0.0,0
34.182573,-118.129096,1.90,2.00,1.43,3.43,1.90,1.90,2.12,3.43,8505,2022-06-08 00:02:28.667,2022-06-07 17:02:28.667,15,0,0,15.408,34.182602,-118.129083,-1.40,0.30,0.00,6.10,-4.30,-172.20,0,1,0,56,100,-7778,1941,15408,3201.50,10,WP,1,0,0,0,0,0,0,1654646548667,3906,3897,3893,3882,0,0,27,,,,,,,0,0,0,-61.00,-43.00,-1722.00,0.00,0.00,-1762.00,14,19.00,14.32,34.32,-14.00,3.00,0.00,0,,,100,100,0,2,0,0,0,1,0,,,,,0.0,0.0,0.0,0.0,0.0,0.0,0
34.182572,-118.129096,1.90,2.00,1.36,3.55,1.90,1.90,2.12,3.55,8608,2022-06-08 00:02:28.770,2022-06-07 17:02:28.770,15,0,0,15.408,34.182602,-118.129083,-1.30,0.40,0.00,5.40,-3.50,-171.80,0,1,0,56,100,-7778,1941,15408,3201.50,10,WP,1,0,0,0,0,0,0,1654646548770,3906,3897,3893,3882,0,0,27,,,,,,,0,0,0,-54.00,-35.00,-1718.00,0.00,0.00,-1762.00,14,19.00,13.60,35.54,-13.00,4.00,0.00,0,,,100,100,0,2,0,0,0,1,0,,,,,0.0,0.0,0.0,0.0,0.0,0.0,0
34.182571,-118.129096,1.90,2.00,1.30,3.71,1.90,1.90,2.12,3.71,8705,2022-06-08 00:02:28.867,2022-06-07 17:02:28.867,15,0,0,15.408,34.182602,-118.129083,-1.20,0.50,0.00,5.30,-2.60,-172.20,0,1,0,56,100,-7778,1941,15408,3201.50,10,WP,1,0,0,0,0,0,0,1654646548867,3906,3897,3893,3882,0,0,27,,,,,,,0,0,0,-53.00,-26.00,-1722.00,0.00,0.00,-1762.00,14,19.00,13.00,37.06,-12.00,5.00,0.00,0,,,100,100,0,2,0,0,0,1,0,,,,,0.0,0.0,0.0,0.0,0.0,0.0,0
34.182570,-118.129096,1.90,2.00,1.21,3.81,1.90,1.90,2.12,3.81,8805,2022-06-08 00:02:28.967,2022-06-07 17:02:28.967,15,0,0,15.408,34.182602,-118.129083,-1.10,0.50,0.00,4.20,-1.60,-171.80,0,1,0,56,100,-7778,1941,15408,3201.50,10,WP,1,0,0,0,0,0,0,1654646548967,3906,3897,3893,3882,0,0,27,,,,,,,0,0,0,-42.00,-16.00,-1718.00,0.00,0.00,-1762.00,14,19.00,12.08,38.09,-11.00,5.00,0.00,0,,,100,100,0,2,0,0,0,1,0,,,,,0.0,0.0,0.0,0.0,0.0,0.0,0
34.182568,-118.129096,1.90,2.00,1.12,3.95,1.90,1.90,2.12,3.95,8908,2022-06-08 00:02:29.071,2022-06-07 17:02:29.071,15,0,0,15.408,34.182602,-118.129083,-1.00,0.50,0.00,4.40,0.10,-171.80,0,1,0,56,100,-7778,1941,15408,3201.50,10,WP,1,0,0,0,0,0,0,1654646549070,3906,3897,3893,3882,0,0,27,,,,,,,0,0,0,-44.00,1.00,-1718.00,0.00,0.00,-1762.00,14,19.00,11.18,39.50,-10.00,5.00,0.00,0,,,100,100,0,2,0,0,0,1,0,,,,,0.0,0.0,0.0,0.0,0.0,0.0,0
34.182567,-118.129095,1.90,2.00,1.03,4.04,1.90,1.90,2.12,4.04,9005,2022-06-08 00:02:29.167,2022-06-07 17:02:29.167,15,0,0,15.408,34.182602,-118.129083,-0.90,0.50,0.00,4.00,0.30,-171.80,0,1,0,56,100,-7778,1941,15408,3201.50,10,WP,1,0,0,0,0,0,0,1654646549167,3906,3897,3893,3882,0,0,27,,,,,,,0,0,0,-40.00,3.00,-1718.00,0.00,0.00,-1762.00,14,19.00,10.30,40.40,-9.00,5.00,0.00,0,,,100,100,0,2,0,0,0,1,0,,,,,0.0,0.0,0.0,0.0,0.0,0.0,0
34.182566,-118.129094,1.90,2.00,0.94,4.13,1.90,1.90,2.12,4.13,9107,2022-06-08 00:02:29.270,2022-06-07 17:02:29.270,15,0,0,15.408,34.182602,-118.129083,-0.80,0.50,0.00,3.90,2.30,-171.90,0,1,0,56,100,-7778,1941,15408,3201.50,10,WP,1,0,0,0,0,0,0,1654646549269,3906,3897,3893,3882,0,0,27,,,,,,,0,0,0,-39.00,23.00,-1719.00,0.00,0.00,-1762.00,14,19.00,9.43,41.32,-8.00,5.00,0.00,0,,,100,100,0,2,0,0,0,1,0,,,,,0.0,0.0,0.0,0.0,0.0,0.0,0
34.182566,-118.129094,1.90,2.10,0.86,4.21,1.90,1.90,2.12,4.21,9208,2022-06-08 00:02:29.370,2022-06-07 17:02:29.370,15,0,0,15.408,34.182602,-118.129083,-0.70,0.50,0.00,4.50,1.90,-171.70,0,1,0,56,100,-7778,1941,15408,3201.50,10,WP,1,0,0,0,0,0,0,1654646549370,3906,3897,3893,3882,0,0,27,,,,,,,0,0,0,-45.00,19.00,-1717.00,0.00,0.00,-1762.00,14,19.00,8.60,42.09,-7.00,5.00,0.00,0,,,100,100,0,2,0,0,0,1,0,,,,,0.0,0.0,0.0,0.0,0.0,0.0,0
34.182564,-118.129094,1.90,2.10,0.72,4.31,1.90,1.90,2.12,4.31,9307,2022-06-08 00:02:29.470,2022-06-07 17:02:29.470,15,0,0,15.408,34.182602,-118.129083,-0.60,0.40,0.00,5.60,2.20,-171.90,0,1,0,56,100,-7778,1941,15408,3201.50,10,WP,1,0,0,0,0,0,0,1654646549469,3906,3897,3893,3882,0,0,27,,,,,,,0,0,0,-56.00,22.00,-1719.00,0.00,0.00,-1762.00,14,19.00,7.21,43.14,-6.00,4.00,0.00,0,,,100,100,0,2,0,0,0,1,0,,,,,0.0,0.0,0.0,0.0,0.0,0.0,0
34.182564,-118.129094,1.90,2.10,0.64,4.38,1.90,1.90,2.12,4.38,9408,2022-06-08 00:02:29.570,2022-06-07 17:02:29.570,15,0,0,15.408,34.182602,-118.129083,-0.50,0.40,0.00,5.50,1.40,-171.90,0,1,0,56,100,-7778,1941,15408,3201.50,10,WP,1,0,0,0,0,0,0,1654646549570,3906,3897,3893,3882,0,0,27,,,,,,,0,0,0,-55.00,14.00,-1719.00,0.00,0.00,-1762.00,14,19.00,6.40,43.78,-5.00,4.00,0.00,0,,,100,100,0,2,0,0,0,1,0,,,,,0.0,0.0,0.0,0.0,0.0,0.0,0
34.182563,-118.129093,1.90,2.10,0.57,4.44,1.90,1.90,2.12,4.44,9505,2022-06-08 00:02:29.668,2022-06-07 17:02:29.668,15,0,0,15.408,34.182602,-118.129083,-0.40,0.40,0.00,5.40,2.40,-172.00,0,1,0,56,100,-7778,1941,15408,3201.50,10,WP,1,0,0,0,0,0,0,1654646549667,3906,3897,3893,3882,0,0,27,,,,,,,0,0,0,-54.00,24.00,-1720.00,0.00,0.00,-1762.00,14,19.00,5.66,44.41,-4.00,4.00,0.00,0,,,100,100,0,2,0,0,0,1,0,,,,,0.0,0.0,0.0,0.0,0.0,0.0,0
34.182563,-118.129093,1.90,2.10,0.50,4.49,1.90,1.90,2.12,4.49,9607,2022-06-08 00:02:29.770,2022-06-07 17:02:29.770,15,0,0,15.408,34.182602,-118.129083,-0.30,0.40,0.00,4.70,2.20,-171.90,0,1,0,56,100,-7778,1941,15408,3201.50,10,WP,1,0,0,0,0,0,0,1654646549769,3906,3897,3893,3882,0,0,27,,,,,,,0,0,0,-47.00,22.00,-1719.00,0.00,0.00,-1762.00,14,19.00,5.00,44.86,-3.00,4.00,0.00,0,,,100,100,0,2,0,0,0,1,0,,,,,0.0,0.0,0.0,0.0,0.0,0.0,0
34.182562,-118.129092,1.90,2.10,0.36,4.51,1.90,1.90,2.12,4.51,9705,2022-06-08 00:02:29.868,2022-06-07 17:02:29.868,15,0,0,15.408,34.182602,-118.129083,-0.20,0.30,0.00,2.50,4.90,-172.20,0,1,0,56,100,-7778,1941,15408,3201.50,10,WP,1,0,0,0,0,0,0,1654646549867,3850,3853,3850,3842,0,0,27,,,,,,,0,0,0,-25.00,49.00,-1722.00,0.00,0.00,-1762.00,14,19.00,3.61,45.13,-2.00,3.00,0.00,0,,,100,100,0,2,0,0,0,1,0,,,,,0.0,0.0,0.0,0.0,0.0,0.0,0
34.182562,-118.129091,1.90,2.10,0.22,4.54,1.90,1.90,2.12,4.54,9807,2022-06-08 00:02:29.970,2022-06-07 17:02:29.970,15,0,0,15.408,34.182602,-118.129083,-0.10,0.20,0.00,1.30,4.50,-172.30,0,1,0,56,100,-7778,1941,15408,3201.50,10,WP,1,0,0,0,0,0,0,1654646549969,3850,3853,3850,3842,0,0,27,,,,,,,0,0,0,-13.00,45.00,-1723.00,0.00,0.00,-1762.00,14,19.00,2.24,45.43,-1.00,2.00,0.00,0,,,100,100,0,2,0,0,0,1,0,,,,,0.0,0.0,0.0,0.0,0.0,0.0,0
34.182562,-118.129091,1.90,2.10,0.20,4.56,1.90,1.90,2.12,4.56,9908,2022-06-08 00:02:30.070,2022-06-07 17:02:30.070,15,0,0,15.408,34.182602,-118.129083,0.00,0.20,0.00,0.90,3.20,-172.30,0,1,0,56,100,-7778,1941,15408,3201.50,10,WP,1,0,0,0,0,0,0,1654646550070,3850,3853,3850,3842,0,0,27,,,,,,,0,0,0,-9.00,32.00,-1723.00,0.00,0.00,-1762.00,14,19.00,2.00,45.60,0.00,2.00,0.00,0,,,100,100,0,2,0,0,0,1,0,,,,,0.0,0.0,0.0,0.0,0.0,0.0,0
34.182561,-118.129091,1.90,2.10,0.10,4.58,1.90,1.90,2.12,4.58,10008,2022-06-08 00:02:30.170,2022-06-07 17:02:30.170,15,0,0,15.408,34.182602,-118.129083,0.00,0.10,0.00,0.40,2.40,-169.70,0,1,0,56,100,-7778,1941,15408,3201.50,10,WP,1,0,0,0,0,0,0,1654646550170,3850,3853,3850,3842,0,0,27,,,,,,,0,0,0,-4.00,24.00,-1697.00,0.00,0.00,-1762.00,14,19.00,1.00,45.84,0.00,1.00,0.00,0,,,100,100,0,2,0,0,0,1,0,,,,,0.0,0.0,0.0,0.0,0.0,0.0,0
34.182561,-118.129090,1.90,2.10,0.10,4.59,1.90,1.90,2.12,4.59,10108,2022-06-08 00:02:30.270,2022-06-07 17:02:30.270,15,0,0,15.408,34.182602,-118.129083,0.00,0.10,0.00,0.00,1.90,-162.00,0,1,0,56,100,-7778,1941,15408,3201.50,10,WP,1,0,0,0,0,0,0,1654646550270,3850,3853,3850,3842,0,0,27,,,,,,,0,0,0,-0.00,19.00,-1620.00,0.00,0.00,-1762.00,14,19.00,1.00,45.91,0.00,1.00,0.00,0,,,100,100,0,2,0,0,0,1,0,,,,,0.0,0.0,0.0,0.0,0.0,0.0,0
34.182561,-118.129090,1.90,2.10,0.10,4.61,1.90,1.90,2.12,4.61,10208,2022-06-08 00:02:30.371,2022-06-07 17:02:30.371,15,0,0,15.408,34.182602,-118.129083,0.00,0.10,0.00,-0.70,1.40,-154.50,0,1,0,56,100,-7778,1941,15408,3201.50,10,WP,1,0,0,0,0,0,0,1654646550370,3850,3853,3850,3842,0,0,27,,,,,,,0,0,0,7.00,14.00,-1545.00,0.00,0.00,-1749.00,14,19.00,1.00,46.10,0.00,1.00,0.00,0,,,100,100,0,2,0,0,0,1,0,,,,,0.0,0.0,0.0,0.0,0.0,0.0,0
34.182561,-118.129089,1.90,2.10,0.10,4.59,1.90,1.90,2.12,4.61,10308,2022-06-08 00:02:30.470,2022-06-07 17:02:30.470,15,0,0,15.408,34.182602,-118.129083,0.00,0.10,0.00,-1.40,0.90,-147.00,0,1,0,56,100,-7778,1941,15408,3201.50,10,WP,1,0,0,0,0,0,0,1654646550470,3850,3853,3850,3842,0,0,27,,,,,,,0,0,0,14.00,9.00,-1470.00,0.00,0.00,-1682.00,14,19.00,1.00,45.86,0.00,1.00,0.00,0,,,100,100,0,2,0,0,0,1,0,,,,,0.0,0.0,0.0,0.0,0.0,0.0,0
34.182561,-118.129089,1.90,2.10,0.10,4.60,1.90,1.90,2.12,4.61,10410,2022-06-08 00:02:30.573,2022-06-07 17:02:30.573,15,0,0,15.408,34.182602,-118.129083,0.00,0.10,0.00,-1.70,0.80,-139.50,0,1,0,56,100,-7778,1941,15408,3201.50,10,WP,1,0,0,0,0,0,0,1654646550572,3850,3853,3850,3842,0,0,27,,,,,,,0,0,0,17.00,8.00,-1395.00,0.00,0.00,-1597.00,14,19.00,1.00,46.01,0.00,1.00,0.00,0,,,100,100,0,2,0,0,0,1,0,,,,,0.0,0.0,0.0,0.0,0.0,0.0,0
34.182561,-118.129089,1.90,2.10,0.00,4.57,1.90,1.90,2.12,4.61,10511,2022-06-08 00:02:30.673,2022-06-07 17:02:30.673,15,0,0,15.395,34.182602,-118.129083,0.00,0.00,0.00,-1.80,0.80,-132.00,0,1,0,56,100,-8064,1939,15395,3201.50,10,WP,1,0,0,0,0,0,0,1654646550673,3850,3853,3850,3842,0,0,27,,,,,,,0,0,0,18.00,8.00,-1320.00,0.00,0.00,-1513.00,14,19.00,0.00,45.73,0.00,0.00,0.00,0,,,100,100,0,2,0,0,0,1,0,,,,,0.0,0.0,0.0,0.0,0.0,0.0,0
34.182561,-118.129089,1.90,2.10,0.00,4.58,1.90,1.90,2.12,4.61,10609,2022-06-08 00:02:30.772,2022-06-07 17:02:30.772,15,0,0,15.395,34.182602,-118.129083,0.00,0.00,0.00,-1.80,0.20,-124.50,0,1,0,56,100,-8064,1939,15395,3201.50,10,WP,1,0,0,0,0,0,0,1654646550771,3850,3853,3850,3842,0,0,27,,,,,,,0,0,0,18.00,2.00,-1245.00,0.00,0.00,-1433.00,14,19.00,0.00,45.83,0.00,0.00,0.00,0,,,100,100,0,2,0,0,0,1,0,,,,,0.0,0.0,0.0,0.0,0.0,0.0,0
34.182562,-118.129088,1.90,2.10,0.00,4.54,1.90,1.90,2.12,4.61,10709,2022-06-08 00:02:30.871,2022-06-07 17:02:30.871,15,0,0,15.395,34.182602,-118.129083,0.00,0.00,0.00,-1.60,-0.20,-117.00,0,1,0,56,100,-8064,1939,15395,3201.50,10,WP,1,0,0,0,0,0,0,1654646550871,3850,3853,3850,3842,0,0,27,,,,,,,0,0,0,16.00,-2.00,-1170.00,0.00,0.00,-1356.00,14,19.00,0.00,45.43,0.00,0.00,0.00,0,,,100,100,0,2,0,0,0,1,0,,,,,0.0,0.0,0.0,0.0,0.0,0.0,0
34.182562,-118.129088,1.90,2.10,0.00,4.55,1.90,1.90,2.12,4.61,10810,2022-06-08 00:02:30.972,2022-06-07 17:02:30.972,15,0,0,15.395,34.182602,-118.129083,0.00,0.00,0.00,-1.50,-0.50,-109.50,0,1,0,56,100,-8064,1939,15395,3201.50,10,WP,1,0,0,0,0,0,0,1654646550972,3850,3853,3850,3842,0,0,27,,,,,,,0,0,0,15.00,-5.00,-1095.00,0.00,0.00,-1278.00,14,19.00,0.00,45.49,0.00,0.00,0.00,0,,,100,100,0,2,0,0,0,1,0,,,,,0.0,0.0,0.0,0.0,0.0,0.0,0
34.182562,-118.129088,1.90,2.10,0.00,4.52,1.90,1.90,2.12,4.61,10909,2022-06-08 00:02:31.072,2022-06-07 17:02:31.072,15,0,0,15.395,34.182602,-118.129083,0.00,0.00,0.00,-1.40,-0.80,-102.10,0,1,0,56,100,-8064,1939,15395,3201.50,10,WP,1,0,0,0,0,0,0,1654646551071,3850,3853,3850,3842,0,0,27,,,,,,,0,0,0,14.00,-8.00,-1021.00,0.00,0.00,-1201.00,14,19.00,0.00,45.25,0.00,0.00,0.00,0,,,100,100,0,2,0,0,0,1,0,,,,,0.0,0.0,0.0,0.0,0.0,0.0,0
34.182562,-118.129088,1.90,2.10,0.00,4.53,1.90,1.90,2.12,4.61,11009,2022-06-08 00:02:31.172,2022-06-07 17:02:31.172,15,0,0,15.395,34.182602,-118.129083,0.00,0.00,0.00,-1.20,-1.10,-94.50,0,1,0,56,100,-8064,1939,15395,3201.50,10,WP,1,0,0,0,0,0,0,1654646551171,3850,3853,3850,3842,0,0,27,,,,,,,0,0,0,12.00,-11.00,-945.00,0.00,0.00,-1125.00,14,19.00,0.00,45.28,0.00,0.00,0.00,0,,,100,100,0,2,0,0,0,1,0,,,,,0.0,0.0,0.0,0.0,0.0,0.0,0
34.182562,-118.129088,1.90,2.10,0.00,4.50,1.90,1.90,2.12,4.61,11108,2022-06-08 00:02:31.271,2022-06-07 17:02:31.271,16,0,0,15.395,34.182602,-118.129083,0.00,0.00,0.00,-1.00,-1.10,-87.00,0,1,0,56,100,-8064,1939,15395,3201.50,10,WP,1,0,0,0,0,0,0,1654646551270,3850,3853,3850,3842,0,0,27,,,,,,,0,0,0,10.00,-11.00,-870.00,0.00,0.00,-1049.00,14,19.00,0.00,44.98,0.00,0.00,0.00,0,,,100,100,0,2,0,0,0,1,0,,,,,0.0,0.0,0.0,0.0,0.0,0.0,0
34.182562,-118.129088,1.90,2.10,0.00,4.50,1.90,1.90,2.12,4.61,11209,2022-06-08 00:02:31.371,2022-06-07 17:02:31.371,16,0,0,15.395,34.182602,-118.129083,0.00,0.00,0.00,-1.20,-1.40,-79.40,0,1,0,56,100,-8064,1939,15395,3201.50,10,WP,1,0,0,0,0,0,0,1654646551371,3850,3853,3850,3842,0,0,27,,,,,,,0,0,0,12.00,-14.00,-794.00,0.00,0.00,-973.00,14,19.00,0.00,44.98,0.00,0.00,0.00,0,,,100,100,0,2,0,0,0,1,0,,,,,0.0,0.0,0.0,0.0,0.0,0.0,0
34.182562,-118.129088,1.90,2.10,0.00,4.46,1.90,1.90,2.12,4.61,11309,2022-06-08 00:02:31.472,2022-06-07 17:02:31.472,16,0,0,15.395,34.182602,-118.129083,0.00,0.00,0.00,-0.80,-1.50,-72.00,0,1,0,56,100,-8064,1939,15395,3201.50,10,WP,1,0,0,0,0,0,0,1654646551471,3850,3853,3850,3842,0,0,27,,,,,,,0,0,0,8.00,-15.00,-720.00,0.00,0.00,-897.00,14,19.00,0.00,44.60,0.00,0.00,0.00,0,,,100,100,0,2,0,0,0,1,0,,,,,0.0,0.0,0.0,0.0,0.0,0.0,0
34.182562,-118.129088,1.90,2.10,0.00,4.46,1.90,1.90,2.12,4.61,11409,2022-06-08 00:02:31.571,2022-06-07 17:02:31.571,16,0,0,15.395,34.182602,-118.129083,0.00,0.00,0.00,-0.20,-1.90,-64.50,0,1,0,56,100,-8064,1939,15395,3201.50,10,WP,1,0,0,0,0,0,0,1654646551571,3850,3853,3850,3842,0,0,27,,,,,,,0,0,0,2.00,-19.00,-645.00,0.00,0.00,-821.00,14,19.00,0.00,44.56,0.00,0.00,0.00,0,,,100,100,0,2,0,0,0,1,0,,,,,0.0,0.0,0.0,0.0,0.0,0.0,0
34.182563,-118.129088,1.90,2.10,0.00,4.42,1.90,1.90,2.12,4.61,11509,2022-06-08 00:02:31.671,2022-06-07 17:02:31.671,16,0,0,15.395,34.182602,-118.129083,0.00,0.00,0.00,0.00,-2.00,-57.10,0,1,0,56,100,-8064,1939,15395,3201.50,10,WP,1,0,0,0,0,0,0,1654646551671,3850,3853,3850,3842,0,0,27,,,,,,,0,0,0,-0.00,-20.00,-571.00,0.00,0.00,-746.00,14,19.00,0.00,44.23,0.00,0.00,0.00,0,,,100,100,0,2,0,0,0,1,0,,,,,0.0,0.0,0.0,0.0,0.0,0.0,0
34.182563,-118.129088,1.90,2.10,0.00,4.42,1.90,1.90,2.12,4.61,11609,2022-06-08 00:02:31.771,2022-06-07 17:02:31.771,16,0,0,15.395,34.182602,-118.129083,0.00,0.00,0.00,0.60,-2.00,-49.70,0,1,0,56,100,-8064,1939,15395,3201.50,10,WP,1,0,0,0,0,0,0,1654646551771,3850,3853,3850,3842,0,0,27,,,,,,,0,0,0,-6.00,-20.00,-497.00,0.00,0.00,-670.00,14,19.00,0.00,44.16,0.00,0.00,0.00,0,,,100,100,0,2,0,0,0,1,0,,,,,0.0,0.0,0.0,0.0,0.0,0.0,0
34.182563,-118.129088,1.90,2.10,0.00,4.39,1.90,1.90,2.12,4.61,11709,2022-06-08 00:02:31.871,2022-06-07 17:02:31.871,16,0,0,15.395,34.182602,-118.129083,0.00,0.00,0.00,1.00,-1.70,-42.40,0,1,0,56,100,-8064,1939,15395,3201.50,10,WP,1,0,0,0,0,0,0,1654646551871,3850,3853,3850,3842,0,0,27,,,,,,,0,0,0,-10.00,-17.00,-424.00,0.00,0.00,-596.00,14,19.00,0.00,43.93,0.00,0.00,0.00,0,,,100,100,0,2,0,0,0,1,0,,,,,0.0,0.0,0.0,0.0,0.0,0.0,0
34.182563,-118.129088,1.90,2.00,0.00,4.39,1.90,1.90,2.12,4.61,11809,2022-06-08 00:02:31.971,2022-06-07 17:02:31.971,16,0,0,15.395,34.182602,-118.129083,0.00,0.00,0.00,1.50,-1.20,-35.20,0,1,0,56,100,-8064,1939,15395,3201.50,10,WP,1,0,0,0,0,0,0,1654646551971,3850,3853,3850,3842,0,0,27,,,,,,,0,0,0,-15.00,-12.00,-352.00,0.00,0.00,-523.00,14,19.00,0.00,43.85,0.00,0.00,0.00,0,,,100,100,0,2,0,0,0,1,0,,,,,0.0,0.0,0.0,0.0,0.0,0.0,0
34.182563,-118.129088,1.90,2.00,0.00,4.37,1.90,1.90,2.12,4.61,11910,2022-06-08 00:02:32.072,2022-06-07 17:02:32.072,16,0,0,15.395,34.182602,-118.129083,0.00,0.00,0.00,1.70,-0.80,-28.50,0,1,0,56,100,-8064,1939,15395,3201.50,10,WP,1,0,0,0,0,0,0,1654646552072,3850,3853,3850,3842,0,0,27,,,,,,,0,0,0,-17.00,-8.00,-285.00,0.00,0.00,-450.00,14,19.00,0.00,43.68,0.00,0.00,0.00,0,,,100,100,0,2,0,0,0,1,0,,,,,0.0,0.0,0.0,0.0,0.0,0.0,0
34.182563,-118.129088,1.90,2.10,0.00,4.36,1.90,1.90,2.12,4.61,12009,2022-06-08 00:02:32.171,2022-06-07 17:02:32.171,16,0,0,15.395,34.182602,-118.129083,0.00,0.00,0.00,2.00,-0.80,-23.20,0,1,0,56,100,-8064,1939,15395,3201.50,10,WP,1,0,0,0,0,0,0,1654646552171,3850,3853,3850,3842,0,0,27,,,,,,,0,0,0,-20.00,-8.00,-232.00,0.00,0.00,-379.00,14,19.00,0.00,43.60,0.00,0.00,0.00,0,,,100,100,0,2,0,0,0,1,0,,,,,0.0,0.0,0.0,0.0,0.0,0.0,0
34.182564,-118.129088,1.90,2.00,0.00,4.33,1.90,1.90,2.12,4.61,12109,2022-06-08 00:02:32.271,2022-06-07 17:02:32.271,16,0,0,15.395,34.182602,-118.129083,0.00,0.00,0.00,2.00,-0.80,-18.80,0,1,0,56,100,-8064,1939,15395,3201.50,10,WP,1,0,0,0,0,0,0,1654646552271,3850,3853,3850,3842,0,0,27,,,,,,,0,0,0,-20.00,-8.00,-188.00,0.00,0.00,-318.00,14,19.00,0.00,43.27,0.00,0.00,0.00,0,,,100,100,0,2,0,0,0,1,0,,,,,0.0,0.0,0.0,0.0,0.0,0.0,0
34.182564,-118.129088,1.90,2.00,0.00,4.32,1.90,1.90,2.12,4.61,12209,2022-06-08 00:02:32.372,2022-06-07 17:02:32.372,16,0,0,15.395,34.182602,-118.129083,0.00,0.00,0.00,2.00,-0.90,-15.20,0,1,0,56,100,-8064,1939,15395,3201.50,10,WP,1,0,0,0,0,0,0,1654646552371,3850,3853,3850,3842,0,0,27,,,,,,,0,0,0,-20.00,-9.00,-152.00,0.00,0.00,-318.00,14,19.00,0.00,43.18,0.00,0.00,0.00,0,,,100,100,0,2,0,0,0,1,0,,,,,0.0,0.0,0.0,0.0,0.0,0.0,0
34.182564,-118.129088,1.90,2.00,0.00,4.30,1.90,1.90,2.12,4.61,12310,2022-06-08 00:02:32.472,2022-06-07 17:02:32.472,16,0,0,15.395,34.182602,-118.129083,0.00,0.00,0.00,2.10,-1.20,-12.40,0,1,0,56,100,-8064,1939,15395,3201.50,10,WP,1,0,0,0,0,0,0,1654646552472,3850,3853,3850,3842,0,0,27,,,,,,,0,0,0,-21.00,-12.00,-124.00,0.00,0.00,-230.00,14,19.00,0.00,43.03,0.00,0.00,0.00,0,,,100,100,0,2,0,0,0,1,0,,,,,0.0,0.0,0.0,0.0,0.0,0.0,0
34.182564,-118.129088,1.90,2.00,0.00,4.30,1.90,1.90,2.12,4.61,12410,2022-06-08 00:02:32.572,2022-06-07 17:02:32.572,16,0,0,15.395,34.182602,-118.129083,0.00,0.00,0.00,2.30,-1.00,-10.10,0,1,0,56,100,-8064,1939,15395,3201.50,10,WP,1,0,0,0,0,0,0,1654646552572,3850,3853,3850,3842,0,0,27,,,,,,,0,0,0,-23.00,-10.00,-101.00,0.00,0.00,-197.00,14,19.00,0.00,42.95,0.00,0.00,0.00,0,,,100,100,0,2,0,0,0,1,0,,,,,0.0,0.0,0.0,0.0,0.0,0.0,0
34.182564,-118.129088,1.90,2.00,0.00,4.29,1.90,1.90,2.12,4.61,12510,2022-06-08 00:02:32.672,2022-06-07 17:02:32.672,16,0,0,15.382,34.182602,-118.129083,0.00,0.00,0.00,2.40,-0.90,-8.30,0,1,0,56,100,-8000,1934,15382,3201.50,10,WP,1,0,0,0,0,0,0,1654646552672,3850,3853,3850,3842,0,0,27,,,,,,,0,0,0,-24.00,-9.00,-83.00,0.00,0.00,-171.00,14,19.00,0.00,42.93,0.00,0.00,0.00,0,,,100,100,0,2,0,0,0,1,0,,,,,0.0,0.0,0.0,0.0,0.0,0.0,0
34.182564,-118.129088,1.90,2.00,0.00,4.29,1.90,1.90,2.12,4.61,12609,2022-06-08 00:02:32.771,2022-06-07 17:02:32.771,16,0,0,15.382,34.182602,-118.129083,0.00,0.00,0.00,2.50,-0.30,-6.80,0,1,0,56,100,-8000,1934,15382,3201.50,10,WP,1,0,0,0,0,0,0,1654646552771,3850,3853,3850,3842,0,0,27,,,,,,,0,0,0,-25.00,-3.00,-68.00,0.00,0.00,-150.00,14,19.00,0.00,42.88,0.00,0.00,0.00,0,,,100,100,0,2,0,0,0,1,0,,,,,0.0,0.0,0.0,0.0,0.0,0.0,0
34.182564,-118.129088,1.90,2.00,0.00,4.26,1.90,1.90,2.12,4.61,12711,2022-06-08 00:02:32.874,2022-06-07 17:02:32.874,16,0,0,15.382,34.182602,-118.129083,0.00,0.00,0.00,2.60,-0.10,-5.70,0,1,0,56,100,-8000,1934,15382,3201.50,10,WP,1,0,0,0,0,0,0,1654646552873,3850,3853,3850,3842,0,0,27,,,,,,,0,0,0,-26.00,-1.00,-57.00,0.00,0.00,-134.00,14,19.00,0.00,42.62,0.00,0.00,0.00,0,,,100,100,0,2,0,0,0,1,0,,,,,0.0,0.0,0.0,0.0,0.0,0.0,0
34.182564,-118.129088,1.90,2.00,0.00,4.26,1.90,1.90,2.12,4.61,12810,2022-06-08 00:02:32.972,2022-06-07 17:02:32.972,16,0,0,15.382,34.182602,-118.129083,0.00,0.00,0.00,2.70,0.00,-4.80,0,1,0,56,100,-8000,1934,15382,3201.50,10,WP,1,0,0,0,0,0,0,1654646552972,3850,3853,3850,3842,0,0,27,,,,,,,0,0,0,-27.00,0.00,-48.00,0.00,0.00,-120.00,14,19.00,0.00,42.55,0.00,0.00,0.00,0,,,100,100,0,2,0,0,0,1,0,,,,,0.0,0.0,0.0,0.0,0.0,0.0,0
34.182564,-118.129089,1.90,2.00,0.00,4.25,1.90,1.90,2.12,4.61,12909,2022-06-08 00:02:33.072,2022-06-07 17:02:33.072,16,0,0,15.382,34.182602,-118.129083,0.00,0.00,0.00,-0.10,0.00,-4.70,0,1,0,56,100,-8000,1934,15382,3201.50,10,WP,1,0,0,0,0,0,0,1654646553071,3850,3853,3850,3842,0,0,27,,,,,,,0,0,0,1.00,0.00,-47.00,0.00,0.00,-109.00,14,19.00,0.00,42.46,0.00,0.00,0.00,0,,,100,100,0,2,0,0,0,1,0,,,,,0.0,0.0,0.0,0.0,0.0,0.0,0
34.182564,-118.129089,1.90,2.00,0.00,4.24,1.90,1.90,2.12,4.61,13010,2022-06-08 00:02:33.172,2022-06-07 17:02:33.172,16,0,0,15.382,34.182602,-118.129083,0.00,0.00,0.00,0.00,0.00,-4.70,0,1,0,56,100,-8000,1934,15382,3201.50,10,WP,1,0,0,0,0,0,0,1654646553172,3850,3853,3850,3842,0,0,27,,,,,,,0,0,0,-0.00,0.00,-47.00,0.00,0.00,-101.00,14,19.00,0.00,42.37,0.00,0.00,0.00,0,,,100,100,0,2,0,0,0,1,0,,,,,0.0,0.0,0.0,0.0,0.0,0.0,0
34.182565,-118.129089,1.90,2.00,0.00,4.22,1.90,1.90,2.12,4.61,13109,2022-06-08 00:02:33.271,2022-06-07 17:02:33.271,16,0,0,15.382,34.182602,-118.129083,0.00,0.00,0.00,0.80,-0.30,-4.70,0,1,0,56,100,-8000,1934,15382,3201.50,10,WP,1,0,0,0,0,0,0,1654646553271,3850,3853,3850,3842,0,0,27,,,,,,,0,0,0,-8.00,-3.00,-47.00,0.00,0.00,-97.00,14,19.00,0.00,42.16,0.00,0.00,0.00,0,,,100,100,0,2,0,0,0,1,0,,,,,0.0,0.0,0.0,0.0,0.0,0.0,0
34.182565,-118.129089,1.90,2.00,0.00,4.20,1.90,1.90,2.12,4.61,13209,2022-06-08 00:02:33.372,2022-06-07 17:02:33.372,16,0,0,15.382,34.182602,-118.129083,0.00,0.00,0.00,1.40,-0.70,-4.70,0,1,0,56,100,-8000,1934,15382,3201.50,10,WP,1,0,0,0,0,0,0,1654646553371,3850,3853,3850,3842,0,0,27,,,,,,,0,0,0,-14.00,-7.00,-47.00,0.00,0.00,-96.00,14,19.00,0.00,42.03,0.00,0.00,0.00,0,,,100,100,0,2,0,0,0,1,0,,,,,0.0,0.0,0.0,0.0,0.0,0.0,0
34.182565,-118.129089,1.90,2.00,0.00,4.18,1.90,1.90,2.12,4.61,13309,2022-06-08 00:02:33.471,2022-06-07 17:02:33.471,15,0,0,15.382,34.182602,-118.129083,0.00,0.00,0.00,1.60,-1.00,-4.70,0,1,0,56,100,-8000,1934,15382,3201.50,10,WP,1,0,0,0,0,0,0,1654646553471,3850,3853,3850,3842,0,0,27,,,,,,,0,0,0,-16.00,-10.00,-47.00,0.00,0.00,-95.00,14,19.00,0.00,41.79,0.00,0.00,0.00,0,,,100,100,0,2,0,0,0,1,0,,,,,0.0,0.0,0.0,0.0,0.0,0.0,0
34.182565,-118.129089,1.90,2.00,0.00,4.16,1.90,1.90,2.12,4.61,13410,2022-06-08 00:02:33.572,2022-06-07 17:02:33.572,15,0,0,15.382,34.182602,-118.129083,0.00,0.00,0.00,1.50,-1.30,-4.70,0,1,0,56,100,-8000,1934,15382,3201.50,10,WP,1,0,0,0,0,0,0,1654646553572,3850,3853,3850,3842,0,0,27,,,,,,,0,0,0,-15.00,-13.00,-47.00,0.00,0.00,-94.00,14,19.00,0.00,41.64,0.00,0.00,0.00,0,,,100,100,0,2,0,0,0,1,0,,,,,0.0,0.0,0.0,0.0,0.0,0.0,0
34.182565,-118.129089,1.90,2.00,0.00,4.15,1.90,1.90,2.12,4.61,13510,2022-06-08 00:02:33.672,2022-06-07 17:02:33.672,16,0,0,15.382,34.182602,-118.129083,0.00,0.00,0.00,1.70,-1.20,-4.70,0,1,0,56,100,-8000,1934,15382,3201.50,10,WP,1,0,0,0,0,0,0,1654646553672,3850,3853,3850,3842,0,0,27,,,,,,,0,0,0,-17.00,-12.00,-47.00,0.00,0.00,-94.00,14,19.00,0.00,41.53,0.00,0.00,0.00,0,,,100,100,0,2,0,0,0,1,0,,,,,0.0,0.0,0.0,0.0,0.0,0.0,0
