latitude,longitude,altitude(m),ultrasonicHeight(m),speed(mps),distance(m),max_altitude(m),max_ascent(m),max_speed(mps),max_distance(m),time(millisecond),datetime(utc),datetime(local),satellites,pressure(Pa),temperature(F),voltage(v),home_latitude,home_longitude,velocityX(mps),velocityY(mps),velocityZ(mps),pitch(deg),roll(deg),yaw(deg),powerlevel,isflying,istakingphoto,remainPowerPercent,remainLifePercent,currentCurrent,currentElectricity,currentVoltage,batteryTemperature,dischargeCount,flightmode,isMotorsOn,isTakingVideo,Rc_elevator,Rc_aileron,Rc_throttle,Rc_rudder,Rc_gyro,timestamp,Battery_Cell1,Battery_Cell2,Battery_Cell3,Battery_Cell4,Battery_Cell5,Battery_Cell6,Dronetype,AppVersion,Planename,FlyControllerSerialNumber,RemoteSerialNumber,BatterySerialNumber,CENTER_BATTERY.productDate,CENTER_BATTERY.serialNo,CENTER_BATTERY.fullCapacity,CENTER_BATTERY.productDateRaw,pitchRaw,rollRaw,yawRaw,gimbalPitchRaw,gimbalRollRaw,gimbalYawRaw,flyState,altitudeRaw,speedRaw,distanceRaw,velocityXRaw,velocityYRaw,velocityZRaw,data_reuse,App_Tip,App_Warning,downlinkSignalQuality,uplinkSignalQuality,transmissionChannel,rcModeSwitch,rcHome,rcPause,rcTransform,rcJoystickMode,appMode,FlyControllerSerialNumber_legacy,RemoteSerialNumber_legacy,BatterySerialNumber_legacy,Battery2SerialNumber,frontAvoidDist,backAvoidDist,rightAvoidDist,leftAvoidDist,upAvoidDist,downAvoidDist,isBrakingToAvoid
34.182640,-118.129096,0.30,0.30,0.40,0.09,0.30,0.30,0.40,0.09,1,2022-06-05 23:12:17.456,2022-06-05 16:12:17.456,17,0,0,15.493,34.182639,-118.129096,0.00,0.00,-0.40,0.90,-1.40,-16.10,0,1,0,54,100,-3860,1946,15493,3201.50,4,TakeOff,1,0,0,0,0,0,0,1654470737456,3897,3891,3898,3898,0,0,27,Litchi_iOS_2.14.0,Brian-MAVIC 2,163DFCK001S13F,1DUCFB800104PR,0P2AG3L53400KG,,0,3645,0,-9.00,-14.00,-161.00,0.00,0.00,-321.00,11,3.00,4.00,0.89,0.00,0.00,-4.00,0,,,100,100,0,2,0,0,0,1,0,(null),(null),,,0.0,0.0,0.0,0.0,0.0,0.0,0
34.182640,-118.129096,0.40,0.40,0.40,0.09,0.40,0.40,0.40,0.09,100,2022-06-05 23:12:17.555,2022-06-05 16:12:17.555,17,0,0,15.493,34.182639,-118.129096,0.00,0.00,-0.40,0.60,-1.30,-16.00,0,1,0,54,100,-3860,1946,15493,3201.50,4,TakeOff,1,0,0,0,0,0,0,1654470737555,3897,3891,3898,3898,0,0,27,,,,,,,0,0,0,-6.00,-13.00,-160.00,0.00,0.00,-321.00,11,4.00,4.00,0.92,0.00,0.00,-4.00,0,,,100,100,0,2,0,0,0,1,0,,,,,0.0,0.0,0.0,0.0,0.0,0.0,0
34.182640,-118.129096,0.40,0.40,0.40,0.12,0.40,0.40,0.40,0.12,199,2022-06-05 23:12:17.655,2022-06-05 16:12:17.655,17,0,0,15.493,34.182639,-118.129096,0.00,0.00,-0.40,0.60,-1.30,-16.00,0,1,0,54,100,-3860,1946,15493,3201.50,4,TakeOff,1,0,0,0,0,0,0,1654470737654,3897,3891,3898,3898,0,0,27,,,,,,,0,0,0,-6.00,-13.00,-160.00,0.00,0.00,-321.00,11,4.00,4.00,1.25,0.00,0.00,-4.00,0,,,100,100,0,2,0,0,0,1,0,,,,,0.0,0.0,0.0,0.0,0.0,0.0,0
34.182641,-118.129096,0.40,0.50,0.40,0.13,0.40,0.40,0.40,0.13,299,2022-06-05 23:12:17.755,2022-06-05 16:12:17.755,17,0,0,15.493,34.182639,-118.129096,0.00,0.00,-0.40,0.70,-1.30,-16.00,0,1,0,54,100,-3860,1946,15493,3201.50,4,TakeOff,1,0,0,0,0,0,0,1654470737754,3897,3891,3898,3898,0,0,27,,,,,,,0,0,0,-7.00,-13.00,-160.00,0.00,0.00,-321.00,11,4.00,4.00,1.30,0.00,0.00,-4.00,0,,,100,100,0,2,0,0,0,1,0,,,,,0.0,0.0,0.0,0.0,0.0,0.0,0
34.182640,-118.129096,0.50,0.50,0.40,0.12,0.50,0.50,0.40,0.13,400,2022-06-05 23:12:17.856,2022-06-05 16:12:17.856,17,0,0,15.493,34.182639,-118.129096,0.00,0.00,-0.40,0.90,-1.30,-16.00,0,1,0,54,100,-3860,1946,15493,3201.50,4,TakeOff,1,0,0,0,0,0,0,1654470737855,3897,3891,3898,3898,0,0,27,,,,,,,0,0,0,-9.00,-13.00,-160.00,0.00,0.00,-322.00,11,5.00,4.00,1.18,0.00,0.00,-4.00,0,,,100,100,0,2,0,0,0,1,0,,,,,0.0,0.0,0.0,0.0,0.0,0.0,0
34.182640,-118.129096,0.50,0.60,0.40,0.12,0.50,0.50,0.40,0.13,502,2022-06-05 23:12:17.957,2022-06-05 16:12:17.957,17,0,0,15.493,34.182639,-118.129096,0.00,0.00,-0.40,0.90,-1.00,-16.10,0,1,0,54,100,-3860,1946,15493,3201.50,4,TakeOff,1,0,0,0,0,0,0,1654470737957,3897,3891,3898,3898,0,0,27,,,,,,,0,0,0,-9.00,-10.00,-161.00,0.00,0.00,-322.00,11,5.00,4.00,1.20,0.00,0.00,-4.00,0,,,100,100,0,2,0,0,0,1,0,,,,,0.0,0.0,0.0,0.0,0.0,0.0,0
34.182640,-118.129096,0.60,0.60,0.40,0.10,0.60,0.60,0.40,0.13,600,2022-06-05 23:12:18.055,2022-06-05 16:12:18.055,17,0,0,15.493,34.182639,-118.129096,0.00,0.00,-0.40,0.60,-0.80,-16.10,0,1,0,54,100,-3860,1946,15493,3201.50,4,TakeOff,1,0,0,0,0,0,0,1654470738055,3897,3891,3898,3898,0,0,27,,,,,,,0,0,0,-6.00,-8.00,-161.00,0.00,0.00,-322.00,11,6.00,4.00,1.04,0.00,0.00,-4.00,0,,,100,100,0,2,0,0,0,1,0,,,,,0.0,0.0,0.0,0.0,0.0,0.0,0
34.182640,-118.129096,0.60,0.70,0.50,0.10,0.60,0.60,0.50,0.13,700,2022-06-05 23:12:18.156,2022-06-05 16:12:18.156,17,0,0,15.385,34.182639,-118.129096,0.00,0.00,-0.50,0.40,-0.60,-16.10,0,1,0,54,100,-7409,1943,15385,3201.50,4,TakeOff,1,0,0,0,0,0,0,1654470738155,3897,3891,3898,3898,0,0,27,,,,,,,0,0,0,-4.00,-6.00,-161.00,0.00,0.00,-322.00,11,6.00,5.00,1.04,0.00,0.00,-5.00,0,,,100,100,0,2,0,0,0,1,0,,,,,0.0,0.0,0.0,0.0,0.0,0.0,0
34.182640,-118.129096,0.70,0.70,0.50,0.12,0.70,0.70,0.50,0.13,800,2022-06-05 23:12:18.256,2022-06-05 16:12:18.256,17,0,0,15.385,34.182639,-118.129096,0.00,0.00,-0.50,0.30,-0.60,-16.10,0,1,0,54,100,-7409,1943,15385,3201.50,4,TakeOff,1,0,0,0,0,0,0,1654470738255,3897,3891,3898,3898,0,0,27,,,,,,,0,0,0,-3.00,-6.00,-161.00,0.00,0.00,-322.00,11,7.00,5.00,1.19,0.00,0.00,-5.00,0,,,100,100,0,2,0,0,0,1,0,,,,,0.0,0.0,0.0,0.0,0.0,0.0,0
34.182640,-118.129096,0.70,0.80,0.50,0.12,0.70,0.70,0.50,0.13,900,2022-06-05 23:12:18.356,2022-06-05 16:12:18.356,17,0,0,15.385,34.182639,-118.129096,0.00,0.00,-0.50,0.40,-0.70,-16.10,0,1,0,54,100,-7409,1943,15385,3201.50,4,TakeOff,1,0,0,0,0,0,0,1654470738355,3897,3891,3898,3898,0,0,27,,,,,,,0,0,0,-4.00,-7.00,-161.00,0.00,0.00,-322.00,11,7.00,5.00,1.20,0.00,0.00,-5.00,0,,,100,100,0,2,0,0,0,1,0,,,,,0.0,0.0,0.0,0.0,0.0,0.0,0
34.182640,-118.129096,0.80,0.80,0.50,0.13,0.80,0.80,0.50,0.13,1001,2022-06-05 23:12:18.456,2022-06-05 16:12:18.456,17,0,0,15.385,34.182639,-118.129096,0.00,0.00,-0.50,0.50,-0.80,-16.10,0,1,0,54,100,-7409,1943,15385,3201.50,4,TakeOff,1,0,0,0,0,0,0,1654470738456,3897,3891,3898,3898,0,0,27,,,,,,,0,0,0,-5.00,-8.00,-161.00,0.00,0.00,-322.00,11,8.00,5.00,1.32,0.00,0.00,-5.00,0,,,100,100,0,2,0,0,0,1,0,,,,,0.0,0.0,0.0,0.0,0.0,0.0,0
34.182641,-118.129096,0.80,0.90,0.50,0.13,0.80,0.80,0.50,0.13,1102,2022-06-05 23:12:18.557,2022-06-05 16:12:18.557,17,0,0,15.385,34.182639,-118.129096,0.00,0.00,-0.50,0.50,-0.70,-16.20,0,1,0,54,100,-7409,1943,15385,3201.50,4,TakeOff,1,0,0,0,0,0,0,1654470738557,3897,3891,3898,3898,0,0,27,,,,,,,0,0,0,-5.00,-7.00,-162.00,0.00,0.00,-322.00,11,8.00,5.00,1.34,0.00,0.00,-5.00,0,,,100,100,0,2,0,0,0,1,0,,,,,0.0,0.0,0.0,0.0,0.0,0.0,0
34.182641,-118.129096,0.90,0.90,0.50,0.14,0.90,0.90,0.50,0.14,1201,2022-06-05 23:12:18.656,2022-06-05 16:12:18.656,17,0,0,15.385,34.182639,-118.129096,0.00,0.00,-0.50,0.60,-0.70,-16.20,0,1,0,54,100,-7409,1943,15385,3201.50,4,TakeOff,1,0,0,0,0,0,0,1654470738656,3897,3891,3898,3898,0,0,27,,,,,,,0,0,0,-6.00,-7.00,-162.00,0.00,0.00,-322.00,11,9.00,5.00,1.44,0.00,0.00,-5.00,0,,,100,100,0,2,0,0,0,1,0,,,,,0.0,0.0,0.0,0.0,0.0,0.0,0
34.182641,-118.129096,0.90,1.00,0.50,0.15,0.90,0.90,0.50,0.15,1302,2022-06-05 23:12:18.758,2022-06-05 16:12:18.758,17,0,0,15.385,34.182639,-118.129096,0.00,0.00,-0.50,0.70,-0.70,-16.20,0,1,0,54,100,-7409,1943,15385,3201.50,4,TakeOff,1,0,0,0,0,0,0,1654470738757,3897,3891,3898,3898,0,0,27,,,,,,,0,0,0,-7.00,-7.00,-162.00,0.00,0.00,-322.00,11,9.00,5.00,1.46,0.00,0.00,-5.00,0,,,100,100,0,2,0,0,0,1,0,,,,,0.0,0.0,0.0,0.0,0.0,0.0,0
34.182641,-118.129096,1.00,1.00,0.40,0.16,1.00,1.00,0.50,0.16,1400,2022-06-05 23:12:18.856,2022-06-05 16:12:18.856,17,0,0,15.385,34.182639,-118.129096,0.00,0.00,-0.40,0.70,-0.60,-16.20,0,1,0,54,100,-7409,1943,15385,3201.50,4,TakeOff,1,0,0,0,0,0,0,1654470738855,3897,3891,3898,3898,0,0,27,,,,,,,0,0,0,-7.00,-6.00,-162.00,0.00,0.00,-322.00,11,10.00,4.00,1.64,0.00,0.00,-4.00,0,,,100,100,0,2,0,0,0,1,0,,,,,0.0,0.0,0.0,0.0,0.0,0.0,0
34.182641,-118.129096,1.00,1.10,0.50,0.17,1.00,1.00,0.50,0.17,1501,2022-06-05 23:12:18.957,2022-06-05 16:12:18.957,17,0,0,15.385,34.182639,-118.129096,0.00,0.00,-0.50,0.90,-0.50,-16.20,0,1,0,54,100,-7409,1943,15385,3201.50,4,GPS,1,0,0,0,0,0,0,1654470738956,3897,3891,3898,3898,0,0,27,,,,,,,0,0,0,-9.00,-5.00,-162.00,0.00,0.00,-322.00,6,10.00,5.00,1.68,0.00,0.00,-5.00,0,,,100,100,0,2,0,0,0,1,0,,,,,0.0,0.0,0.0,0.0,0.0,0.0,0
34.182641,-118.129096,1.10,1.10,0.40,0.18,1.10,1.10,0.50,0.18,1600,2022-06-05 23:12:19.056,2022-06-05 16:12:19.056,17,0,0,15.385,34.182639,-118.129096,0.00,0.00,-0.40,0.20,-0.30,-16.40,0,1,0,54,100,-7409,1943,15385,3201.50,4,WP,1,0,0,0,0,0,0,1654470739055,3897,3891,3898,3898,0,0,27,,,,,,,0,0,0,-2.00,-3.00,-164.00,0.00,0.00,-322.00,14,11.00,4.00,1.76,0.00,0.00,-4.00,0,,,100,100,0,2,0,0,0,1,0,,,,,0.0,0.0,0.0,0.0,0.0,0.0,0
34.182641,-118.129096,1.10,1.20,0.40,0.18,1.10,1.10,0.50,0.18,1701,2022-06-05 23:12:19.157,2022-06-05 16:12:19.157,17,0,0,15.385,34.182639,-118.129096,0.00,0.00,-0.40,0.40,-0.20,-16.50,0,1,0,54,100,-7409,1943,15385,3201.50,4,WP,1,0,0,0,0,0,0,1654470739156,3897,3891,3898,3898,0,0,27,,,,,,,0,0,0,-4.00,-2.00,-165.00,0.00,0.00,-322.00,14,11.00,4.00,1.82,0.00,0.00,-4.00,0,,,100,100,0,2,0,0,0,1,0,,,,,0.0,0.0,0.0,0.0,0.0,0.0,0
34.182641,-118.129096,1.20,1.20,0.50,0.18,1.20,1.20,0.50,0.18,1801,2022-06-05 23:12:19.256,2022-06-05 16:12:19.256,17,0,0,15.385,34.182639,-118.129096,0.00,0.00,-0.50,0.70,-0.30,-16.60,0,1,0,54,100,-7409,1943,15385,3201.50,4,WP,1,0,0,0,0,0,0,1654470739256,3897,3891,3898,3898,0,0,27,,,,,,,0,0,0,-7.00,-3.00,-166.00,0.00,0.00,-322.00,14,12.00,5.00,1.79,0.00,0.00,-5.00,0,,,100,100,0,2,0,0,0,1,0,,,,,0.0,0.0,0.0,0.0,0.0,0.0,0
34.182641,-118.129096,1.20,1.30,0.50,0.18,1.20,1.20,0.50,0.18,1902,2022-06-05 23:12:19.357,2022-06-05 16:12:19.357,17,0,0,15.385,34.182639,-118.129096,0.00,0.00,-0.50,0.90,-0.40,-16.70,0,1,0,54,100,-7409,1943,15385,3201.50,4,WP,1,0,0,0,0,0,0,1654470739357,3897,3891,3898,3898,0,0,27,,,,,,,0,0,0,-9.00,-4.00,-167.00,0.00,0.00,-322.00,14,12.00,5.00,1.84,0.00,0.00,-5.00,0,,,100,100,0,2,0,0,0,1,0,,,,,0.0,0.0,0.0,0.0,0.0,0.0,0
34.182641,-118.129096,1.30,1.30,0.40,0.20,1.30,1.30,0.50,0.20,2002,2022-06-05 23:12:19.458,2022-06-05 16:12:19.458,17,0,0,15.385,34.182639,-118.129096,0.00,0.00,-0.40,1.10,-0.40,-16.70,0,1,0,54,100,-7409,1943,15385,3201.50,4,WP,1,0,0,0,0,0,0,1654470739457,3897,3891,3898,3898,0,0,27,,,,,,,0,0,0,-11.00,-4.00,-167.00,0.00,0.00,-322.00,14,13.00,4.00,1.97,0.00,0.00,-4.00,0,,,100,100,0,2,0,0,0,1,0,,,,,0.0,0.0,0.0,0.0,0.0,0.0,0
34.182641,-118.129096,1.30,1.40,0.40,0.20,1.30,1.30,0.50,0.20,2103,2022-06-05 23:12:19.559,2022-06-05 16:12:19.559,17,0,0,15.385,34.182639,-118.129096,0.00,0.00,-0.40,1.20,-0.50,-16.70,0,1,0,54,100,-7409,1943,15385,3201.50,4,WP,1,0,0,0,0,0,0,1654470739558,3897,3891,3898,3898,0,0,27,,,,,,,0,0,0,-12.00,-5.00,-167.00,0.00,0.00,-322.00,14,13.00,4.00,2.02,0.00,0.00,-4.00,0,,,100,100,0,2,0,0,0,1,0,,,,,0.0,0.0,0.0,0.0,0.0,0.0,0
34.182641,-118.129096,1.40,1.40,0.40,0.19,1.40,1.40,0.50,0.20,2205,2022-06-05 23:12:19.661,2022-06-05 16:12:19.661,17,0,0,15.385,34.182639,-118.129096,0.00,0.00,-0.40,1.00,-0.60,-16.70,0,1,0,54,100,-7409,1943,15385,3201.50,4,WP,1,0,0,0,0,0,0,1654470739660,3897,3891,3898,3898,0,0,27,,,,,,,0,0,0,-10.00,-6.00,-167.00,0.00,0.00,-322.00,14,14.00,4.00,1.90,0.00,0.00,-4.00,0,,,100,100,0,2,0,0,0,1,0,,,,,0.0,0.0,0.0,0.0,0.0,0.0,0
34.182641,-118.129096,1.40,1.50,0.40,0.19,1.40,1.40,0.50,0.20,2303,2022-06-05 23:12:19.758,2022-06-05 16:12:19.758,17,0,0,15.385,34.182639,-118.129096,0.00,0.00,-0.40,0.70,-0.70,-16.70,0,1,0,54,100,-7409,1943,15385,3201.50,4,WP,1,0,0,0,0,0,0,1654470739758,3897,3891,3898,3898,0,0,27,,,,,,,0,0,0,-7.00,-7.00,-167.00,0.00,0.00,-322.00,14,14.00,4.00,1.91,0.00,0.00,-4.00,0,,,100,100,0,2,0,0,0,1,0,,,,,0.0,0.0,0.0,0.0,0.0,0.0,0
34.182641,-118.129096,1.50,1.50,0.40,0.18,1.50,1.50,0.50,0.20,2405,2022-06-05 23:12:19.860,2022-06-05 16:12:19.861,17,0,0,15.385,34.182639,-118.129096,0.00,0.00,-0.40,0.50,-0.90,-16.60,0,1,0,54,100,-7409,1943,15385,3201.50,4,WP,1,0,0,0,0,0,0,1654470739860,3897,3891,3898,3898,0,0,27,,,,,,,0,0,0,-5.00,-9.00,-166.00,0.00,0.00,-322.00,14,15.00,4.00,1.76,0.00,0.00,-4.00,0,,,100,100,0,2,0,0,0,1,0,,,,,0.0,0.0,0.0,0.0,0.0,0.0,0
34.182641,-118.129096,1.50,1.60,0.40,0.18,1.50,1.50,0.50,0.20,2505,2022-06-05 23:12:19.960,2022-06-05 16:12:19.960,17,0,0,15.385,34.182639,-118.129096,0.00,0.00,-0.40,0.30,-1.00,-16.60,0,1,0,54,100,-7409,1943,15385,3201.50,4,WP,1,0,0,0,0,0,0,1654470739960,3897,3891,3898,3898,0,0,27,,,,,,,0,0,0,-3.00,-10.00,-166.00,0.00,0.00,-322.00,14,15.00,4.00,1.76,0.00,0.00,-4.00,0,,,100,100,0,2,0,0,0,1,0,,,,,0.0,0.0,0.0,0.0,0.0,0.0,0
34.182641,-118.129096,1.60,1.60,0.40,0.19,1.60,1.60,0.50,0.20,2610,2022-06-05 23:12:20.066,2022-06-05 16:12:20.066,17,0,0,15.385,34.182639,-118.129096,0.00,0.00,-0.40,0.40,-1.00,-16.50,0,1,0,54,100,-7409,1943,15385,3201.50,4,WP,1,0,0,0,0,0,0,1654470740065,3897,3891,3898,3898,0,0,27,,,,,,,0,0,0,-4.00,-10.00,-165.00,0.00,0.00,-322.00,14,16.00,4.00,1.92,0.00,0.00,-4.00,0,,,100,100,0,2,0,0,0,1,0,,,,,0.0,0.0,0.0,0.0,0.0,0.0,0
34.182641,-118.129096,1.60,1.60,0.40,0.19,1.60,1.60,0.50,0.20,2710,2022-06-05 23:12:20.165,2022-06-05 16:12:20.165,17,0,0,15.349,34.182639,-118.129096,0.00,0.00,-0.40,0.40,-0.90,-16.60,0,1,0,54,100,-8164,1939,15349,3201.50,4,WP,1,0,0,0,0,0,0,1654470740165,3897,3891,3898,3898,0,0,27,,,,,,,0,0,0,-4.00,-9.00,-166.00,0.00,0.00,-322.00,14,16.00,4.00,1.93,0.00,0.00,-4.00,0,,,100,100,0,2,0,0,0,1,0,,,,,0.0,0.0,0.0,0.0,0.0,0.0,0
34.182641,-118.129096,1.60,1.70,0.30,0.18,1.60,1.60,0.50,0.20,2803,2022-06-05 23:12:20.258,2022-06-05 16:12:20.259,17,0,0,15.349,34.182639,-118.129096,0.00,0.00,-0.30,0.10,-0.70,-17.00,0,1,0,54,100,-8164,1939,15349,3201.50,4,WP,1,0,0,0,0,0,0,1654470740258,3897,3891,3898,3898,0,0,27,,,,,,,0,0,0,-1.00,-7.00,-170.00,0.00,0.00,-322.00,14,16.00,3.00,1.75,0.00,0.00,-3.00,0,,,100,100,0,2,0,0,0,1,0,,,,,0.0,0.0,0.0,0.0,0.0,0.0,0
34.182641,-118.129096,1.70,1.70,0.30,0.17,1.70,1.70,0.50,0.20,2902,2022-06-05 23:12:20.358,2022-06-05 16:12:20.358,17,0,0,15.349,34.182639,-118.129096,0.00,0.00,-0.30,0.20,-0.50,-18.00,0,1,0,54,100,-8164,1939,15349,3201.50,4,WP,1,0,0,0,0,0,0,1654470740357,3897,3891,3898,3898,0,0,27,,,,,,,0,0,0,-2.00,-5.00,-180.00,0.00,0.00,-323.00,14,17.00,3.00,1.75,0.00,0.00,-3.00,0,,,100,100,0,2,0,0,0,1,0,,,,,0.0,0.0,0.0,0.0,0.0,0.0,0
34.182641,-118.129096,1.70,1.70,0.30,0.17,1.70,1.70,0.50,0.20,3004,2022-06-05 23:12:20.460,2022-06-05 16:12:20.460,17,0,0,15.349,34.182639,-118.129096,0.00,0.00,-0.30,0.20,-0.50,-19.60,0,1,0,54,100,-8164,1939,15349,3201.50,4,WP,1,0,0,0,0,0,0,1654470740459,3897,3891,3898,3898,0,0,27,,,,,,,0,0,0,-2.00,-5.00,-196.00,0.00,0.00,-325.00,14,17.00,3.00,1.72,0.00,0.00,-3.00,0,,,100,100,0,2,0,0,0,1,0,,,,,0.0,0.0,0.0,0.0,0.0,0.0,0
34.182641,-118.129096,1.70,1.80,0.20,0.17,1.70,1.70,0.50,0.20,3103,2022-06-05 23:12:20.558,2022-06-05 16:12:20.558,17,0,0,15.349,34.182639,-118.129096,0.00,0.00,-0.20,0.30,-0.50,-21.80,0,1,0,54,100,-8164,1939,15349,3201.50,4,WP,1,0,0,0,0,0,0,1654470740558,3897,3891,3898,3898,0,0,27,,,,,,,0,0,0,-3.00,-5.00,-218.00,0.00,0.00,-332.00,14,17.00,2.00,1.72,0.00,0.00,-2.00,0,,,100,100,0,2,0,0,0,1,0,,,,,0.0,0.0,0.0,0.0,0.0,0.0,0
34.182641,-118.129096,1.80,1.80,0.20,0.18,1.80,1.80,0.50,0.20,3206,2022-06-05 23:12:20.662,2022-06-05 16:12:20.662,17,0,0,15.349,34.182639,-118.129096,0.00,0.00,-0.20,0.30,-0.50,-24.50,0,1,0,54,100,-8164,1939,15349,3201.50,4,WP,1,0,0,0,0,0,0,1654470740661,3897,3891,3898,3898,0,0,27,,,,,,,0,0,0,-3.00,-5.00,-245.00,0.00,0.00,-348.00,14,18.00,2.00,1.78,0.00,0.00,-2.00,0,,,100,100,0,2,0,0,0,1,0,,,,,0.0,0.0,0.0,0.0,0.0,0.0,0
34.182641,-118.129096,1.80,1.80,0.20,0.18,1.80,1.80,0.50,0.20,3305,2022-06-05 23:12:20.761,2022-06-05 16:12:20.761,17,0,0,15.349,34.182639,-118.129096,0.00,0.00,-0.20,0.40,-0.50,-27.80,0,1,0,54,100,-8164,1939,15349,3201.50,4,WP,1,0,0,0,0,0,0,1654470740760,3897,3891,3898,3898,0,0,27,,,,,,,0,0,0,-4.00,-5.00,-278.00,0.00,0.00,-375.00,14,18.00,2.00,1.79,0.00,0.00,-2.00,0,,,100,100,0,2,0,0,0,1,0,,,,,0.0,0.0,0.0,0.0,0.0,0.0,0
34.182641,-118.129096,1.80,1.90,0.10,0.16,1.80,1.80,0.50,0.20,3404,2022-06-05 23:12:20.859,2022-06-05 16:12:20.859,17,0,0,15.349,34.182639,-118.129096,0.00,0.00,-0.10,0.30,-0.60,-31.70,0,1,0,54,100,-8164,1939,15349,3201.50,4,WP,1,0,0,0,0,0,0,1654470740859,3897,3891,3898,3898,0,0,27,,,,,,,0,0,0,-3.00,-6.00,-317.00,0.00,0.00,-409.00,14,18.00,1.00,1.60,0.00,0.00,-1.00,0,,,100,100,0,2,0,0,0,1,0,,,,,0.0,0.0,0.0,0.0,0.0,0.0,0
34.182641,-118.129096,1.80,1.90,0.10,0.16,1.80,1.80,0.50,0.20,3505,2022-06-05 23:12:20.961,2022-06-05 16:12:20.961,17,0,0,15.349,34.182639,-118.129096,0.00,0.00,-0.10,0.10,-0.80,-36.20,0,1,0,54,100,-8164,1939,15349,3201.50,4,WP,1,0,0,0,0,0,0,1654470740960,3897,3891,3898,3898,0,0,27,,,,,,,0,0,0,-1.00,-8.00,-362.00,0.00,0.00,-450.00,14,18.00,1.00,1.58,0.00,0.00,-1.00,0,,,100,100,0,2,0,0,0,1,0,,,,,0.0,0.0,0.0,0.0,0.0,0.0,0
34.182641,-118.129096,1.80,1.90,0.10,0.17,1.80,1.80,0.50,0.20,3606,2022-06-05 23:12:21.061,2022-06-05 16:12:21.061,17,0,0,15.349,34.182639,-118.129096,0.00,0.00,-0.10,0.00,-0.90,-41.20,0,1,0,54,100,-8164,1939,15349,3201.50,4,WP,1,0,0,0,0,0,0,1654470741061,3897,3891,3898,3898,0,0,27,,,,,,,0,0,0,-0.00,-9.00,-412.00,0.00,0.00,-498.00,14,18.00,1.00,1.66,0.00,0.00,-1.00,0,,,100,100,0,2,0,0,0,1,0,,,,,0.0,0.0,0.0,0.0,0.0,0.0,0
34.182641,-118.129096,1.90,1.90,0.10,0.17,1.90,1.90,0.50,0.20,3703,2022-06-05 23:12:21.158,2022-06-05 16:12:21.158,17,0,0,15.349,34.182639,-118.129096,0.00,0.00,-0.10,-0.10,-0.90,-46.80,0,1,0,54,100,-8164,1939,15349,3201.50,4,WP,1,0,0,0,0,0,0,1654470741158,3897,3891,3898,3898,0,0,27,,,,,,,0,0,0,1.00,-9.00,-468.00,0.00,0.00,-552.00,14,19.00,1.00,1.66,0.00,0.00,-1.00,0,,,100,100,0,2,0,0,0,1,0,,,,,0.0,0.0,0.0,0.0,0.0,0.0,0
34.182641,-118.129096,1.90,1.90,0.10,0.16,1.90,1.90,0.50,0.20,3804,2022-06-05 23:12:21.259,2022-06-05 16:12:21.259,17,0,0,15.349,34.182639,-118.129096,0.00,0.00,-0.10,-0.20,-0.90,-53.00,0,1,0,54,100,-8164,1939,15349,3201.50,4,WP,1,0,0,0,0,0,0,1654470741259,3897,3891,3898,3898,0,0,27,,,,,,,0,0,0,2.00,-9.00,-530.00,0.00,0.00,-611.00,14,19.00,1.00,1.56,0.00,0.00,-1.00,0,,,100,100,0,2,0,0,0,1,0,,,,,0.0,0.0,0.0,0.0,0.0,0.0,0
34.182641,-118.129096,1.90,1.90,0.10,0.16,1.90,1.90,0.50,0.20,3904,2022-06-05 23:12:21.359,2022-06-05 16:12:21.359,17,0,0,15.349,34.182639,-118.129096,0.00,0.00,-0.10,-0.10,-0.90,-59.80,0,1,0,54,100,-8164,1939,15349,3201.50,4,WP,1,0,0,0,0,0,0,1654470741359,3897,3891,3898,3898,0,0,27,,,,,,,0,0,0,1.00,-9.00,-598.00,0.00,0.00,-676.00,14,19.00,1.00,1.56,0.00,0.00,-1.00,0,,,100,100,0,2,0,0,0,1,0,,,,,0.0,0.0,0.0,0.0,0.0,0.0,0
34.182641,-118.129096,1.90,1.90,0.00,0.15,1.90,1.90,0.50,0.20,4005,2022-06-05 23:12:21.461,2022-06-05 16:12:21.461,17,0,0,15.349,34.182639,-118.129096,0.00,0.00,0.00,-0.10,-1.00,-67.10,0,1,0,54,100,-8164,1939,15349,3201.50,4,WP,1,0,0,0,0,0,0,1654470741460,3897,3891,3898,3898,0,0,27,,,,,,,0,0,0,1.00,-10.00,-671.00,0.00,0.00,-747.00,14,19.00,0.00,1.51,0.00,0.00,0.00,0,,,100,100,0,2,0,0,0,1,0,,,,,0.0,0.0,0.0,0.0,0.0,0.0,0
34.182641,-118.129096,1.90,1.90,0.00,0.15,1.90,1.90,0.50,0.20,4104,2022-06-05 23:12:21.559,2022-06-05 16:12:21.559,17,0,0,15.349,34.182639,-118.129096,0.00,0.00,0.00,-0.20,-1.10,-74.70,0,1,0,54,100,-8164,1939,15349,3201.50,4,WP,1,0,0,0,0,0,0,1654470741559,3897,3891,3898,3898,0,0,27,,,,,,,0,0,0,2.00,-11.00,-747.00,0.00,0.00,-823.00,14,19.00,0.00,1.50,0.00,0.00,0.00,0,,,100,100,0,2,0,0,0,1,0,,,,,0.0,0.0,0.0,0.0,0.0,0.0,0
34.182641,-118.129096,1.90,1.90,0.00,0.15,1.90,1.90,0.50,0.20,4205,2022-06-05 23:12:21.660,2022-06-05 16:12:21.660,17,0,0,15.349,34.182639,-118.129096,0.00,0.00,0.00,-0.20,-1.20,-82.30,0,1,0,54,100,-8164,1939,15349,3201.50,4,WP,1,0,0,0,0,0,0,1654470741660,3897,3891,3898,3898,0,0,27,,,,,,,0,0,0,2.00,-12.00,-823.00,0.00,0.00,-901.00,14,19.00,0.00,1.51,0.00,0.00,0.00,0,,,100,100,0,2,0,0,0,1,0,,,,,0.0,0.0,0.0,0.0,0.0,0.0,0
34.182641,-118.129096,1.90,1.90,0.00,0.15,1.90,1.90,0.50,0.20,4303,2022-06-05 23:12:21.759,2022-06-05 16:12:21.759,17,0,0,15.349,34.182639,-118.129096,0.00,0.00,0.00,-0.30,-0.90,-89.80,0,1,0,54,100,-8164,1939,15349,3201.50,4,WP,1,0,0,0,0,0,0,1654470741758,3897,3891,3898,3898,0,0,27,,,,,,,0,0,0,3.00,-9.00,-898.00,0.00,0.00,-978.00,14,19.00,0.00,1.49,0.00,0.00,0.00,0,,,100,100,0,2,0,0,0,1,0,,,,,0.0,0.0,0.0,0.0,0.0,0.0,0
34.182640,-118.129096,1.90,1.90,0.00,0.13,1.90,1.90,0.50,0.20,4404,2022-06-05 23:12:21.860,2022-06-05 16:12:21.860,17,0,0,15.349,34.182639,-118.129096,0.00,0.00,0.00,-0.10,-0.50,-97.40,0,1,0,54,100,-8164,1939,15349,3201.50,4,WP,1,0,0,0,0,0,0,1654470741859,3897,3891,3898,3898,0,0,27,,,,,,,0,0,0,1.00,-5.00,-974.00,0.00,0.00,-1055.00,14,19.00,0.00,1.30,0.00,0.00,0.00,0,,,100,100,0,2,0,0,0,1,0,,,,,0.0,0.0,0.0,0.0,0.0,0.0,0
34.182640,-118.129096,1.90,1.90,0.00,0.13,1.90,1.90,0.50,0.20,4504,2022-06-05 23:12:21.960,2022-06-05 16:12:21.960,17,0,0,15.349,34.182639,-118.129096,0.00,0.00,0.00,0.00,-0.20,-105.00,0,1,0,54,100,-8164,1939,15349,3201.50,4,WP,1,0,0,0,0,0,0,1654470741959,3897,3891,3898,3898,0,0,27,,,,,,,0,0,0,-0.00,-2.00,-1050.00,0.00,0.00,-1132.00,14,19.00,0.00,1.26,0.00,0.00,0.00,0,,,100,100,0,2,0,0,0,1,0,,,,,0.0,0.0,0.0,0.0,0.0,0.0,0
34.182640,-118.129096,1.90,1.90,0.00,0.12,1.90,1.90,0.50,0.20,4604,2022-06-05 23:12:22.059,2022-06-05 16:12:22.059,17,0,0,15.349,34.182639,-118.129096,0.00,0.00,0.00,0.00,0.20,-112.50,0,1,0,54,100,-8164,1939,15349,3201.50,4,WP,1,0,0,0,0,0,0,1654470742059,3897,3891,3898,3898,0,0,27,,,,,,,0,0,0,-0.00,2.00,-1125.00,0.00,0.00,-1208.00,14,19.00,0.00,1.20,0.00,0.00,0.00,0,,,100,100,0,2,0,0,0,1,0,,,,,0.0,0.0,0.0,0.0,0.0,0.0,0
34.182640,-118.129096,1.90,1.90,0.00,0.12,1.90,1.90,0.50,0.20,4705,2022-06-05 23:12:22.161,2022-06-05 16:12:22.161,17,0,0,15.339,34.182639,-118.129096,0.00,0.00,0.00,0.30,0.30,-120.10,0,1,0,54,100,-7765,1934,15339,3201.50,4,WP,1,0,0,0,0,0,0,1654470742160,3897,3891,3898,3898,0,0,27,,,,,,,0,0,0,-3.00,3.00,-1201.00,0.00,0.00,-1284.00,14,19.00,0.00,1.15,0.00,0.00,0.00,0,,,100,100,0,2,0,0,0,1,0,,,,,0.0,0.0,0.0,0.0,0.0,0.0,0
34.182640,-118.129096,1.90,2.00,0.00,0.11,1.90,1.90,0.50,0.20,4805,2022-06-05 23:12:22.260,2022-06-05 16:12:22.260,17,0,0,15.339,34.182639,-118.129096,0.00,0.00,0.00,0.10,0.40,-127.60,0,1,0,54,100,-7765,1934,15339,3201.50,4,WP,1,0,0,0,0,0,0,1654470742260,3897,3891,3898,3898,0,0,27,,,,,,,0,0,0,-1.00,4.00,-1276.00,0.00,0.00,-1360.00,14,19.00,0.00,1.09,0.00,0.00,0.00,0,,,100,100,0,2,0,0,0,1,0,,,,,0.0,0.0,0.0,0.0,0.0,0.0,0
34.182640,-118.129096,1.90,2.00,0.00,0.11,1.90,1.90,0.50,0.20,4905,2022-06-05 23:12:22.361,2022-06-05 16:12:22.361,17,0,0,15.339,34.182639,-118.129096,0.00,0.00,0.00,0.10,0.40,-135.10,0,1,0,54,100,-7765,1934,15339,3201.50,4,WP,1,0,0,0,0,0,0,1654470742360,3897,3891,3898,3898,0,0,27,,,,,,,0,0,0,-1.00,4.00,-1351.00,0.00,0.00,-1436.00,14,19.00,0.00,1.05,0.00,0.00,0.00,0,,,100,100,0,2,0,0,0,1,0,,,,,0.0,0.0,0.0,0.0,0.0,0.0,0
34.182640,-118.129096,1.90,2.00,0.00,0.10,1.90,1.90,0.50,0.20,5006,2022-06-05 23:12:22.462,2022-06-05 16:12:22.462,17,0,0,15.339,34.182639,-118.129096,0.00,0.00,0.00,0.20,0.40,-142.70,0,1,0,54,100,-7765,1934,15339,3201.50,4,WP,1,0,0,0,0,0,0,1654470742461,3897,3891,3898,3898,0,0,27,,,,,,,0,0,0,-2.00,4.00,-1427.00,0.00,0.00,-1511.00,14,19.00,0.00,1.05,0.00,0.00,0.00,0,,,100,100,0,2,0,0,0,1,0,,,,,0.0,0.0,0.0,0.0,0.0,0.0,0
34.182640,-118.129096,1.90,2.00,0.00,0.10,1.90,1.90,0.50,0.20,5105,2022-06-05 23:12:22.560,2022-06-05 16:12:22.560,17,0,0,15.339,34.182639,-118.129096,0.00,0.00,0.00,0.20,0.30,-150.20,0,1,0,54,100,-7765,1934,15339,3201.50,4,WP,1,0,0,0,0,0,0,1654470742560,3897,3891,3898,3898,0,0,27,,,,,,,0,0,0,-2.00,3.00,-1502.00,0.00,0.00,-1587.00,14,19.00,0.00,1.03,0.00,0.00,0.00,0,,,100,100,0,2,0,0,0,1,0,,,,,0.0,0.0,0.0,0.0,0.0,0.0,0
34.182640,-118.129097,1.90,2.00,0.00,0.10,1.90,1.90,0.50,0.20,5203,2022-06-05 23:12:22.659,2022-06-05 16:12:22.659,17,0,0,15.339,34.182639,-118.129096,0.00,0.00,0.00,0.10,0.40,-157.70,0,1,0,54,100,-7765,1934,15339,3201.50,4,WP,1,0,0,0,0,0,0,1654470742658,3897,3891,3898,3898,0,0,27,,,,,,,0,0,0,-1.00,4.00,-1577.00,0.00,0.00,-1663.00,14,19.00,0.00,0.96,0.00,0.00,0.00,0,,,100,100,0,2,0,0,0,1,0,,,,,0.0,0.0,0.0,0.0,0.0,0.0,0
34.182640,-118.129097,1.90,2.00,0.00,0.10,1.90,1.90,0.50,0.20,5306,2022-06-05 23:12:22.761,2022-06-05 16:12:22.761,17,0,0,15.339,34.182639,-118.129096,0.00,0.00,0.00,0.20,0.40,-165.30,0,1,0,54,100,-7765,1934,15339,3201.50,4,WP,1,0,0,0,0,0,0,1654470742761,3897,3891,3898,3898,0,0,27,,,,,,,0,0,0,-2.00,4.00,-1653.00,0.00,0.00,-1738.00,14,19.00,0.00,0.95,0.00,0.00,0.00,0,,,100,100,0,2,0,0,0,1,0,,,,,0.0,0.0,0.0,0.0,0.0,0.0,0
34.182640,-118.129096,1.90,2.00,0.00,0.08,1.90,1.90,0.50,0.20,5405,2022-06-05 23:12:22.860,2022-06-05 16:12:22.861,17,0,0,15.339,34.182639,-118.129096,0.00,0.00,0.00,0.20,0.30,-171.70,0,1,0,54,100,-7765,1934,15339,3201.50,4,WP,1,0,0,0,0,0,0,1654470742860,3897,3891,3898,3898,0,0,27,,,,,,,0,0,0,-2.00,3.00,-1717.00,0.00,0.00,1787.00,14,19.00,0.00,0.81,0.00,0.00,0.00,0,,,100,100,0,2,0,0,0,1,0,,,,,0.0,0.0,0.0,0.0,0.0,0.0,0
34.182640,-118.129096,1.90,2.00,0.00,0.08,1.90,1.90,0.50,0.20,5506,2022-06-05 23:12:22.962,2022-06-05 16:12:22.962,17,0,0,15.339,34.182639,-118.129096,0.00,0.00,0.00,0.30,0.50,-176.20,0,1,0,54,100,-7765,1934,15339,3201.50,4,WP,1,0,0,0,0,0,0,1654470742961,3897,3891,3898,3898,0,0,27,,,,,,,0,0,0,-3.00,5.00,-1762.00,0.00,0.00,1726.00,14,19.00,0.00,0.78,0.00,0.00,0.00,0,,,100,100,0,2,0,0,0,1,0,,,,,0.0,0.0,0.0,0.0,0.0,0.0,0
34.182639,-118.129096,1.90,2.00,0.00,0.07,1.90,1.90,0.50,0.20,5605,2022-06-05 23:12:23.060,2022-06-05 16:12:23.061,17,0,0,15.339,34.182639,-118.129096,0.00,0.00,0.00,0.50,0.70,-179.00,0,1,0,54,100,-7765,1934,15339,3201.50,4,WP,1,0,0,0,0,0,0,1654470743060,3897,3891,3898,3898,0,0,27,,,,,,,0,0,0,-5.00,7.00,-1790.00,0.00,0.00,1684.00,14,19.00,0.00,0.70,0.00,0.00,0.00,0,,,100,100,0,2,0,0,0,1,0,,,,,0.0,0.0,0.0,0.0,0.0,0.0,0
34.182639,-118.129096,1.90,2.00,0.00,0.07,1.90,1.90,0.50,0.20,5706,2022-06-05 23:12:23.162,2022-06-05 16:12:23.162,17,0,0,15.339,34.182639,-118.129096,0.00,0.00,0.00,0.80,0.70,179.10,0,1,0,54,100,-7765,1934,15339,3201.50,4,WP,1,0,0,0,0,0,0,1654470743161,3897,3891,3898,3898,0,0,27,,,,,,,0,0,0,-8.00,7.00,1791.00,0.00,0.00,1657.00,14,19.00,0.00,0.68,0.00,0.00,0.00,0,,,100,100,0,2,0,0,0,1,0,,,,,0.0,0.0,0.0,0.0,0.0,0.0,0
34.182639,-118.129096,1.90,2.00,0.00,0.07,1.90,1.90,0.50,0.20,5805,2022-06-05 23:12:23.260,2022-06-05 16:12:23.260,17,0,0,15.339,34.182639,-118.129096,0.00,0.00,0.00,0.70,0.90,178.10,0,1,0,54,100,-7765,1934,15339,3201.50,4,WP,1,0,0,0,0,0,0,1654470743260,3897,3891,3898,3898,0,0,27,,,,,,,0,0,0,-7.00,9.00,1781.00,0.00,0.00,1639.00,14,19.00,0.00,0.66,0.00,0.00,0.00,0,,,100,100,0,2,0,0,0,1,0,,,,,0.0,0.0,0.0,0.0,0.0,0.0,0
34.182639,-118.129096,1.90,2.00,0.00,0.07,1.90,1.90,0.50,0.20,5905,2022-06-05 23:12:23.361,2022-06-05 16:12:23.361,17,0,0,15.339,34.182639,-118.129096,0.00,0.00,0.00,0.80,1.10,177.70,0,1,0,54,100,-7765,1934,15339,3201.50,4,WP,1,0,0,0,0,0,0,1654470743360,3897,3891,3898,3898,0,0,27,,,,,,,0,0,0,-8.00,11.00,1777.00,0.00,0.00,1628.00,14,19.00,0.00,0.65,0.00,0.00,0.00,0,,,100,100,0,2,0,0,0,1,0,,,,,0.0,0.0,0.0,0.0,0.0,0.0,0
34.182639,-118.129096,1.90,2.00,0.00,0.06,1.90,1.90,0.50,0.20,6006,2022-06-05 23:12:23.461,2022-06-05 16:12:23.461,17,0,0,15.339,34.182639,-118.129096,0.00,0.00,0.00,0.90,1.30,177.70,0,1,0,54,100,-7765,1934,15339,3201.50,4,WP,1,0,0,0,0,0,0,1654470743461,3897,3891,3898,3898,0,0,27,,,,,,,0,0,0,-9.00,13.00,1777.00,0.00,0.00,1623.00,14,19.00,0.00,0.61,0.00,0.00,0.00,0,,,100,100,0,2,0,0,0,1,0,,,,,0.0,0.0,0.0,0.0,0.0,0.0,0
34.182639,-118.129096,1.90,2.00,0.00,0.06,1.90,1.90,0.50,0.20,6105,2022-06-05 23:12:23.561,2022-06-05 16:12:23.561,17,0,0,15.339,34.182639,-118.129096,0.00,0.00,0.00,1.00,1.20,177.40,0,1,0,54,100,-7765,1934,15339,3201.50,4,WP,1,0,0,0,0,0,0,1654470743560,3897,3891,3898,3898,0,0,27,,,,,,,0,0,0,-10.00,12.00,1774.00,0.00,0.00,1621.00,14,19.00,0.00,0.61,0.00,0.00,0.00,0,,,100,100,0,2,0,0,0,1,0,,,,,0.0,0.0,0.0,0.0,0.0,0.0,0
34.182639,-118.129096,1.90,2.00,0.00,0.05,1.90,1.90,0.50,0.20,6204,2022-06-05 23:12:23.660,2022-06-05 16:12:23.660,17,0,0,15.339,34.182639,-118.129096,0.00,0.00,0.00,0.90,1.10,177.20,0,1,0,54,100,-7765,1934,15339,3201.50,4,WP,1,0,0,0,0,0,0,1654470743659,3897,3891,3898,3898,0,0,27,,,,,,,0,0,0,-9.00,11.00,1772.00,0.00,0.00,1619.00,14,19.00,0.00,0.54,0.00,0.00,0.00,0,,,100,100,0,2,0,0,0,1,0,,,,,0.0,0.0,0.0,0.0,0.0,0.0,0
34.182639,-118.129096,1.90,2.00,0.00,0.06,1.90,1.90,0.50,0.20,6306,2022-06-05 23:12:23.761,2022-06-05 16:12:23.761,17,0,0,15.339,34.182639,-118.129096,0.00,0.00,0.00,-2.90,0.50,177.20,0,1,0,54,100,-7765,1934,15339,3201.50,4,WP,1,0,0,0,0,0,0,1654470743761,3897,3891,3898,3898,0,0,27,,,,,,,0,0,0,29.00,5.00,1772.00,0.00,0.00,1617.00,14,19.00,0.00,0.56,0.00,0.00,0.00,0,,,100,100,0,2,0,0,0,1,0,,,,,0.0,0.0,0.0,0.0,0.0,0.0,0
34.182639,-118.129096,1.90,2.00,0.00,0.06,1.90,1.90,0.50,0.20,6406,2022-06-05 23:12:23.861,2022-06-05 16:12:23.861,17,0,0,15.339,34.182639,-118.129096,0.00,0.00,0.00,-7.90,0.20,177.20,0,1,0,54,100,-7765,1934,15339,3201.50,4,WP,1,0,0,0,0,0,0,1654470743861,3897,3891,3898,3898,0,0,27,,,,,,,0,0,0,79.00,2.00,1772.00,0.00,0.00,1616.00,14,19.00,0.00,0.61,0.00,0.00,0.00,0,,,100,100,0,2,0,0,0,1,0,,,,,0.0,0.0,0.0,0.0,0.0,0.0,0
34.182639,-118.129096,1.90,2.00,0.20,0.07,1.90,1.90,0.50,0.20,6509,2022-06-05 23:12:23.965,2022-06-05 16:12:23.965,17,0,0,15.339,34.182639,-118.129096,-0.20,0.00,0.00,-11.80,0.00,177.20,0,1,0,54,100,-7765,1934,15339,3201.50,4,WP,1,0,0,0,0,0,0,1654470743964,3897,3891,3898,3898,0,0,27,,,,,,,0,0,0,118.00,0.00,1772.00,0.00,0.00,1616.00,14,19.00,2.00,0.68,-2.00,0.00,0.00,0,,,100,100,0,2,0,0,0,1,0,,,,,0.0,0.0,0.0,0.0,0.0,0.0,0
34.182639,-118.129096,1.90,2.00,0.40,0.08,1.90,1.90,0.50,0.20,6605,2022-06-05 23:12:24.061,2022-06-05 16:12:24.061,17,0,0,15.339,34.182639,-118.129096,-0.40,0.00,0.00,-14.80,0.10,177.30,0,1,0,54,100,-7765,1934,15339,3201.50,4,WP,1,0,0,0,0,0,0,1654470744060,3897,3891,3898,3898,0,0,27,,,,,,,0,0,0,148.00,1.00,1773.00,0.00,0.00,1615.00,14,19.00,4.00,0.81,-4.00,0.00,0.00,0,,,100,100,0,2,0,0,0,1,0,,,,,0.0,0.0,0.0,0.0,0.0,0.0,0
34.182638,-118.129096,1.90,2.00,0.70,0.13,1.90,1.90,0.70,0.20,6705,2022-06-05 23:12:24.161,2022-06-05 16:12:24.161,17,0,0,15.317,34.182639,-118.129096,-0.70,0.00,0.00,-16.80,0.30,177.20,0,1,0,53,100,-7927,1930,15317,3201.50,4,WP,1,0,0,0,0,0,0,1654470744160,3897,3891,3898,3898,0,0,27,,,,,,,0,0,0,168.00,3.00,1772.00,0.00,0.00,1615.00,14,19.00,7.00,1.33,-7.00,0.00,0.00,0,,,100,100,0,2,0,0,0,1,0,,,,,0.0,0.0,0.0,0.0,0.0,0.0,0
34.182638,-118.129096,1.90,2.00,1.00,0.20,1.90,1.90,1.00,0.20,6804,2022-06-05 23:12:24.259,2022-06-05 16:12:24.259,17,0,0,15.317,34.182639,-118.129096,-1.00,0.00,0.00,-18.10,0.40,177.10,0,1,0,53,100,-7927,1930,15317,3201.50,4,WP,1,0,0,0,0,0,0,1654470744259,3897,3891,3898,3898,0,0,27,,,,,,,0,0,0,181.00,4.00,1771.00,0.00,0.00,1615.00,14,19.00,10.00,2.01,-10.00,0.00,0.00,0,,,100,100,0,2,0,0,0,1,0,,,,,0.0,0.0,0.0,0.0,0.0,0.0,0
34.182636,-118.129096,1.90,2.00,1.30,0.32,1.90,1.90,1.30,0.32,6905,2022-06-05 23:12:24.360,2022-06-05 16:12:24.360,17,0,0,15.317,34.182639,-118.129096,-1.30,0.00,0.00,-19.20,0.40,177.10,0,1,0,53,100,-7927,1930,15317,3201.50,4,WP,1,0,0,0,0,0,0,1654470744360,3897,3891,3898,3898,0,0,27,,,,,,,0,0,0,192.00,4.00,1771.00,0.00,0.00,1615.00,14,19.00,13.00,3.20,-13.00,0.00,0.00,0,,,100,100,0,2,0,0,0,1,0,,,,,0.0,0.0,0.0,0.0,0.0,0.0,0
34.182635,-118.129096,1.90,2.00,1.60,0.45,1.90,1.90,1.60,0.45,7007,2022-06-05 23:12:24.462,2022-06-05 16:12:24.462,18,0,0,15.317,34.182639,-118.129096,-1.60,0.10,0.00,-20.20,0.40,177.10,0,1,0,53,100,-7927,1930,15317,3201.50,4,WP,1,0,0,0,0,0,0,1654470744462,3897,3891,3898,3898,0,0,27,,,,,,,0,0,0,202.00,4.00,1771.00,0.00,0.00,1615.00,14,19.00,16.03,4.51,-16.00,1.00,0.00,0,,,100,100,0,2,0,0,0,1,0,,,,,0.0,0.0,0.0,0.0,0.0,0.0,0
34.182634,-118.129096,2.00,2.00,2.00,0.64,2.00,2.00,2.00,0.64,7105,2022-06-05 23:12:24.561,2022-06-05 16:12:24.561,18,0,0,15.317,34.182639,-118.129096,-2.00,0.10,0.00,-20.80,0.50,177.20,0,1,0,53,100,-7927,1930,15317,3201.50,4,WP,1,0,0,0,0,0,0,1654470744560,3897,3891,3898,3898,0,0,27,,,,,,,0,0,0,208.00,5.00,1772.00,0.00,0.00,1615.00,14,20.00,20.02,6.38,-20.00,1.00,0.00,0,,,100,100,0,2,0,0,0,1,0,,,,,0.0,0.0,0.0,0.0,0.0,0.0,0
34.182632,-118.129096,2.00,2.00,2.30,0.84,2.00,2.00,2.30,0.84,7207,2022-06-05 23:12:24.663,2022-06-05 16:12:24.663,18,0,0,15.317,34.182639,-118.129096,-2.30,0.10,0.00,-20.70,0.80,177.20,0,1,0,53,100,-7927,1930,15317,3201.50,4,WP,1,0,0,0,0,0,0,1654470744662,3826,3819,3825,3823,0,0,27,,,,,,,0,0,0,207.00,8.00,1772.00,0.00,0.00,1615.00,14,20.00,23.02,8.36,-23.00,1.00,0.00,0,,,100,100,0,2,0,0,0,1,0,,,,,0.0,0.0,0.0,0.0,0.0,0.0,0
34.182630,-118.129096,2.00,2.00,2.70,1.09,2.00,2.00,2.70,1.09,7305,2022-06-05 23:12:24.761,2022-06-05 16:12:24.761,18,0,0,15.317,34.182639,-118.129096,-2.70,0.10,0.00,-20.00,0.80,177.20,0,1,0,53,100,-7927,1930,15317,3201.50,4,WP,1,0,0,0,0,0,0,1654470744760,3826,3819,3825,3823,0,0,27,,,,,,,0,0,0,200.00,8.00,1772.00,0.00,0.00,1615.00,14,20.00,27.02,10.90,-27.00,1.00,0.00,0,,,100,100,0,2,0,0,0,1,0,,,,,0.0,0.0,0.0,0.0,0.0,0.0,0
34.182627,-118.129096,2.00,2.00,3.00,1.35,2.00,2.00,3.00,1.35,7407,2022-06-05 23:12:24.862,2022-06-05 16:12:24.862,18,0,0,15.317,34.182639,-118.129096,-3.00,0.10,0.00,-19.50,0.50,177.20,0,1,0,53,100,-7927,1930,15317,3201.50,4,WP,1,0,0,0,0,0,0,1654470744862,3826,3819,3825,3823,0,0,27,,,,,,,0,0,0,195.00,5.00,1772.00,0.00,0.00,1615.00,14,20.00,30.02,13.53,-30.00,1.00,0.00,0,,,100,100,0,2,0,0,0,1,0,,,,,0.0,0.0,0.0,0.0,0.0,0.0,0
34.182624,-118.129095,2.00,2.00,3.31,1.67,2.00,2.00,3.31,1.67,7507,2022-06-05 23:12:24.963,2022-06-05 16:12:24.963,18,0,0,15.317,34.182639,-118.129096,-3.30,0.20,0.00,-19.40,0.30,177.30,0,1,0,53,100,-7927,1930,15317,3201.50,4,WP,1,0,0,0,0,0,0,1654470744962,3826,3819,3825,3823,0,0,27,,,,,,,0,0,0,194.00,3.00,1773.00,0.00,0.00,1615.00,14,20.00,33.06,16.68,-33.00,2.00,0.00,0,,,100,100,0,2,0,0,0,1,0,,,,,0.0,0.0,0.0,0.0,0.0,0.0,0
34.182621,-118.129096,2.00,2.00,3.61,2.00,2.00,2.00,3.61,2.00,7607,2022-06-05 23:12:25.063,2022-06-05 16:12:25.063,18,0,0,15.317,34.182639,-118.129096,-3.60,0.20,0.00,-19.40,0.30,177.30,0,1,0,53,100,-7927,1930,15317,3201.50,4,WP,1,0,0,0,0,0,0,1654470745062,3826,3819,3825,3823,0,0,27,,,,,,,0,0,0,194.00,3.00,1773.00,0.00,0.00,1615.00,14,20.00,36.06,20.03,-36.00,2.00,0.00,0,,,100,100,0,2,0,0,0,1,0,,,,,0.0,0.0,0.0,0.0,0.0,0.0,0
34.182618,-118.129095,2.00,2.00,3.81,2.37,2.00,2.00,3.81,2.37,7709,2022-06-05 23:12:25.164,2022-06-05 16:12:25.164,18,0,0,15.317,34.182639,-118.129096,-3.80,0.20,0.00,-16.50,0.40,177.20,0,1,0,53,100,-7927,1930,15317,3201.50,4,WP,1,0,0,0,0,0,0,1654470745164,3826,3819,3825,3823,0,0,27,,,,,,,0,0,0,165.00,4.00,1772.00,0.00,0.00,1614.00,14,20.00,38.05,23.73,-38.00,2.00,0.00,0,,,100,100,0,2,0,0,0,1,0,,,,,0.0,0.0,0.0,0.0,0.0,0.0,0
34.182614,-118.129096,2.00,2.10,4.10,2.76,2.00,2.00,4.10,2.76,7806,2022-06-05 23:12:25.261,2022-06-05 16:12:25.261,18,0,0,15.317,34.182639,-118.129096,-4.10,0.20,0.00,-12.40,0.50,177.30,0,1,0,53,100,-7927,1930,15317,3201.50,4,WP,1,0,0,0,0,0,0,1654470745261,3826,3819,3825,3823,0,0,27,,,,,,,0,0,0,124.00,5.00,1773.00,0.00,0.00,1614.00,14,20.00,41.05,27.63,-41.00,2.00,0.00,0,,,100,100,0,2,0,0,0,1,0,,,,,0.0,0.0,0.0,0.0,0.0,0.0,0
34.182611,-118.129095,2.00,2.10,4.21,3.17,2.00,2.00,4.21,3.17,7905,2022-06-05 23:12:25.360,2022-06-05 16:12:25.360,18,0,0,15.317,34.182639,-118.129096,-4.20,0.30,0.00,-9.20,0.40,177.30,0,1,0,53,100,-7927,1930,15317,3201.50,4,WP,1,0,0,0,0,0,0,1654470745360,3826,3819,3825,3823,0,0,27,,,,,,,0,0,0,92.00,4.00,1773.00,0.00,0.00,1614.00,14,20.00,42.11,31.73,-42.00,3.00,0.00,0,,,100,100,0,2,0,0,0,1,0,,,,,0.0,0.0,0.0,0.0,0.0,0.0,0
34.182607,-118.129095,2.00,2.10,4.20,3.58,2.00,2.00,4.21,3.58,8007,2022-06-05 23:12:25.462,2022-06-05 16:12:25.462,18,0,0,15.317,34.182639,-118.129096,-4.20,0.20,0.00,-2.60,0.70,177.50,0,1,0,53,100,-7927,1930,15317,3201.50,4,WP,1,0,0,0,0,0,0,1654470745462,3826,3819,3825,3823,0,0,27,,,,,,,0,0,0,26.00,7.00,1775.00,0.00,0.00,1614.00,14,20.00,42.05,35.79,-42.00,2.00,0.00,0,,,100,100,0,2,0,0,0,1,0,,,,,0.0,0.0,0.0,0.0,0.0,0.0,0
34.182603,-118.129095,2.00,2.00,4.21,4.00,2.00,2.00,4.21,4.00,8107,2022-06-05 23:12:25.562,2022-06-05 16:12:25.562,18,0,0,15.317,34.182639,-118.129096,-4.20,0.30,0.00,3.10,0.50,177.40,0,1,0,53,100,-7927,1930,15317,3201.50,4,WP,1,0,0,0,0,0,0,1654470745562,3826,3819,3825,3823,0,0,27,,,,,,,0,0,0,-31.00,5.00,1774.00,0.00,0.00,1614.00,14,20.00,42.11,39.96,-42.00,3.00,0.00,0,,,100,100,0,2,0,0,0,1,0,,,,,0.0,0.0,0.0,0.0,0.0,0.0,0
34.182599,-118.129095,2.00,2.00,4.11,4.48,2.00,2.00,4.21,4.48,8211,2022-06-05 23:12:25.666,2022-06-05 16:12:25.666,18,0,0,15.317,34.182639,-118.129096,-4.10,0.30,0.00,8.30,0.50,177.70,0,1,0,53,100,-7927,1930,15317,3201.50,4,WP,1,0,0,0,0,0,0,1654470745666,3826,3819,3825,3823,0,0,27,,,,,,,0,0,0,-83.00,5.00,1777.00,0.00,0.00,1614.00,14,20.00,41.11,44.79,-41.00,3.00,0.00,0,,,100,100,0,2,0,0,0,1,0,,,,,0.0,0.0,0.0,0.0,0.0,0.0,0
34.182595,-118.129095,1.90,2.00,3.91,4.88,2.00,2.00,4.21,4.88,8308,2022-06-05 23:12:25.763,2022-06-05 16:12:25.763,18,0,0,15.317,34.182639,-118.129096,-3.90,0.30,0.00,12.40,0.50,177.80,0,1,0,53,100,-7927,1930,15317,3201.50,4,WP,1,0,0,0,0,0,0,1654470745763,3826,3819,3825,3823,0,0,27,,,,,,,0,0,0,-124.00,5.00,1778.00,0.00,0.00,1614.00,14,19.00,39.12,48.75,-39.00,3.00,0.00,0,,,100,100,0,2,0,0,0,1,0,,,,,0.0,0.0,0.0,0.0,0.0,0.0,0
34.182592,-118.129095,1.90,2.00,3.61,5.26,2.00,2.00,4.21,5.26,8406,2022-06-05 23:12:25.862,2022-06-05 16:12:25.862,18,0,0,15.317,34.182639,-118.129096,-3.60,0.30,0.00,13.80,0.30,178.10,0,1,0,53,100,-7927,1930,15317,3201.50,4,WP,1,0,0,0,0,0,0,1654470745861,3826,3819,3825,3823,0,0,27,,,,,,,0,0,0,-138.00,3.00,1781.00,0.00,0.00,1614.00,14,19.00,36.12,52.62,-36.00,3.00,0.00,0,,,100,100,0,2,0,0,0,1,0,,,,,0.0,0.0,0.0,0.0,0.0,0.0,0
34.182589,-118.129095,1.90,2.00,3.32,5.61,2.00,2.00,4.21,5.61,8508,2022-06-05 23:12:25.963,2022-06-05 16:12:25.963,18,0,0,15.317,34.182639,-118.129096,-3.30,0.30,0.10,13.90,0.00,177.90,0,1,0,53,100,-7927,1930,15317,3201.50,4,WP,1,0,0,0,0,0,0,1654470745963,3826,3819,3825,3823,0,0,27,,,,,,,0,0,0,-139.00,0.00,1779.00,0.00,0.00,1614.00,14,19.00,33.15,56.08,-33.00,3.00,1.00,0,,,100,100,0,2,0,0,0,1,0,,,,,0.0,0.0,0.0,0.0,0.0,0.0,0
34.182586,-118.129095,1.90,2.00,3.02,5.96,2.00,2.00,4.21,5.96,8607,2022-06-05 23:12:26.062,2022-06-05 16:12:26.062,17,0,0,15.317,34.182639,-118.129096,-3.00,0.30,0.10,14.90,0.00,177.80,0,1,0,53,100,-7927,1930,15317,3201.50,4,WP,1,0,0,0,0,0,0,1654470746062,3826,3819,3825,3823,0,0,27,,,,,,,0,0,0,-149.00,0.00,1778.00,0.00,0.00,1614.00,14,19.00,30.17,59.56,-30.00,3.00,1.00,0,,,100,100,0,2,0,0,0,1,0,,,,,0.0,0.0,0.0,0.0,0.0,0.0,0
34.182583,-118.129095,1.90,2.10,2.72,6.25,2.00,2.00,4.21,6.25,8706,2022-06-05 23:12:26.161,2022-06-05 16:12:26.161,17,0,0,15.314,34.182639,-118.129096,-2.70,0.30,0.00,15.30,0.30,177.60,0,1,0,53,100,-7831,1925,15314,3201.50,4,WP,1,0,0,0,0,0,0,1654470746161,3826,3819,3825,3823,0,0,27,,,,,,,0,0,0,-153.00,3.00,1776.00,0.00,0.00,1614.00,14,19.00,27.17,62.45,-27.00,3.00,0.00,0,,,100,100,0,2,0,0,0,1,0,,,,,0.0,0.0,0.0,0.0,0.0,0.0,0
34.182580,-118.129094,1.80,2.10,2.42,6.54,2.00,2.00,4.21,6.54,8806,2022-06-05 23:12:26.261,2022-06-05 16:12:26.261,17,0,0,15.314,34.182639,-118.129096,-2.40,0.30,0.10,15.20,1.10,177.70,0,1,0,53,100,-7831,1925,15314,3201.50,4,WP,1,0,0,0,0,0,0,1654470746261,3826,3819,3825,3823,0,0,27,,,,,,,0,0,0,-152.00,11.00,1777.00,0.00,0.00,1614.00,14,18.00,24.21,65.39,-24.00,3.00,1.00,0,,,100,100,0,2,0,0,0,1,0,,,,,0.0,0.0,0.0,0.0,0.0,0.0,0
34.182578,-118.129094,1.80,2.10,2.12,6.77,2.00,2.00,4.21,6.77,8906,2022-06-05 23:12:26.362,2022-06-05 16:12:26.362,17,0,0,15.314,34.182639,-118.129096,-2.10,0.30,0.10,14.20,1.40,177.60,0,1,0,53,100,-7831,1925,15314,3201.50,4,WP,1,0,0,0,0,0,0,1654470746361,3826,3819,3825,3823,0,0,27,,,,,,,0,0,0,-142.00,14.00,1776.00,0.00,0.00,1614.00,14,18.00,21.24,67.71,-21.00,3.00,1.00,0,,,100,100,0,2,0,0,0,1,0,,,,,0.0,0.0,0.0,0.0,0.0,0.0,0
34.182576,-118.129094,1.80,2.10,1.83,6.99,2.00,2.00,4.21,6.99,9006,2022-06-05 23:12:26.461,2022-06-05 16:12:26.461,17,0,0,15.314,34.182639,-118.129096,-1.80,0.30,0.10,12.40,1.40,177.60,0,1,0,53,100,-7831,1925,15314,3201.50,4,WP,1,0,0,0,0,0,0,1654470746461,3826,3819,3825,3823,0,0,27,,,,,,,0,0,0,-124.00,14.00,1776.00,0.00,0.00,1614.00,14,18.00,18.28,69.88,-18.00,3.00,1.00,0,,,100,100,0,2,0,0,0,1,0,,,,,0.0,0.0,0.0,0.0,0.0,0.0,0
34.182575,-118.129094,1.80,2.10,1.63,7.17,2.00,2.00,4.21,7.17,9106,2022-06-05 23:12:26.562,2022-06-05 16:12:26.562,17,0,0,15.314,34.182639,-118.129096,-1.60,0.30,0.10,10.70,1.80,177.50,0,1,0,53,100,-7831,1925,15314,3201.50,4,WP,1,0,0,0,0,0,0,1654470746561,3826,3819,3825,3823,0,0,27,,,,,,,0,0,0,-107.00,18.00,1775.00,0.00,0.00,1614.00,14,18.00,16.31,71.68,-16.00,3.00,1.00,0,,,100,100,0,2,0,0,0,1,0,,,,,0.0,0.0,0.0,0.0,0.0,0.0,0
34.182573,-118.129093,1.80,2.00,1.43,7.35,2.00,2.00,4.21,7.35,9206,2022-06-05 23:12:26.661,2022-06-05 16:12:26.661,17,0,0,15.314,34.182639,-118.129096,-1.40,0.30,0.00,9.20,2.10,177.50,0,1,0,53,100,-7831,1925,15314,3201.50,4,WP,1,0,0,0,0,0,0,1654470746661,3826,3819,3825,3823,0,0,27,,,,,,,0,0,0,-92.00,21.00,1775.00,0.00,0.00,1614.00,14,18.00,14.32,73.52,-14.00,3.00,0.00,0,,,100,100,0,2,0,0,0,1,0,,,,,0.0,0.0,0.0,0.0,0.0,0.0,0
34.182572,-118.129093,1.80,2.00,1.22,7.50,2.00,2.00,4.21,7.50,9306,2022-06-05 23:12:26.761,2022-06-05 16:12:26.761,17,0,0,15.314,34.182639,-118.129096,-1.20,0.20,0.00,7.90,2.20,177.30,0,1,0,53,100,-7831,1925,15314,3201.50,4,WP,1,0,0,0,0,0,0,1654470746761,3826,3819,3825,3823,0,0,27,,,,,,,0,0,0,-79.00,22.00,1773.00,0.00,0.00,1614.00,14,18.00,12.17,74.95,-12.00,2.00,0.00,0,,,100,100,0,2,0,0,0,1,0,,,,,0.0,0.0,0.0,0.0,0.0,0.0,0
34.182571,-118.129093,1.80,2.00,1.02,7.61,2.00,2.00,4.21,7.61,9406,2022-06-05 23:12:26.861,2022-06-05 16:12:26.861,17,0,0,15.314,34.182639,-118.129096,-1.00,0.20,0.00,6.40,2.10,177.20,0,1,0,53,100,-7831,1925,15314,3201.50,4,WP,1,0,0,0,0,0,0,1654470746861,3826,3819,3825,3823,0,0,27,,,,,,,0,0,0,-64.00,21.00,1772.00,0.00,0.00,1614.00,14,18.00,10.20,76.12,-10.00,2.00,0.00,0,,,100,100,0,2,0,0,0,1,0,,,,,0.0,0.0,0.0,0.0,0.0,0.0,0
34.182570,-118.129092,1.80,2.00,0.92,7.73,2.00,2.00,4.21,7.73,9506,2022-06-05 23:12:26.962,2022-06-05 16:12:26.962,17,0,0,15.314,34.182639,-118.129096,-0.90,0.20,0.00,4.90,1.80,177.20,0,1,0,53,100,-7831,1925,15314,3201.50,4,WP,1,0,0,0,0,0,0,1654470746961,3826,3819,3825,3823,0,0,27,,,,,,,0,0,0,-49.00,18.00,1772.00,0.00,0.00,1614.00,14,18.00,9.22,77.25,-9.00,2.00,0.00,0,,,100,100,0,2,0,0,0,1,0,,,,,0.0,0.0,0.0,0.0,0.0,0.0,0
34.182569,-118.129092,1.80,2.00,0.82,7.81,2.00,2.00,4.21,7.81,9607,2022-06-05 23:12:27.062,2022-06-05 16:12:27.062,17,0,0,15.314,34.182639,-118.129096,-0.80,0.20,0.00,3.70,1.70,177.20,0,1,0,53,100,-7831,1925,15314,3201.50,4,WP,1,0,0,0,0,0,0,1654470747062,3826,3819,3825,3823,0,0,27,,,,,,,0,0,0,-37.00,17.00,1772.00,0.00,0.00,1614.00,14,18.00,8.25,78.05,-8.00,2.00,0.00,0,,,100,100,0,2,0,0,0,1,0,,,,,0.0,0.0,0.0,0.0,0.0,0.0,0
34.182568,-118.129092,1.80,2.00,0.71,7.90,2.00,2.00,4.21,7.90,9706,2022-06-05 23:12:27.161,2022-06-05 16:12:27.161,17,0,0,15.314,34.182639,-118.129096,-0.70,0.10,0.00,2.80,1.90,177.30,0,1,0,53,100,-7831,1925,15314,3201.50,4,WP,1,0,0,0,0,0,0,1654470747161,3826,3819,3825,3823,0,0,27,,,,,,,0,0,0,-28.00,19.00,1773.00,0.00,0.00,1614.00,14,18.00,7.07,78.98,-7.00,1.00,0.00,0,,,100,100,0,2,0,0,0,1,0,,,,,0.0,0.0,0.0,0.0,0.0,0.0,0
34.182568,-118.129092,1.80,2.00,0.71,7.97,2.00,2.00,4.21,7.97,9806,2022-06-05 23:12:27.262,2022-06-05 16:12:27.262,17,0,0,15.314,34.182639,-118.129096,-0.70,0.10,0.00,2.30,1.80,177.30,0,1,0,53,100,-7831,1925,15314,3201.50,4,WP,1,0,0,0,0,0,0,1654470747261,3826,3819,3825,3823,0,0,27,,,,,,,0,0,0,-23.00,18.00,1773.00,0.00,0.00,1614.00,14,18.00,7.07,79.68,-7.00,1.00,0.00,0,,,100,100,0,2,0,0,0,1,0,,,,,0.0,0.0,0.0,0.0,0.0,0.0,0
34.182567,-118.129092,1.80,2.00,0.61,8.05,2.00,2.00,4.21,8.05,9905,2022-06-05 23:12:27.360,2022-06-05 16:12:27.360,17,0,0,15.314,34.182639,-118.129096,-0.60,0.10,0.00,2.40,1.80,177.40,0,1,0,53,100,-7831,1925,15314,3201.50,4,WP,1,0,0,0,0,0,0,1654470747360,3826,3819,3825,3823,0,0,27,,,,,,,0,0,0,-24.00,18.00,1774.00,0.00,0.00,1614.00,14,18.00,6.08,80.49,-6.00,1.00,0.00,0,,,100,100,0,2,0,0,0,1,0,,,,,0.0,0.0,0.0,0.0,0.0,0.0,0
34.182566,-118.129091,1.80,2.00,0.61,8.11,2.00,2.00,4.21,8.11,10006,2022-06-05 23:12:27.462,2022-06-05 16:12:27.462,17,0,0,15.314,34.182639,-118.129096,-0.60,0.10,0.00,2.80,1.90,177.30,0,1,0,53,100,-7831,1925,15314,3201.50,4,WP,1,0,0,0,0,0,0,1654470747461,3826,3819,3825,3823,0,0,27,,,,,,,0,0,0,-28.00,19.00,1773.00,0.00,0.00,1614.00,14,18.00,6.08,81.15,-6.00,1.00,0.00,0,,,100,100,0,2,0,0,0,1,0,,,,,0.0,0.0,0.0,0.0,0.0,0.0,0
34.182566,-118.129091,1.80,2.00,0.51,8.18,2.00,2.00,4.21,8.18,10107,2022-06-05 23:12:27.562,2022-06-05 16:12:27.562,17,0,0,15.314,34.182639,-118.129096,-0.50,0.10,0.00,3.20,2.40,177.40,0,1,0,53,100,-7831,1925,15314,3201.50,4,WP,1,0,0,0,0,0,0,1654470747562,3826,3819,3825,3823,0,0,27,,,,,,,0,0,0,-32.00,24.00,1774.00,0.00,0.00,1614.00,14,18.00,5.10,81.84,-5.00,1.00,0.00,0,,,100,100,0,2,0,0,0,1,0,,,,,0.0,0.0,0.0,0.0,0.0,0.0,0
34.182565,-118.129091,1.80,2.00,0.50,8.23,2.00,2.00,4.21,8.23,10208,2022-06-05 23:12:27.663,2022-06-05 16:12:27.663,17,0,0,15.314,34.182639,-118.129096,-0.50,0.00,0.00,3.40,2.00,177.40,0,1,0,53,100,-7831,1925,15314,3201.50,4,WP,1,0,0,0,0,0,0,1654470747663,3826,3819,3825,3823,0,0,27,,,,,,,0,0,0,-34.00,20.00,1774.00,0.00,0.00,1614.00,14,18.00,5.00,82.29,-5.00,0.00,0.00,0,,,100,100,0,2,0,0,0,1,0,,,,,0.0,0.0,0.0,0.0,0.0,0.0,0
34.182565,-118.129091,1.80,2.00,0.40,8.28,2.00,2.00,4.21,8.28,10306,2022-06-05 23:12:27.761,2022-06-05 16:12:27.761,17,0,0,15.314,34.182639,-118.129096,-0.40,0.00,0.00,3.50,1.70,177.50,0,1,0,53,100,-7831,1925,15314,3201.50,4,WP,1,0,0,0,0,0,0,1654470747761,3826,3819,3825,3823,0,0,27,,,,,,,0,0,0,-35.00,17.00,1775.00,0.00,0.00,1614.00,14,18.00,4.00,82.85,-4.00,0.00,0.00,0,,,100,100,0,2,0,0,0,1,0,,,,,0.0,0.0,0.0,0.0,0.0,0.0,0
34.182564,-118.129091,1.80,2.00,0.30,8.32,2.00,2.00,4.21,8.32,10407,2022-06-05 23:12:27.862,2022-06-05 16:12:27.862,17,0,0,15.314,34.182639,-118.129096,-0.30,0.00,0.00,3.70,1.40,177.40,0,1,0,53,100,-7831,1925,15314,3201.50,4,WP,1,0,0,0,0,0,0,1654470747862,3826,3819,3825,3823,0,0,27,,,,,,,0,0,0,-37.00,14.00,1774.00,0.00,0.00,1614.00,14,18.00,3.00,83.18,-3.00,0.00,0.00,0,,,100,100,0,2,0,0,0,1,0,,,,,0.0,0.0,0.0,0.0,0.0,0.0,0
34.182564,-118.129091,1.80,2.00,0.30,8.36,2.00,2.00,4.21,8.36,10505,2022-06-05 23:12:27.961,2022-06-05 16:12:27.961,17,0,0,15.314,34.182639,-118.129096,-0.30,0.00,0.00,6.00,1.10,177.40,0,1,0,53,100,-7831,1925,15314,3201.50,4,WP,1,0,0,0,0,0,0,1654470747960,3826,3819,3825,3823,0,0,27,,,,,,,0,0,0,-60.00,11.00,1774.00,0.00,0.00,1614.00,14,18.00,3.00,83.59,-3.00,0.00,0.00,0,,,100,100,0,2,0,0,0,1,0,,,,,0.0,0.0,0.0,0.0,0.0,0.0,0
34.182564,-118.129091,1.80,2.00,0.20,8.38,2.00,2.00,4.21,8.38,10606,2022-06-05 23:12:28.061,2022-06-05 16:12:28.061,17,0,0,15.314,34.182639,-118.129096,-0.20,0.00,0.00,5.70,0.90,177.20,0,1,0,53,100,-7831,1925,15314,3201.50,4,WP,1,0,0,0,0,0,0,1654470748061,3826,3819,3825,3823,0,0,27,,,,,,,0,0,0,-57.00,9.00,1772.00,0.00,0.00,1614.00,14,18.00,2.00,83.81,-2.00,0.00,0.00,0,,,100,100,0,2,0,0,0,1,0,,,,,0.0,0.0,0.0,0.0,0.0,0.0,0
34.182564,-118.129091,1.80,2.00,0.10,8.40,2.00,2.00,4.21,8.40,10706,2022-06-05 23:12:28.161,2022-06-05 16:12:28.161,17,0,0,15.289,34.182639,-118.129096,-0.10,0.00,0.00,3.90,0.90,176.90,0,1,0,53,100,-8112,1921,15289,3201.50,4,WP,1,0,0,0,0,0,0,1654470748161,3826,3819,3825,3823,0,0,27,,,,,,,0,0,0,-39.00,9.00,1769.00,0.00,0.00,1614.00,14,18.00,1.00,84.03,-1.00,0.00,0.00,0,,,100,100,0,2,0,0,0,1,0,,,,,0.0,0.0,0.0,0.0,0.0,0.0,0
34.182564,-118.129091,1.80,2.00,0.00,8.40,2.00,2.00,4.21,8.40,10755,2022-06-05 23:12:28.210,2022-06-05 16:12:28.211,17,0,0,15.289,34.182639,-118.129096,0.00,0.00,0.00,2.60,1.20,175.10,0,1,0,53,100,-8112,1921,15289,3201.50,4,WP,1,0,0,0,0,0,0,1654470748210,3826,3819,3825,3823,0,0,27,,,,,,,0,0,0,-26.00,12.00,1751.00,0.00,0.00,1614.00,14,18.00,0.00,83.95,0.00,0.00,0.00,0,,,100,100,0,2,0,0,0,1,0,,,,,0.0,0.0,0.0,0.0,0.0,0.0,0
34.182564,-118.129091,1.80,2.00,0.00,8.40,2.00,2.00,4.21,8.40,10856,2022-06-05 23:12:28.311,2022-06-05 16:12:28.311,17,0,0,15.289,34.182639,-118.129096,0.00,0.00,0.00,1.70,0.90,167.30,0,1,0,53,100,-8112,1921,15289,3201.50,4,WP,1,0,0,0,0,0,0,1654470748311,3826,3819,3825,3823,0,0,27,,,,,,,0,0,0,-17.00,9.00,1673.00,0.00,0.00,1607.00,14,18.00,0.00,84.03,0.00,0.00,0.00,0,,,100,100,0,2,0,0,0,1,0,,,,,0.0,0.0,0.0,0.0,0.0,0.0,0
34.182564,-118.129091,1.80,2.00,0.00,8.39,2.00,2.00,4.21,8.40,11008,2022-06-05 23:12:28.464,2022-06-05 16:12:28.464,17,0,0,15.289,34.182639,-118.129096,0.00,0.00,0.00,1.30,0.60,159.60,0,1,0,53,100,-8112,1921,15289,3201.50,4,WP,1,0,0,0,0,0,0,1654470748463,3826,3819,3825,3823,0,0,27,,,,,,,0,0,0,-13.00,6.00,1596.00,0.00,0.00,1553.00,14,18.00,0.00,83.91,0.00,0.00,0.00,0,,,100,100,0,2,0,0,0,1,0,,,,,0.0,0.0,0.0,0.0,0.0,0.0,0
34.182564,-118.129091,1.80,2.00,0.00,8.39,2.00,2.00,4.21,8.40,11107,2022-06-05 23:12:28.562,2022-06-05 16:12:28.562,17,0,0,15.289,34.182639,-118.129096,0.00,0.00,0.00,1.30,0.30,152.00,0,1,0,53,100,-8112,1921,15289,3201.50,4,WP,1,0,0,0,0,0,0,1654470748562,3826,3819,3825,3823,0,0,27,,,,,,,0,0,0,-13.00,3.00,1520.00,0.00,0.00,1468.00,14,18.00,0.00,83.92,0.00,0.00,0.00,0,,,100,100,0,2,0,0,0,1,0,,,,,0.0,0.0,0.0,0.0,0.0,0.0,0
34.182564,-118.129090,1.80,2.00,0.00,8.40,2.00,2.00,4.21,8.40,11205,2022-06-05 23:12:28.661,2022-06-05 16:12:28.661,17,0,0,15.289,34.182639,-118.129096,0.00,0.00,0.00,1.30,0.50,144.30,0,1,0,53,100,-8112,1921,15289,3201.50,4,WP,1,0,0,0,0,0,0,1654470748660,3826,3819,3825,3823,0,0,27,,,,,,,0,0,0,-13.00,5.00,1443.00,0.00,0.00,1383.00,14,18.00,0.00,83.96,0.00,0.00,0.00,0,,,100,100,0,2,0,0,0,1,0,,,,,0.0,0.0,0.0,0.0,0.0,0.0,0
34.182564,-118.129090,1.80,2.00,0.00,8.40,2.00,2.00,4.21,8.40,11307,2022-06-05 23:12:28.762,2022-06-05 16:12:28.762,17,0,0,15.289,34.182639,-118.129096,0.00,0.00,0.00,1.40,0.60,136.70,0,1,0,53,100,-8112,1921,15289,3201.50,4,WP,1,0,0,0,0,0,0,1654470748762,3826,3819,3825,3823,0,0,27,,,,,,,0,0,0,-14.00,6.00,1367.00,0.00,0.00,1300.00,14,18.00,0.00,83.96,0.00,0.00,0.00,0,,,100,100,0,2,0,0,0,1,0,,,,,0.0,0.0,0.0,0.0,0.0,0.0,0
34.182564,-118.129090,1.80,2.00,0.00,8.40,2.00,2.00,4.21,8.40,11406,2022-06-05 23:12:28.861,2022-06-05 16:12:28.861,17,0,0,15.289,34.182639,-118.129096,0.00,0.00,0.00,1.60,0.60,129.20,0,1,0,53,100,-8112,1921,15289,3201.50,4,WP,1,0,0,0,0,0,0,1654470748861,3826,3819,3825,3823,0,0,27,,,,,,,0,0,0,-16.00,6.00,1292.00,0.00,0.00,1220.00,14,18.00,0.00,83.95,0.00,0.00,0.00,0,,,100,100,0,2,0,0,0,1,0,,,,,0.0,0.0,0.0,0.0,0.0,0.0,0
34.182564,-118.129090,1.80,1.90,0.00,8.39,2.00,2.00,4.21,8.40,11507,2022-06-05 23:12:28.962,2022-06-05 16:12:28.962,17,0,0,15.289,34.182639,-118.129096,0.00,0.00,0.00,1.70,0.60,121.60,0,1,0,53,100,-8112,1921,15289,3201.50,4,WP,1,0,0,0,0,0,0,1654470748962,3826,3819,3825,3823,0,0,27,,,,,,,0,0,0,-17.00,6.00,1216.00,0.00,0.00,1141.00,14,18.00,0.00,83.94,0.00,0.00,0.00,0,,,100,100,0,2,0,0,0,1,0,,,,,0.0,0.0,0.0,0.0,0.0,0.0,0
34.182564,-118.129090,1.80,1.90,0.00,8.39,2.00,2.00,4.21,8.40,11606,2022-06-05 23:12:29.061,2022-06-05 16:12:29.061,17,0,0,15.289,34.182639,-118.129096,0.00,0.00,0.00,1.80,0.30,114.10,0,1,0,53,100,-8112,1921,15289,3201.50,4,WP,1,0,0,0,0,0,0,1654470749061,3826,3819,3825,3823,0,0,27,,,,,,,0,0,0,-18.00,3.00,1141.00,0.00,0.00,1063.00,14,18.00,0.00,83.89,0.00,0.00,0.00,0,,,100,100,0,2,0,0,0,1,0,,,,,0.0,0.0,0.0,0.0,0.0,0.0,0
34.182564,-118.129090,1.80,2.00,0.00,8.39,2.00,2.00,4.21,8.40,11707,2022-06-05 23:12:29.162,2022-06-05 16:12:29.162,17,0,0,15.289,34.182639,-118.129096,0.00,0.00,0.00,2.10,0.00,106.60,0,1,0,53,100,-8112,1921,15289,3201.50,4,WP,1,0,0,0,0,0,0,1654470749162,3826,3819,3825,3823,0,0,27,,,,,,,0,0,0,-21.00,0.00,1066.00,0.00,0.00,987.00,14,18.00,0.00,83.88,0.00,0.00,0.00,0,,,100,100,0,2,0,0,0,1,0,,,,,0.0,0.0,0.0,0.0,0.0,0.0,0
34.182564,-118.129090,1.80,2.00,0.00,8.39,2.00,2.00,4.21,8.40,11755,2022-06-05 23:12:29.210,2022-06-05 16:12:29.210,18,0,0,15.289,34.182639,-118.129096,0.00,0.00,0.00,2.20,-0.30,99.10,0,1,0,53,100,-8112,1921,15289,3201.50,4,WP,1,0,0,0,0,0,0,1654470749210,3826,3819,3825,3823,0,0,27,,,,,,,0,0,0,-22.00,-3.00,991.00,0.00,0.00,910.00,14,18.00,0.00,83.89,0.00,0.00,0.00,0,,,100,100,0,2,0,0,0,1,0,,,,,0.0,0.0,0.0,0.0,0.0,0.0,0
34.182564,-118.129090,1.80,2.00,0.00,8.39,2.00,2.00,4.21,8.40,11906,2022-06-05 23:12:29.362,2022-06-05 16:12:29.362,18,0,0,15.289,34.182639,-118.129096,0.00,0.00,0.00,2.40,-0.80,91.70,0,1,0,53,100,-8112,1921,15289,3201.50,4,WP,1,0,0,0,0,0,0,1654470749361,3826,3819,3825,3823,0,0,27,,,,,,,0,0,0,-24.00,-8.00,917.00,0.00,0.00,834.00,14,18.00,0.00,83.87,0.00,0.00,0.00,0,,,100,100,0,2,0,0,0,1,0,,,,,0.0,0.0,0.0,0.0,0.0,0.0,0
34.182564,-118.129090,1.80,2.00,0.00,8.37,2.00,2.00,4.21,8.40,12006,2022-06-05 23:12:29.462,2022-06-05 16:12:29.462,18,0,0,15.289,34.182639,-118.129096,0.00,0.00,0.00,2.30,-0.80,84.10,0,1,0,53,100,-8112,1921,15289,3201.50,4,WP,1,0,0,0,0,0,0,1654470749461,3826,3819,3825,3823,0,0,27,,,,,,,0,0,0,-23.00,-8.00,841.00,0.00,0.00,759.00,14,18.00,0.00,83.72,0.00,0.00,0.00,0,,,100,100,0,2,0,0,0,1,0,,,,,0.0,0.0,0.0,0.0,0.0,0.0,0
34.182564,-118.129090,1.80,2.00,0.00,8.37,2.00,2.00,4.21,8.40,12107,2022-06-05 23:12:29.562,2022-06-05 16:12:29.562,18,0,0,15.289,34.182639,-118.129096,0.00,0.00,0.00,2.30,-0.70,76.60,0,1,0,53,100,-8112,1921,15289,3201.50,4,WP,1,0,0,0,0,0,0,1654470749562,3826,3819,3825,3823,0,0,27,,,,,,,0,0,0,-23.00,-7.00,766.00,0.00,0.00,684.00,14,18.00,0.00,83.66,0.00,0.00,0.00,0,,,100,100,0,2,0,0,0,1,0,,,,,0.0,0.0,0.0,0.0,0.0,0.0,0
34.182564,-118.129090,1.80,2.00,0.00,8.35,2.00,2.00,4.21,8.40,12209,2022-06-05 23:12:29.665,2022-06-05 16:12:29.665,18,0,0,15.289,34.182639,-118.129096,0.00,0.00,0.00,2.30,-0.90,69.10,0,1,0,53,100,-8112,1921,15289,3201.50,4,WP,1,0,0,0,0,0,0,1654470749664,3826,3819,3825,3823,0,0,27,,,,,,,0,0,0,-23.00,-9.00,691.00,0.00,0.00,608.00,14,18.00,0.00,83.53,0.00,0.00,0.00,0,,,100,100,0,2,0,0,0,1,0,,,,,0.0,0.0,0.0,0.0,0.0,0.0,0
34.182564,-118.129089,1.80,2.00,0.00,8.35,2.00,2.00,4.21,8.40,12306,2022-06-05 23:12:29.762,2022-06-05 16:12:29.762,18,0,0,15.289,34.182639,-118.129096,0.00,0.00,0.00,2.30,-1.00,61.60,0,1,0,53,100,-8112,1921,15289,3201.50,4,WP,1,0,0,0,0,0,0,1654470749761,3826,3819,3825,3823,0,0,27,,,,,,,0,0,0,-23.00,-10.00,616.00,0.00,0.00,532.00,14,18.00,0.00,83.45,0.00,0.00,0.00,0,,,100,100,0,2,0,0,0,1,0,,,,,0.0,0.0,0.0,0.0,0.0,0.0,0
34.182564,-118.129089,1.80,2.00,0.00,8.34,2.00,2.00,4.21,8.40,12408,2022-06-05 23:12:29.863,2022-06-05 16:12:29.863,18,0,0,15.289,34.182639,-118.129096,0.00,0.00,0.00,2.10,-1.30,54.10,0,1,0,53,100,-8112,1921,15289,3201.50,4,WP,1,0,0,0,0,0,0,1654470749863,3826,3819,3825,3823,0,0,27,,,,,,,0,0,0,-21.00,-13.00,541.00,0.00,0.00,457.00,14,18.00,0.00,83.37,0.00,0.00,0.00,0,,,100,100,0,2,0,0,0,1,0,,,,,0.0,0.0,0.0,0.0,0.0,0.0,0
34.182564,-118.129089,1.80,2.00,0.00,8.33,2.00,2.00,4.21,8.40,12509,2022-06-05 23:12:29.964,2022-06-05 16:12:29.964,18,0,0,15.289,34.182639,-118.129096,0.00,0.00,0.00,1.90,-1.20,46.60,0,1,0,53,100,-8112,1921,15289,3201.50,4,WP,1,0,0,0,0,0,0,1654470749964,3826,3819,3825,3823,0,0,27,,,,,,,0,0,0,-19.00,-12.00,466.00,0.00,0.00,381.00,14,18.00,0.00,83.29,0.00,0.00,0.00,0,,,100,100,0,2,0,0,0,1,0,,,,,0.0,0.0,0.0,0.0,0.0,0.0,0
34.182565,-118.129089,1.80,2.00,0.00,8.31,2.00,2.00,4.21,8.40,12607,2022-06-05 23:12:30.062,2022-06-05 16:12:30.063,18,0,0,15.289,34.182639,-118.129096,0.00,0.00,0.00,1.90,-1.60,38.90,0,1,0,53,100,-8112,1921,15289,3201.50,4,WP,1,0,0,0,0,0,0,1654470750062,3826,3819,3825,3823,0,0,27,,,,,,,0,0,0,-19.00,-16.00,389.00,0.00,0.00,305.00,14,18.00,0.00,83.09,0.00,0.00,0.00,0,,,100,100,0,2,0,0,0,1,0,,,,,0.0,0.0,0.0,0.0,0.0,0.0,0
34.182565,-118.129089,1.80,2.00,0.00,8.30,2.00,2.00,4.21,8.40,12705,2022-06-05 23:12:30.161,2022-06-05 16:12:30.161,18,0,0,15.285,34.182639,-118.129096,0.00,0.00,0.00,1.70,-2.10,31.50,0,1,0,53,100,-7926,1916,15285,3201.50,4,WP,1,0,0,0,0,0,0,1654470750160,3826,3819,3825,3823,0,0,27,,,,,,,0,0,0,-17.00,-21.00,315.00,0.00,0.00,229.00,14,18.00,0.00,83.00,0.00,0.00,0.00,0,,,100,100,0,2,0,0,0,1,0,,,,,0.0,0.0,0.0,0.0,0.0,0.0,0
34.182565,-118.129089,1.80,2.00,0.00,8.28,2.00,2.00,4.21,8.40,12754,2022-06-05 23:12:30.210,2022-06-05 16:12:30.210,18,0,0,15.285,34.182639,-118.129096,0.00,0.00,0.00,1.30,-2.40,25.40,0,1,0,53,100,-7926,1916,15285,3201.50,4,WP,1,0,0,0,0,0,0,1654470750209,3826,3819,3825,3823,0,0,27,,,,,,,0,0,0,-13.00,-24.00,254.00,0.00,0.00,157.00,14,18.00,0.00,82.80,0.00,0.00,0.00,0,,,100,100,0,2,0,0,0,1,0,,,,,0.0,0.0,0.0,0.0,0.0,0.0,0
34.182565,-118.129089,1.80,2.00,0.00,8.27,2.00,2.00,4.21,8.40,12907,2022-06-05 23:12:30.363,2022-06-05 16:12:30.363,18,0,0,15.285,34.182639,-118.129096,0.00,0.00,0.00,1.20,-2.50,20.40,0,1,0,53,100,-7926,1916,15285,3201.50,4,WP,1,0,0,0,0,0,0,1654470750362,3826,3819,3825,3823,0,0,27,,,,,,,0,0,0,-12.00,-25.00,204.00,0.00,0.00,98.00,14,18.00,0.00,82.69,0.00,0.00,0.00,0,,,100,100,0,2,0,0,0,1,0,,,,,0.0,0.0,0.0,0.0,0.0,0.0,0
34.182565,-118.129089,1.80,2.00,0.00,8.26,2.00,2.00,4.21,8.40,13007,2022-06-05 23:12:30.462,2022-06-05 16:12:30.462,18,0,0,15.285,34.182639,-118.129096,0.00,0.00,0.00,1.00,-2.50,16.30,0,1,0,53,100,-7926,1916,15285,3201.50,4,WP,1,0,0,0,0,0,0,1654470750462,3826,3819,3825,3823,0,0,27,,,,,,,0,0,0,-10.00,-25.00,163.00,0.00,0.00,51.00,14,18.00,0.00,82.61,0.00,0.00,0.00,0,,,100,100,0,2,0,0,0,1,0,,,,,0.0,0.0,0.0,0.0,0.0,0.0,0
34.182565,-118.129089,1.80,1.90,0.00,8.25,2.00,2.00,4.21,8.40,13105,2022-06-05 23:12:30.561,2022-06-05 16:12:30.561,18,0,0,15.285,34.182639,-118.129096,0.00,0.00,0.00,1.00,-2.40,13.10,0,1,0,53,100,-7926,1916,15285,3201.50,4,WP,1,0,0,0,0,0,0,1654470750560,3826,3819,3825,3823,0,0,27,,,,,,,0,0,0,-10.00,-24.00,131.00,0.00,0.00,12.00,14,18.00,0.00,82.49,0.00,0.00,0.00,0,,,100,100,0,2,0,0,0,1,0,,,,,0.0,0.0,0.0,0.0,0.0,0.0,0
34.182565,-118.129089,1.80,2.00,0.00,8.23,2.00,2.00,4.21,8.40,13207,2022-06-05 23:12:30.663,2022-06-05 16:12:30.663,18,0,0,15.285,34.182639,-118.129096,0.00,0.00,0.00,1.00,-2.20,10.50,0,1,0,53,100,-7926,1916,15285,3201.50,4,WP,1,0,0,0,0,0,0,1654470750662,3826,3819,3825,3823,0,0,27,,,,,,,0,0,0,-10.00,-22.00,105.00,0.00,0.00,-18.00,14,18.00,0.00,82.34,0.00,0.00,0.00,0,,,100,100,0,2,0,0,0,1,0,,,,,0.0,0.0,0.0,0.0,0.0,0.0,0
34.182565,-118.129089,1.80,1.90,0.00,8.22,2.00,2.00,4.21,8.40,13307,2022-06-05 23:12:30.762,2022-06-05 16:12:30.762,18,0,0,15.285,34.182639,-118.129096,0.00,0.00,0.00,1.00,-2.20,8.40,0,1,0,53,100,-7926,1916,15285,3201.50,4,WP,1,0,0,0,0,0,0,1654470750762,3826,3819,3825,3823,0,0,27,,,,,,,0,0,0,-10.00,-22.00,84.00,0.00,0.00,-44.00,14,18.00,0.00,82.21,0.00,0.00,0.00,0,,,100,100,0,2,0,0,0,1,0,,,,,0.0,0.0,0.0,0.0,0.0,0.0,0
34.182566,-118.129090,1.80,2.00,0.00,8.21,2.00,2.00,4.21,8.40,13406,2022-06-05 23:12:30.861,2022-06-05 16:12:30.862,18,0,0,15.285,34.182639,-118.129096,0.00,0.00,0.00,0.80,-2.30,6.70,0,1,0,53,100,-7926,1916,15285,3201.50,4,WP,1,0,0,0,0,0,0,1654470750861,3826,3819,3825,3823,0,0,27,,,,,,,0,0,0,-8.00,-23.00,67.00,0.00,0.00,-65.00,14,18.00,0.00,82.10,0.00,0.00,0.00,0,,,100,100,0,2,0,0,0,1,0,,,,,0.0,0.0,0.0,0.0,0.0,0.0,0
34.182566,-118.129090,1.80,2.00,0.00,8.20,2.00,2.00,4.21,8.40,13507,2022-06-05 23:12:30.963,2022-06-05 16:12:30.963,18,0,0,15.285,34.182639,-118.129096,0.00,0.00,0.00,0.70,-2.30,5.30,0,1,0,53,100,-7926,1916,15285,3201.50,4,WP,1,0,0,0,0,0,0,1654470750962,3826,3819,3825,3823,0,0,27,,,,,,,0,0,0,-7.00,-23.00,53.00,0.00,0.00,-81.00,14,18.00,0.00,81.95,0.00,0.00,0.00,0,,,100,100,0,2,0,0,0,1,0,,,,,0.0,0.0,0.0,0.0,0.0,0.0,0
34.182566,-118.129090,1.80,2.00,0.00,8.19,2.00,2.00,4.21,8.40,13608,2022-06-05 23:12:31.064,2022-06-05 16:12:31.064,18,0,0,15.285,34.182639,-118.129096,0.00,0.00,0.00,0.40,-2.00,4.50,0,1,0,53,100,-7926,1916,15285,3201.50,4,WP,1,0,0,0,0,0,0,1654470751063,3826,3819,3825,3823,0,0,27,,,,,,,0,0,0,-4.00,-20.00,45.00,0.00,0.00,-95.00,14,18.00,0.00,81.86,0.00,0.00,0.00,0,,,100,100,0,2,0,0,0,1,0,,,,,0.0,0.0,0.0,0.0,0.0,0.0,0
