latitude,longitude,altitude(m),ultrasonicHeight(m),speed(mps),distance(m),max_altitude(m),max_ascent(m),max_speed(mps),max_distance(m),time(millisecond),datetime(utc),datetime(local),satellites,pressure(Pa),temperature(F),voltage(v),home_latitude,home_longitude,velocityX(mps),velocityY(mps),velocityZ(mps),pitch(deg),roll(deg),yaw(deg),powerlevel,isflying,istakingphoto,remainPowerPercent,remainLifePercent,currentCurrent,currentElectricity,currentVoltage,batteryTemperature,dischargeCount,flightmode,isMotorsOn,isTakingVideo,Rc_elevator,Rc_aileron,Rc_throttle,Rc_rudder,Rc_gyro,timestamp,Battery_Cell1,Battery_Cell2,Battery_Cell3,Battery_Cell4,Battery_Cell5,Battery_Cell6,Dronetype,AppVersion,Planename,FlyControllerSerialNumber,RemoteSerialNumber,BatterySerialNumber,CENTER_BATTERY.productDate,CENTER_BATTERY.serialNo,CENTER_BATTERY.fullCapacity,CENTER_BATTERY.productDateRaw,pitchRaw,rollRaw,yawRaw,gimbalPitchRaw,gimbalRollRaw,gimbalYawRaw,flyState,altitudeRaw,speedRaw,distanceRaw,velocityXRaw,velocityYRaw,velocityZRaw,data_reuse,App_Tip,App_Warning,downlinkSignalQuality,uplinkSignalQuality,transmissionChannel,rcModeSwitch,rcHome,rcPause,rcTransform,rcJoystickMode,appMode,FlyControllerSerialNumber_legacy,RemoteSerialNumber_legacy,BatterySerialNumber_legacy,Battery2SerialNumber,frontAvoidDist,backAvoidDist,rightAvoidDist,leftAvoidDist,upAvoidDist,downAvoidDist,isBrakingToAvoid
34.182646,-118.129093,0.40,0.40,0.42,0.18,0.40,0.40,0.42,0.18,0,2022-06-05 23:02:36.845,2022-06-05 16:02:36.845,17,0,0,16.185,34.182645,-118.129093,0.10,0.10,-0.40,1.50,-3.20,-24.40,0,1,0,75,100,-5312,2714,16185,3161.50,4,TakeOff,1,0,0,0,0,0,0,1654470156844,4101,4090,4101,4099,0,0,27,Litchi_iOS_2.14.0,Brian-MAVIC 2,163DFCK001S13F,1DUCFB800104PR,0P2AG3L53400KG,,0,3645,0,-15.00,-32.00,-244.00,0.00,0.00,-411.00,11,4.00,4.24,1.78,1.00,1.00,-4.00,0,,,100,100,0,2,0,0,0,1,0,(null),(null),,,0.0,0.0,0.0,0.0,0.0,0.0,0
34.182647,-118.129093,0.50,0.50,0.42,0.19,0.50,0.50,0.42,0.19,100,2022-06-05 23:02:36.945,2022-06-05 16:02:36.945,17,0,0,16.185,34.182645,-118.129093,0.10,0.10,-0.40,1.50,-3.20,-24.40,0,1,0,75,100,-5312,2714,16185,3161.50,4,TakeOff,1,0,0,0,0,0,0,1654470156944,4101,4090,4101,4099,0,0,27,,,,,,,0,0,0,-15.00,-32.00,-244.00,0.00,0.00,-411.00,11,5.00,4.24,1.94,1.00,1.00,-4.00,0,,,100,100,0,2,0,0,0,1,0,,,,,0.0,0.0,0.0,0.0,0.0,0.0,0
34.182647,-118.129093,0.50,0.50,0.41,0.19,0.50,0.50,0.42,0.19,201,2022-06-05 23:02:37.045,2022-06-05 16:02:37.045,17,0,0,16.185,34.182645,-118.129093,0.10,0.00,-0.40,1.70,-3.20,-24.40,0,1,0,75,100,-5312,2714,16185,3161.50,4,TakeOff,1,0,0,0,0,0,0,1654470157045,4101,4090,4101,4099,0,0,27,,,,,,,0,0,0,-17.00,-32.00,-244.00,0.00,0.00,-411.00,11,5.00,4.12,1.94,1.00,0.00,-4.00,0,,,100,100,0,2,0,0,0,1,0,,,,,0.0,0.0,0.0,0.0,0.0,0.0,0
34.182647,-118.129092,0.60,0.60,0.41,0.21,0.60,0.60,0.42,0.21,301,2022-06-05 23:02:37.145,2022-06-05 16:02:37.145,17,0,0,16.185,34.182645,-118.129093,0.10,0.00,-0.40,1.80,-3.10,-24.50,0,1,0,75,100,-5312,2714,16185,3161.50,4,TakeOff,1,0,0,0,0,0,0,1654470157145,4101,4090,4101,4099,0,0,27,,,,,,,0,0,0,-18.00,-31.00,-245.00,0.00,0.00,-410.00,11,6.00,4.12,2.09,1.00,0.00,-4.00,0,,,100,100,0,2,0,0,0,1,0,,,,,0.0,0.0,0.0,0.0,0.0,0.0,0
34.182647,-118.129093,0.60,0.60,0.41,0.23,0.60,0.60,0.42,0.23,401,2022-06-05 23:02:37.246,2022-06-05 16:02:37.246,17,0,0,16.185,34.182645,-118.129093,0.10,0.00,-0.40,2.10,-2.90,-24.50,0,1,0,75,100,-5312,2714,16185,3161.50,4,TakeOff,1,0,0,0,0,0,0,1654470157245,4101,4090,4101,4099,0,0,27,,,,,,,0,0,0,-21.00,-29.00,-245.00,0.00,0.00,-410.00,11,6.00,4.12,2.25,1.00,0.00,-4.00,0,,,100,100,0,2,0,0,0,1,0,,,,,0.0,0.0,0.0,0.0,0.0,0.0,0
34.182647,-118.129092,0.70,0.70,0.41,0.24,0.70,0.70,0.42,0.24,501,2022-06-05 23:02:37.345,2022-06-05 16:02:37.345,17,0,0,16.185,34.182645,-118.129093,0.10,0.00,-0.40,2.00,-2.90,-24.60,0,1,0,75,100,-5312,2714,16185,3161.50,4,TakeOff,1,0,0,0,0,0,0,1654470157345,4101,4090,4101,4099,0,0,27,,,,,,,0,0,0,-20.00,-29.00,-246.00,0.00,0.00,-410.00,11,7.00,4.12,2.38,1.00,0.00,-4.00,0,,,100,100,0,2,0,0,0,1,0,,,,,0.0,0.0,0.0,0.0,0.0,0.0,0
34.182647,-118.129092,0.70,0.70,0.41,0.27,0.70,0.70,0.42,0.27,600,2022-06-05 23:02:37.444,2022-06-05 16:02:37.444,17,0,0,16.185,34.182645,-118.129093,0.10,0.00,-0.40,2.20,-2.80,-24.70,0,1,0,75,100,-5312,2714,16185,3161.50,4,TakeOff,1,0,0,0,0,0,0,1654470157444,4101,4090,4101,4099,0,0,27,,,,,,,0,0,0,-22.00,-28.00,-247.00,0.00,0.00,-410.00,11,7.00,4.12,2.74,1.00,0.00,-4.00,0,,,100,100,0,2,0,0,0,1,0,,,,,0.0,0.0,0.0,0.0,0.0,0.0,0
34.182647,-118.129092,0.80,0.80,0.51,0.29,0.80,0.80,0.51,0.29,701,2022-06-05 23:02:37.545,2022-06-05 16:02:37.545,17,0,0,16.185,34.182645,-118.129093,0.10,0.00,-0.50,2.40,-2.80,-24.60,0,1,0,75,100,-5312,2714,16185,3161.50,4,TakeOff,1,0,0,0,0,0,0,1654470157545,4101,4090,4101,4099,0,0,27,,,,,,,0,0,0,-24.00,-28.00,-246.00,0.00,0.00,-410.00,11,8.00,5.10,2.88,1.00,0.00,-5.00,0,,,100,100,0,2,0,0,0,1,0,,,,,0.0,0.0,0.0,0.0,0.0,0.0,0
34.182647,-118.129092,0.80,0.80,0.51,0.31,0.80,0.80,0.51,0.31,801,2022-06-05 23:02:37.645,2022-06-05 16:02:37.645,17,0,0,16.185,34.182645,-118.129093,0.10,0.00,-0.50,2.50,-3.10,-24.60,0,1,0,75,100,-5312,2714,16185,3161.50,4,TakeOff,1,0,0,0,0,0,0,1654470157645,4101,4090,4101,4099,0,0,27,,,,,,,0,0,0,-25.00,-31.00,-246.00,0.00,0.00,-410.00,11,8.00,5.10,3.07,1.00,0.00,-5.00,0,,,100,100,0,2,0,0,0,1,0,,,,,0.0,0.0,0.0,0.0,0.0,0.0,0
34.182648,-118.129092,0.90,0.90,0.51,0.32,0.90,0.90,0.51,0.32,900,2022-06-05 23:02:37.745,2022-06-05 16:02:37.745,17,0,0,16.185,34.182645,-118.129093,0.10,0.00,-0.50,2.50,-3.10,-24.50,0,1,0,75,100,-5312,2714,16185,3161.50,4,TakeOff,1,0,0,0,0,0,0,1654470157744,4101,4090,4101,4099,0,0,27,,,,,,,0,0,0,-25.00,-31.00,-245.00,0.00,0.00,-410.00,11,9.00,5.10,3.20,1.00,0.00,-5.00,0,,,100,100,0,2,0,0,0,1,0,,,,,0.0,0.0,0.0,0.0,0.0,0.0,0
34.182648,-118.129092,0.90,0.90,0.50,0.32,0.90,0.90,0.51,0.32,1000,2022-06-05 23:02:37.845,2022-06-05 16:02:37.845,17,0,0,16.185,34.182645,-118.129093,0.00,0.00,-0.50,2.60,-2.90,-24.40,0,1,0,75,100,-5312,2714,16185,3161.50,4,TakeOff,1,0,0,0,0,0,0,1654470157844,4101,4090,4101,4099,0,0,27,,,,,,,0,0,0,-26.00,-29.00,-244.00,0.00,0.00,-410.00,11,9.00,5.00,3.20,0.00,0.00,-5.00,0,,,100,100,0,2,0,0,0,1,0,,,,,0.0,0.0,0.0,0.0,0.0,0.0,0
34.182648,-118.129092,1.00,1.00,0.50,0.33,1.00,1.00,0.51,0.33,1100,2022-06-05 23:02:37.945,2022-06-05 16:02:37.945,17,0,0,16.185,34.182645,-118.129093,0.00,0.00,-0.50,2.70,-2.70,-24.40,0,1,0,75,100,-5312,2714,16185,3161.50,4,TakeOff,1,0,0,0,0,0,0,1654470157944,4101,4090,4101,4099,0,0,27,,,,,,,0,0,0,-27.00,-27.00,-244.00,0.00,0.00,-410.00,11,10.00,5.00,3.29,0.00,0.00,-5.00,0,,,100,100,0,2,0,0,0,1,0,,,,,0.0,0.0,0.0,0.0,0.0,0.0,0
34.182648,-118.129092,1.00,1.00,0.40,0.36,1.00,1.00,0.51,0.36,1201,2022-06-05 23:02:38.045,2022-06-05 16:02:38.045,17,0,0,16.121,34.182645,-118.129093,0.00,0.00,-0.40,2.90,-2.80,-24.40,0,1,0,75,100,-7736,2712,16121,3161.50,4,TakeOff,1,0,0,0,0,0,0,1654470158045,4101,4090,4101,4099,0,0,27,,,,,,,0,0,0,-29.00,-28.00,-244.00,0.00,0.00,-410.00,11,10.00,4.00,3.58,0.00,0.00,-4.00,0,,,100,100,0,2,0,0,0,1,0,,,,,0.0,0.0,0.0,0.0,0.0,0.0,0
34.182648,-118.129092,1.10,1.10,0.40,0.37,1.10,1.10,0.51,0.37,1301,2022-06-05 23:02:38.146,2022-06-05 16:02:38.146,17,0,0,16.121,34.182645,-118.129093,0.00,0.00,-0.40,3.10,-3.00,-24.40,0,1,0,75,100,-7736,2712,16121,3161.50,4,GPS,1,0,0,0,0,0,0,1654470158145,4101,4090,4101,4099,0,0,27,,,,,,,0,0,0,-31.00,-30.00,-244.00,0.00,0.00,-410.00,6,11.00,4.00,3.68,0.00,0.00,-4.00,0,,,100,100,0,2,0,0,0,1,0,,,,,0.0,0.0,0.0,0.0,0.0,0.0,0
34.182648,-118.129092,1.10,1.10,0.40,0.35,1.10,1.10,0.51,0.37,1402,2022-06-05 23:02:38.246,2022-06-05 16:02:38.246,17,0,0,16.121,34.182645,-118.129093,0.00,0.00,-0.40,1.70,-1.60,-24.40,0,1,0,75,100,-7736,2712,16121,3161.50,4,WP,1,0,0,0,0,0,0,1654470158246,4101,4090,4101,4099,0,0,27,,,,,,,0,0,0,-17.00,-16.00,-244.00,0.00,0.00,-410.00,14,11.00,4.00,3.54,0.00,0.00,-4.00,0,,,100,100,0,2,0,0,0,1,0,,,,,0.0,0.0,0.0,0.0,0.0,0.0,0
34.182648,-118.129092,1.10,1.20,0.40,0.36,1.10,1.10,0.51,0.37,1501,2022-06-05 23:02:38.345,2022-06-05 16:02:38.345,17,0,0,16.121,34.182645,-118.129093,0.00,0.00,-0.40,1.80,-1.90,-24.30,0,1,0,75,100,-7736,2712,16121,3161.50,4,WP,1,0,0,0,0,0,0,1654470158345,4101,4090,4101,4099,0,0,27,,,,,,,0,0,0,-18.00,-19.00,-243.00,0.00,0.00,-410.00,14,11.00,4.00,3.62,0.00,0.00,-4.00,0,,,100,100,0,2,0,0,0,1,0,,,,,0.0,0.0,0.0,0.0,0.0,0.0,0
34.182648,-118.129092,1.20,1.20,0.41,0.41,1.20,1.20,0.51,0.41,1601,2022-06-05 23:02:38.445,2022-06-05 16:02:38.445,17,0,0,16.121,34.182645,-118.129093,0.10,0.00,-0.40,2.20,-2.40,-24.30,0,1,0,75,100,-7736,2712,16121,3161.50,4,WP,1,0,0,0,0,0,0,1654470158445,4101,4090,4101,4099,0,0,27,,,,,,,0,0,0,-22.00,-24.00,-243.00,0.00,0.00,-409.00,14,12.00,4.12,4.13,1.00,0.00,-4.00,0,,,100,100,0,2,0,0,0,1,0,,,,,0.0,0.0,0.0,0.0,0.0,0.0,0
34.182649,-118.129092,1.20,1.30,0.41,0.43,1.20,1.20,0.51,0.43,1701,2022-06-05 23:02:38.546,2022-06-05 16:02:38.546,17,0,0,16.121,34.182645,-118.129093,0.10,0.00,-0.40,3.10,-2.90,-24.30,0,1,0,75,100,-7736,2712,16121,3161.50,4,WP,1,0,0,0,0,0,0,1654470158545,4101,4090,4101,4099,0,0,27,,,,,,,0,0,0,-31.00,-29.00,-243.00,0.00,0.00,-409.00,14,12.00,4.12,4.26,1.00,0.00,-4.00,0,,,100,100,0,2,0,0,0,1,0,,,,,0.0,0.0,0.0,0.0,0.0,0.0,0
34.182648,-118.129092,1.30,1.30,0.40,0.41,1.30,1.30,0.51,0.43,1801,2022-06-05 23:02:38.645,2022-06-05 16:02:38.645,17,0,0,16.121,34.182645,-118.129093,0.00,0.00,-0.40,3.10,-3.00,-24.30,0,1,0,75,100,-7736,2712,16121,3161.50,4,WP,1,0,0,0,0,0,0,1654470158645,4101,4090,4101,4099,0,0,27,,,,,,,0,0,0,-31.00,-30.00,-243.00,0.00,0.00,-409.00,14,13.00,4.00,4.08,0.00,0.00,-4.00,0,,,100,100,0,2,0,0,0,1,0,,,,,0.0,0.0,0.0,0.0,0.0,0.0,0
34.182648,-118.129092,1.30,1.40,0.40,0.41,1.30,1.30,0.51,0.43,1901,2022-06-05 23:02:38.745,2022-06-05 16:02:38.745,17,0,0,16.121,34.182645,-118.129093,0.00,0.00,-0.40,2.30,-2.90,-24.30,0,1,0,75,100,-7736,2712,16121,3161.50,4,WP,1,0,0,0,0,0,0,1654470158745,4101,4090,4101,4099,0,0,27,,,,,,,0,0,0,-23.00,-29.00,-243.00,0.00,0.00,-409.00,14,13.00,4.00,4.14,0.00,0.00,-4.00,0,,,100,100,0,2,0,0,0,1,0,,,,,0.0,0.0,0.0,0.0,0.0,0.0,0
34.182649,-118.129092,1.40,1.40,0.40,0.44,1.40,1.40,0.51,0.44,2001,2022-06-05 23:02:38.845,2022-06-05 16:02:38.845,17,0,0,16.121,34.182645,-118.129093,0.00,0.00,-0.40,2.30,-2.60,-24.20,0,1,0,75,100,-7736,2712,16121,3161.50,4,WP,1,0,0,0,0,0,0,1654470158845,4101,4090,4101,4099,0,0,27,,,,,,,0,0,0,-23.00,-26.00,-242.00,0.00,0.00,-408.00,14,14.00,4.00,4.41,0.00,0.00,-4.00,0,,,100,100,0,2,0,0,0,1,0,,,,,0.0,0.0,0.0,0.0,0.0,0.0,0
34.182649,-118.129092,1.40,1.50,0.50,0.45,1.40,1.40,0.51,0.45,2101,2022-06-05 23:02:38.945,2022-06-05 16:02:38.945,17,0,0,16.121,34.182645,-118.129093,0.00,0.00,-0.50,2.60,-2.70,-24.20,0,1,0,75,100,-7736,2712,16121,3161.50,4,WP,1,0,0,0,0,0,0,1654470158945,4101,4090,4101,4099,0,0,27,,,,,,,0,0,0,-26.00,-27.00,-242.00,0.00,0.00,-408.00,14,14.00,5.00,4.47,0.00,0.00,-5.00,0,,,100,100,0,2,0,0,0,1,0,,,,,0.0,0.0,0.0,0.0,0.0,0.0,0
34.182649,-118.129092,1.50,1.50,0.50,0.44,1.50,1.50,0.51,0.45,2201,2022-06-05 23:02:39.045,2022-06-05 16:02:39.045,17,0,0,16.121,34.182645,-118.129093,0.00,0.00,-0.50,2.50,-2.70,-24.20,0,1,0,75,100,-7736,2712,16121,3161.50,4,WP,1,0,0,0,0,0,0,1654470159045,4101,4090,4101,4099,0,0,27,,,,,,,0,0,0,-25.00,-27.00,-242.00,0.00,0.00,-408.00,14,15.00,5.00,4.41,0.00,0.00,-5.00,0,,,100,100,0,2,0,0,0,1,0,,,,,0.0,0.0,0.0,0.0,0.0,0.0,0
34.182649,-118.129092,1.50,1.50,0.50,0.44,1.50,1.50,0.51,0.45,2302,2022-06-05 23:02:39.147,2022-06-05 16:02:39.147,17,0,0,16.121,34.182645,-118.129093,0.00,0.00,-0.50,2.20,-2.50,-24.10,0,1,0,75,100,-7736,2712,16121,3161.50,4,WP,1,0,0,0,0,0,0,1654470159146,4101,4090,4101,4099,0,0,27,,,,,,,0,0,0,-22.00,-25.00,-241.00,0.00,0.00,-407.00,14,15.00,5.00,4.42,0.00,0.00,-5.00,0,,,100,100,0,2,0,0,0,1,0,,,,,0.0,0.0,0.0,0.0,0.0,0.0,0
34.182649,-118.129092,1.60,1.60,0.40,0.44,1.60,1.60,0.51,0.45,2401,2022-06-05 23:02:39.246,2022-06-05 16:02:39.246,17,0,0,16.121,34.182645,-118.129093,0.00,0.00,-0.40,1.80,-2.60,-24.10,0,1,0,75,100,-7736,2712,16121,3161.50,4,WP,1,0,0,0,0,0,0,1654470159245,4101,4090,4101,4099,0,0,27,,,,,,,0,0,0,-18.00,-26.00,-241.00,0.00,0.00,-407.00,14,16.00,4.00,4.40,0.00,0.00,-4.00,0,,,100,100,0,2,0,0,0,1,0,,,,,0.0,0.0,0.0,0.0,0.0,0.0,0
34.182649,-118.129092,1.60,1.60,0.50,0.44,1.60,1.60,0.51,0.45,2503,2022-06-05 23:02:39.347,2022-06-05 16:02:39.347,17,0,0,16.121,34.182645,-118.129093,0.00,0.00,-0.50,1.60,-2.50,-24.20,0,1,0,75,100,-7736,2712,16121,3161.50,4,WP,1,0,0,0,0,0,0,1654470159347,4101,4090,4101,4099,0,0,27,,,,,,,0,0,0,-16.00,-25.00,-242.00,0.00,0.00,-407.00,14,16.00,5.00,4.39,0.00,0.00,-5.00,0,,,100,100,0,2,0,0,0,1,0,,,,,0.0,0.0,0.0,0.0,0.0,0.0,0
34.182649,-118.129092,1.70,1.70,0.60,0.43,1.70,1.70,0.60,0.45,2602,2022-06-05 23:02:39.446,2022-06-05 16:02:39.447,17,0,0,16.121,34.182645,-118.129093,0.00,0.00,-0.60,1.20,-2.60,-24.30,0,1,0,75,100,-7736,2712,16121,3161.50,4,WP,1,0,0,0,0,0,0,1654470159446,4101,4090,4101,4099,0,0,27,,,,,,,0,0,0,-12.00,-26.00,-243.00,0.00,0.00,-407.00,14,17.00,6.00,4.32,0.00,0.00,-6.00,0,,,100,100,0,2,0,0,0,1,0,,,,,0.0,0.0,0.0,0.0,0.0,0.0,0
34.182648,-118.129092,1.70,1.80,0.60,0.43,1.70,1.70,0.60,0.45,2703,2022-06-05 23:02:39.547,2022-06-05 16:02:39.547,17,0,0,16.121,34.182645,-118.129093,0.00,0.00,-0.60,1.00,-2.60,-24.30,0,1,0,75,100,-7736,2712,16121,3161.50,4,WP,1,0,0,0,0,0,0,1654470159547,4101,4090,4101,4099,0,0,27,,,,,,,0,0,0,-10.00,-26.00,-243.00,0.00,0.00,-406.00,14,17.00,6.00,4.29,0.00,0.00,-6.00,0,,,100,100,0,2,0,0,0,1,0,,,,,0.0,0.0,0.0,0.0,0.0,0.0,0
34.182648,-118.129091,1.80,1.80,0.70,0.44,1.80,1.80,0.70,0.45,2804,2022-06-05 23:02:39.648,2022-06-05 16:02:39.648,17,0,0,16.121,34.182645,-118.129093,0.00,0.00,-0.70,0.90,-2.50,-24.40,0,1,0,75,100,-7736,2712,16121,3161.50,4,WP,1,0,0,0,0,0,0,1654470159648,4101,4090,4101,4099,0,0,27,,,,,,,0,0,0,-9.00,-25.00,-244.00,0.00,0.00,-406.00,14,18.00,7.00,4.35,0.00,0.00,-7.00,0,,,100,100,0,2,0,0,0,1,0,,,,,0.0,0.0,0.0,0.0,0.0,0.0,0
34.182648,-118.129091,1.90,1.90,0.70,0.43,1.90,1.90,0.70,0.45,2903,2022-06-05 23:02:39.747,2022-06-05 16:02:39.747,17,0,0,16.121,34.182645,-118.129093,0.00,0.00,-0.70,1.00,-2.70,-24.40,0,1,0,75,100,-7736,2712,16121,3161.50,4,WP,1,0,0,0,0,0,0,1654470159747,4101,4090,4101,4099,0,0,27,,,,,,,0,0,0,-10.00,-27.00,-244.00,0.00,0.00,-406.00,14,19.00,7.00,4.34,0.00,0.00,-7.00,0,,,100,100,0,2,0,0,0,1,0,,,,,0.0,0.0,0.0,0.0,0.0,0.0,0
34.182648,-118.129091,1.90,2.00,0.70,0.43,1.90,1.90,0.70,0.45,3008,2022-06-05 23:02:39.853,2022-06-05 16:02:39.853,17,0,0,16.121,34.182645,-118.129093,0.00,0.00,-0.70,0.90,-2.30,-24.40,0,1,0,75,100,-7736,2712,16121,3161.50,4,WP,1,0,0,0,0,0,0,1654470159852,4101,4090,4101,4099,0,0,27,,,,,,,0,0,0,-9.00,-23.00,-244.00,0.00,0.00,-406.00,14,19.00,7.00,4.26,0.00,0.00,-7.00,0,,,100,100,0,2,0,0,0,1,0,,,,,0.0,0.0,0.0,0.0,0.0,0.0,0
34.182648,-118.129091,2.00,2.00,0.60,0.42,2.00,2.00,0.70,0.45,3105,2022-06-05 23:02:39.950,2022-06-05 16:02:39.950,17,0,0,16.121,34.182645,-118.129093,0.00,0.00,-0.60,0.70,-1.00,-24.80,0,1,0,75,100,-7736,2712,16121,3161.50,4,WP,1,0,0,0,0,0,0,1654470159949,4101,4090,4101,4099,0,0,27,,,,,,,0,0,0,-7.00,-10.00,-248.00,0.00,0.00,-406.00,14,20.00,6.00,4.25,0.00,0.00,-6.00,0,,,100,100,0,2,0,0,0,1,0,,,,,0.0,0.0,0.0,0.0,0.0,0.0,0
34.182648,-118.129091,2.10,2.10,0.30,0.41,2.10,2.10,0.70,0.45,3208,2022-06-05 23:02:40.053,2022-06-05 16:02:40.053,17,0,0,16.070,34.182645,-118.129093,0.00,0.00,-0.30,0.80,-1.60,-25.80,0,1,0,75,100,-8068,2707,16070,3161.50,4,WP,1,0,0,0,0,0,0,1654470160052,4101,4090,4101,4099,0,0,27,,,,,,,0,0,0,-8.00,-16.00,-258.00,0.00,0.00,-406.00,14,21.00,3.00,4.07,0.00,0.00,-3.00,0,,,100,100,0,2,0,0,0,1,0,,,,,0.0,0.0,0.0,0.0,0.0,0.0,0
34.182648,-118.129091,2.10,2.10,0.10,0.41,2.10,2.10,0.70,0.45,3304,2022-06-05 23:02:40.148,2022-06-05 16:02:40.148,17,0,0,16.070,34.182645,-118.129093,0.00,0.00,-0.10,0.50,-2.10,-27.30,0,1,0,75,100,-8068,2707,16070,3161.50,4,WP,1,0,0,0,0,0,0,1654470160148,4101,4090,4101,4099,0,0,27,,,,,,,0,0,0,-5.00,-21.00,-273.00,0.00,0.00,-406.00,14,21.00,1.00,4.07,0.00,0.00,-1.00,0,,,100,100,0,2,0,0,0,1,0,,,,,0.0,0.0,0.0,0.0,0.0,0.0,0
34.182648,-118.129091,2.10,2.10,0.00,0.40,2.10,2.10,0.70,0.45,3403,2022-06-05 23:02:40.247,2022-06-05 16:02:40.247,17,0,0,16.070,34.182645,-118.129093,0.00,0.00,0.00,0.30,-2.40,-29.30,0,1,0,75,100,-8068,2707,16070,3161.50,4,WP,1,0,0,0,0,0,0,1654470160247,4101,4090,4101,4099,0,0,27,,,,,,,0,0,0,-3.00,-24.00,-293.00,0.00,0.00,-410.00,14,21.00,0.00,4.02,0.00,0.00,0.00,0,,,100,100,0,2,0,0,0,1,0,,,,,0.0,0.0,0.0,0.0,0.0,0.0,0
34.182648,-118.129091,2.10,2.10,0.00,0.40,2.10,2.10,0.70,0.45,3503,2022-06-05 23:02:40.348,2022-06-05 16:02:40.348,17,0,0,16.070,34.182645,-118.129093,0.00,0.00,0.00,0.20,-2.40,-32.00,0,1,0,75,100,-8068,2707,16070,3161.50,4,WP,1,0,0,0,0,0,0,1654470160347,4101,4090,4101,4099,0,0,27,,,,,,,0,0,0,-2.00,-24.00,-320.00,0.00,0.00,-422.00,14,21.00,0.00,4.03,0.00,0.00,0.00,0,,,100,100,0,2,0,0,0,1,0,,,,,0.0,0.0,0.0,0.0,0.0,0.0,0
34.182648,-118.129091,2.10,2.10,0.00,0.42,2.10,2.10,0.70,0.45,3603,2022-06-05 23:02:40.448,2022-06-05 16:02:40.448,17,0,0,16.070,34.182645,-118.129093,0.00,0.00,0.00,0.10,-2.40,-35.10,0,1,0,75,100,-8068,2707,16070,3161.50,4,WP,1,0,0,0,0,0,0,1654470160447,4101,4090,4101,4099,0,0,27,,,,,,,0,0,0,-1.00,-24.00,-351.00,0.00,0.00,-445.00,14,21.00,0.00,4.15,0.00,0.00,0.00,0,,,100,100,0,2,0,0,0,1,0,,,,,0.0,0.0,0.0,0.0,0.0,0.0,0
34.182648,-118.129091,2.10,2.10,0.00,0.42,2.10,2.10,0.70,0.45,3704,2022-06-05 23:02:40.548,2022-06-05 16:02:40.548,17,0,0,16.070,34.182645,-118.129093,0.00,0.00,0.00,0.00,-2.30,-38.80,0,1,0,75,100,-8068,2707,16070,3161.50,4,WP,1,0,0,0,0,0,0,1654470160548,4101,4090,4101,4099,0,0,27,,,,,,,0,0,0,-0.00,-23.00,-388.00,0.00,0.00,-477.00,14,21.00,0.00,4.18,0.00,0.00,0.00,0,,,100,100,0,2,0,0,0,1,0,,,,,0.0,0.0,0.0,0.0,0.0,0.0,0
34.182648,-118.129091,2.10,2.10,0.00,0.43,2.10,2.10,0.70,0.45,3804,2022-06-05 23:02:40.649,2022-06-05 16:02:40.649,17,0,0,16.070,34.182645,-118.129093,0.00,0.00,0.00,0.20,-2.30,-43.10,0,1,0,75,100,-8068,2707,16070,3161.50,4,WP,1,0,0,0,0,0,0,1654470160648,4101,4090,4101,4099,0,0,27,,,,,,,0,0,0,-2.00,-23.00,-431.00,0.00,0.00,-516.00,14,21.00,0.00,4.26,0.00,0.00,0.00,0,,,100,100,0,2,0,0,0,1,0,,,,,0.0,0.0,0.0,0.0,0.0,0.0,0
34.182648,-118.129091,2.10,2.10,0.00,0.43,2.10,2.10,0.70,0.45,3905,2022-06-05 23:02:40.750,2022-06-05 16:02:40.750,17,0,0,16.070,34.182645,-118.129093,0.00,0.00,0.00,0.50,-2.30,-48.00,0,1,0,75,100,-8068,2707,16070,3161.50,4,WP,1,0,0,0,0,0,0,1654470160749,4101,4090,4101,4099,0,0,27,,,,,,,0,0,0,-5.00,-23.00,-480.00,0.00,0.00,-561.00,14,21.00,0.00,4.29,0.00,0.00,0.00,0,,,100,100,0,2,0,0,0,1,0,,,,,0.0,0.0,0.0,0.0,0.0,0.0,0
34.182648,-118.129091,2.10,2.10,0.00,0.42,2.10,2.10,0.70,0.45,4006,2022-06-05 23:02:40.850,2022-06-05 16:02:40.850,17,0,0,16.070,34.182645,-118.129093,0.00,0.00,0.00,0.50,-2.10,-53.50,0,1,0,75,100,-8068,2707,16070,3161.50,4,WP,1,0,0,0,0,0,0,1654470160850,4101,4090,4101,4099,0,0,27,,,,,,,0,0,0,-5.00,-21.00,-535.00,0.00,0.00,-612.00,14,21.00,0.00,4.22,0.00,0.00,0.00,0,,,100,100,0,2,0,0,0,1,0,,,,,0.0,0.0,0.0,0.0,0.0,0.0,0
34.182648,-118.129091,2.10,2.10,0.00,0.42,2.10,2.10,0.70,0.45,4110,2022-06-05 23:02:40.955,2022-06-05 16:02:40.955,17,0,0,16.070,34.182645,-118.129093,0.00,0.00,0.00,0.30,-2.20,-59.70,0,1,0,75,100,-8068,2707,16070,3161.50,4,WP,1,0,0,0,0,0,0,1654470160954,4101,4090,4101,4099,0,0,27,,,,,,,0,0,0,-3.00,-22.00,-597.00,0.00,0.00,-671.00,14,21.00,0.00,4.25,0.00,0.00,0.00,0,,,100,100,0,2,0,0,0,1,0,,,,,0.0,0.0,0.0,0.0,0.0,0.0,0
34.182648,-118.129091,2.10,2.10,0.00,0.42,2.10,2.10,0.70,0.45,4203,2022-06-05 23:02:41.047,2022-06-05 16:02:41.047,17,0,0,16.070,34.182645,-118.129093,0.00,0.00,0.00,0.00,-2.40,-66.40,0,1,0,75,100,-8068,2707,16070,3161.50,4,WP,1,0,0,0,0,0,0,1654470161047,4101,4090,4101,4099,0,0,27,,,,,,,0,0,0,-0.00,-24.00,-664.00,0.00,0.00,-735.00,14,21.00,0.00,4.21,0.00,0.00,0.00,0,,,100,100,0,2,0,0,0,1,0,,,,,0.0,0.0,0.0,0.0,0.0,0.0,0
34.182648,-118.129091,2.10,2.10,0.00,0.42,2.10,2.10,0.70,0.45,4303,2022-06-05 23:02:41.147,2022-06-05 16:02:41.147,17,0,0,16.070,34.182645,-118.129093,0.00,0.00,0.00,-0.20,-2.30,-73.50,0,1,0,75,100,-8068,2707,16070,3161.50,4,WP,1,0,0,0,0,0,0,1654470161147,4101,4090,4101,4099,0,0,27,,,,,,,0,0,0,2.00,-23.00,-735.00,0.00,0.00,-805.00,14,21.00,0.00,4.24,0.00,0.00,0.00,0,,,100,100,0,2,0,0,0,1,0,,,,,0.0,0.0,0.0,0.0,0.0,0.0,0
34.182648,-118.129091,2.10,2.10,0.00,0.42,2.10,2.10,0.70,0.45,4404,2022-06-05 23:02:41.248,2022-06-05 16:02:41.248,17,0,0,16.070,34.182645,-118.129093,0.00,0.00,0.00,-0.60,-2.20,-81.00,0,1,0,75,100,-8068,2707,16070,3161.50,4,WP,1,0,0,0,0,0,0,1654470161248,4101,4090,4101,4099,0,0,27,,,,,,,0,0,0,6.00,-22.00,-810.00,0.00,0.00,-879.00,14,21.00,0.00,4.20,0.00,0.00,0.00,0,,,100,100,0,2,0,0,0,1,0,,,,,0.0,0.0,0.0,0.0,0.0,0.0,0
34.182648,-118.129091,2.10,2.10,0.00,0.42,2.10,2.10,0.70,0.45,4504,2022-06-05 23:02:41.349,2022-06-05 16:02:41.349,17,0,0,16.070,34.182645,-118.129093,0.00,0.00,0.00,-1.10,-2.20,-88.50,0,1,0,75,100,-8068,2707,16070,3161.50,4,WP,1,0,0,0,0,0,0,1654470161348,4101,4090,4101,4099,0,0,27,,,,,,,0,0,0,11.00,-22.00,-885.00,0.00,0.00,-955.00,14,21.00,0.00,4.23,0.00,0.00,0.00,0,,,100,100,0,2,0,0,0,1,0,,,,,0.0,0.0,0.0,0.0,0.0,0.0,0
34.182648,-118.129090,2.10,2.10,0.00,0.43,2.10,2.10,0.70,0.45,4605,2022-06-05 23:02:41.450,2022-06-05 16:02:41.450,17,0,0,16.070,34.182645,-118.129093,0.00,0.00,0.00,-1.60,-1.90,-96.10,0,1,0,75,100,-8068,2707,16070,3161.50,4,WP,1,0,0,0,0,0,0,1654470161449,4101,4090,4101,4099,0,0,27,,,,,,,0,0,0,16.00,-19.00,-961.00,0.00,0.00,-1032.00,14,21.00,0.00,4.28,0.00,0.00,0.00,0,,,100,100,0,2,0,0,0,1,0,,,,,0.0,0.0,0.0,0.0,0.0,0.0,0
34.182648,-118.129090,2.10,2.10,0.00,0.43,2.10,2.10,0.70,0.45,4704,2022-06-05 23:02:41.549,2022-06-05 16:02:41.549,17,0,0,16.070,34.182645,-118.129093,0.00,0.00,0.00,-1.80,-2.00,-103.60,0,1,0,75,100,-8068,2707,16070,3161.50,4,WP,1,0,0,0,0,0,0,1654470161548,4101,4090,4101,4099,0,0,27,,,,,,,0,0,0,18.00,-20.00,-1036.00,0.00,0.00,-1109.00,14,21.00,0.00,4.33,0.00,0.00,0.00,0,,,100,100,0,2,0,0,0,1,0,,,,,0.0,0.0,0.0,0.0,0.0,0.0,0
34.182648,-118.129090,2.10,2.10,0.00,0.43,2.10,2.10,0.70,0.45,4805,2022-06-05 23:02:41.649,2022-06-05 16:02:41.649,17,0,0,16.070,34.182645,-118.129093,0.00,0.00,0.00,-1.80,-1.90,-111.20,0,1,0,75,100,-8068,2707,16070,3161.50,4,WP,1,0,0,0,0,0,0,1654470161649,4101,4090,4101,4099,0,0,27,,,,,,,0,0,0,18.00,-19.00,-1112.00,0.00,0.00,-1186.00,14,21.00,0.00,4.27,0.00,0.00,0.00,0,,,100,100,0,2,0,0,0,1,0,,,,,0.0,0.0,0.0,0.0,0.0,0.0,0
34.182648,-118.129090,2.10,2.10,0.00,0.43,2.10,2.10,0.70,0.45,4905,2022-06-05 23:02:41.750,2022-06-05 16:02:41.750,17,0,0,16.070,34.182645,-118.129093,0.00,0.00,0.00,-2.00,-1.90,-118.80,0,1,0,75,100,-8068,2707,16070,3161.50,4,WP,1,0,0,0,0,0,0,1654470161749,4101,4090,4101,4099,0,0,27,,,,,,,0,0,0,20.00,-19.00,-1188.00,0.00,0.00,-1262.00,14,21.00,0.00,4.30,0.00,0.00,0.00,0,,,100,100,0,2,0,0,0,1,0,,,,,0.0,0.0,0.0,0.0,0.0,0.0,0
34.182648,-118.129090,2.10,2.10,0.00,0.42,2.10,2.10,0.70,0.45,5004,2022-06-05 23:02:41.849,2022-06-05 16:02:41.849,17,0,0,16.070,34.182645,-118.129093,0.00,0.00,0.00,-2.10,-1.40,-126.40,0,1,0,75,100,-8068,2707,16070,3161.50,4,WP,1,0,0,0,0,0,0,1654470161848,4101,4090,4101,4099,0,0,27,,,,,,,0,0,0,21.00,-14.00,-1264.00,0.00,0.00,-1339.00,14,21.00,0.00,4.20,0.00,0.00,0.00,0,,,100,100,0,2,0,0,0,1,0,,,,,0.0,0.0,0.0,0.0,0.0,0.0,0
34.182648,-118.129090,2.10,2.10,0.00,0.42,2.10,2.10,0.70,0.45,5106,2022-06-05 23:02:41.951,2022-06-05 16:02:41.951,17,0,0,16.070,34.182645,-118.129093,0.00,0.00,0.00,-2.20,-0.80,-133.90,0,1,0,75,100,-8068,2707,16070,3161.50,4,WP,1,0,0,0,0,0,0,1654470161950,4101,4090,4101,4099,0,0,27,,,,,,,0,0,0,22.00,-8.00,-1339.00,0.00,0.00,-1415.00,14,21.00,0.00,4.19,0.00,0.00,0.00,0,,,100,100,0,2,0,0,0,1,0,,,,,0.0,0.0,0.0,0.0,0.0,0.0,0
34.182648,-118.129090,2.10,2.10,0.00,0.41,2.10,2.10,0.70,0.45,5206,2022-06-05 23:02:42.050,2022-06-05 16:02:42.050,17,0,0,16.054,34.182645,-118.129093,0.00,0.00,0.00,-2.20,-0.40,-141.40,0,1,0,75,100,-7728,2703,16054,3171.50,4,WP,1,0,0,0,0,0,0,1654470162050,4101,4090,4101,4099,0,0,27,,,,,,,0,0,0,22.00,-4.00,-1414.00,0.00,0.00,-1490.00,14,21.00,0.00,4.11,0.00,0.00,0.00,0,,,100,100,0,2,0,0,0,1,0,,,,,0.0,0.0,0.0,0.0,0.0,0.0,0
34.182648,-118.129090,2.10,2.10,0.00,0.41,2.10,2.10,0.70,0.45,5308,2022-06-05 23:02:42.152,2022-06-05 16:02:42.152,17,0,0,16.054,34.182645,-118.129093,0.00,0.00,0.00,-2.00,0.00,-148.80,0,1,0,75,100,-7728,2703,16054,3171.50,4,WP,1,0,0,0,0,0,0,1654470162152,4101,4090,4101,4099,0,0,27,,,,,,,0,0,0,20.00,0.00,-1488.00,0.00,0.00,-1565.00,14,21.00,0.00,4.07,0.00,0.00,0.00,0,,,100,100,0,2,0,0,0,1,0,,,,,0.0,0.0,0.0,0.0,0.0,0.0,0
34.182648,-118.129090,2.10,2.10,0.00,0.40,2.10,2.10,0.70,0.45,5406,2022-06-05 23:02:42.251,2022-06-05 16:02:42.251,17,0,0,16.054,34.182645,-118.129093,0.00,0.00,0.00,-1.90,0.00,-156.10,0,1,0,75,100,-7728,2703,16054,3171.50,4,WP,1,0,0,0,0,0,0,1654470162250,4101,4090,4101,4099,0,0,27,,,,,,,0,0,0,19.00,0.00,-1561.00,0.00,0.00,-1639.00,14,21.00,0.00,3.98,0.00,0.00,0.00,0,,,100,100,0,2,0,0,0,1,0,,,,,0.0,0.0,0.0,0.0,0.0,0.0,0
34.182648,-118.129090,2.10,2.10,0.00,0.39,2.10,2.10,0.70,0.45,5508,2022-06-05 23:02:42.353,2022-06-05 16:02:42.353,17,0,0,16.054,34.182645,-118.129093,0.00,0.00,0.00,-1.70,0.30,-163.30,0,1,0,75,100,-7728,2703,16054,3171.50,4,WP,1,0,0,0,0,0,0,1654470162352,4101,4090,4101,4099,0,0,27,,,,,,,0,0,0,17.00,3.00,-1633.00,0.00,0.00,-1712.00,14,21.00,0.00,3.91,0.00,0.00,0.00,0,,,100,100,0,2,0,0,0,1,0,,,,,0.0,0.0,0.0,0.0,0.0,0.0,0
34.182647,-118.129090,2.10,2.10,0.00,0.38,2.10,2.10,0.70,0.45,5606,2022-06-05 23:02:42.450,2022-06-05 16:02:42.450,17,0,0,16.054,34.182645,-118.129093,0.00,0.00,0.00,-1.40,0.70,-169.30,0,1,0,75,100,-7728,2703,16054,3171.50,4,WP,1,0,0,0,0,0,0,1654470162450,4101,4090,4101,4099,0,0,27,,,,,,,0,0,0,14.00,7.00,-1693.00,0.00,0.00,-1784.00,14,21.00,0.00,3.81,0.00,0.00,0.00,0,,,100,100,0,2,0,0,0,1,0,,,,,0.0,0.0,0.0,0.0,0.0,0.0,0
34.182647,-118.129090,2.10,2.10,0.00,0.37,2.10,2.10,0.70,0.45,5704,2022-06-05 23:02:42.549,2022-06-05 16:02:42.549,17,0,0,16.054,34.182645,-118.129093,0.00,0.00,0.00,-1.10,1.20,-173.40,0,1,0,75,100,-7728,2703,16054,3171.50,4,WP,1,0,0,0,0,0,0,1654470162548,4101,4090,4101,4099,0,0,27,,,,,,,0,0,0,11.00,12.00,-1734.00,0.00,0.00,1758.00,14,21.00,0.00,3.75,0.00,0.00,0.00,0,,,100,100,0,2,0,0,0,1,0,,,,,0.0,0.0,0.0,0.0,0.0,0.0,0
34.182647,-118.129090,2.10,2.10,0.00,0.36,2.10,2.10,0.70,0.45,5805,2022-06-05 23:02:42.650,2022-06-05 16:02:42.650,17,0,0,16.054,34.182645,-118.129093,0.00,0.00,0.00,-0.80,1.50,-176.20,0,1,0,75,100,-7728,2703,16054,3171.50,4,WP,1,0,0,0,0,0,0,1654470162649,4101,4090,4101,4099,0,0,27,,,,,,,0,0,0,8.00,15.00,-1762.00,0.00,0.00,1718.00,14,21.00,0.00,3.62,0.00,0.00,0.00,0,,,100,100,0,2,0,0,0,1,0,,,,,0.0,0.0,0.0,0.0,0.0,0.0,0
34.182647,-118.129090,2.10,2.10,0.00,0.36,2.10,2.10,0.70,0.45,5905,2022-06-05 23:02:42.750,2022-06-05 16:02:42.750,17,0,0,16.054,34.182645,-118.129093,0.00,0.00,0.00,-0.50,1.70,-177.90,0,1,0,75,100,-7728,2703,16054,3171.50,4,WP,1,0,0,0,0,0,0,1654470162749,4101,4090,4101,4099,0,0,27,,,,,,,0,0,0,5.00,17.00,-1779.00,0.00,0.00,1690.00,14,21.00,0.00,3.57,0.00,0.00,0.00,0,,,100,100,0,2,0,0,0,1,0,,,,,0.0,0.0,0.0,0.0,0.0,0.0,0
34.182647,-118.129090,2.10,2.10,0.00,0.35,2.10,2.10,0.70,0.45,6004,2022-06-05 23:02:42.849,2022-06-05 16:02:42.849,17,0,0,16.054,34.182645,-118.129093,0.00,0.00,0.00,-0.50,1.90,-178.90,0,1,0,75,100,-7728,2703,16054,3171.50,4,WP,1,0,0,0,0,0,0,1654470162848,4101,4090,4101,4099,0,0,27,,,,,,,0,0,0,5.00,19.00,-1789.00,0.00,0.00,1672.00,14,21.00,0.00,3.48,0.00,0.00,0.00,0,,,100,100,0,2,0,0,0,1,0,,,,,0.0,0.0,0.0,0.0,0.0,0.0,0
34.182647,-118.129090,2.10,2.10,0.00,0.34,2.10,2.10,0.70,0.45,6107,2022-06-05 23:02:42.951,2022-06-05 16:02:42.951,17,0,0,16.054,34.182645,-118.129093,0.00,0.00,0.00,-0.60,2.00,-179.40,0,1,0,75,100,-7728,2703,16054,3171.50,4,WP,1,0,0,0,0,0,0,1654470162951,4101,4090,4101,4099,0,0,27,,,,,,,0,0,0,6.00,20.00,-1794.00,0.00,0.00,1661.00,14,21.00,0.00,3.44,0.00,0.00,0.00,0,,,100,100,0,2,0,0,0,1,0,,,,,0.0,0.0,0.0,0.0,0.0,0.0,0
34.182647,-118.129090,2.10,2.10,0.00,0.34,2.10,2.10,0.70,0.45,6206,2022-06-05 23:02:43.051,2022-06-05 16:02:43.051,17,0,0,16.054,34.182645,-118.129093,0.00,0.00,0.00,-0.50,2.20,-179.40,0,1,0,75,100,-7728,2703,16054,3171.50,4,WP,1,0,0,0,0,0,0,1654470163050,4101,4090,4101,4099,0,0,27,,,,,,,0,0,0,5.00,22.00,-1794.00,0.00,0.00,1654.00,14,21.00,0.00,3.39,0.00,0.00,0.00,0,,,100,100,0,2,0,0,0,1,0,,,,,0.0,0.0,0.0,0.0,0.0,0.0,0
34.182647,-118.129090,2.10,2.10,0.00,0.34,2.10,2.10,0.70,0.45,6307,2022-06-05 23:02:43.151,2022-06-05 16:02:43.151,17,0,0,16.054,34.182645,-118.129093,0.00,0.00,0.00,-0.30,2.40,-179.30,0,1,0,75,100,-7728,2703,16054,3171.50,4,WP,1,0,0,0,0,0,0,1654470163151,4101,4090,4101,4099,0,0,27,,,,,,,0,0,0,3.00,24.00,-1793.00,0.00,0.00,1652.00,14,21.00,0.00,3.35,0.00,0.00,0.00,0,,,100,100,0,2,0,0,0,1,0,,,,,0.0,0.0,0.0,0.0,0.0,0.0,0
34.182647,-118.129090,2.10,2.10,0.00,0.34,2.10,2.10,0.70,0.45,6407,2022-06-05 23:02:43.252,2022-06-05 16:02:43.252,17,0,0,16.054,34.182645,-118.129093,0.00,0.00,0.00,-0.40,2.30,-179.30,0,1,0,75,100,-7728,2703,16054,3171.50,4,WP,1,0,0,0,0,0,0,1654470163251,4101,4090,4101,4099,0,0,27,,,,,,,0,0,0,4.00,23.00,-1793.00,0.00,0.00,1651.00,14,21.00,0.00,3.42,0.00,0.00,0.00,0,,,100,100,0,2,0,0,0,1,0,,,,,0.0,0.0,0.0,0.0,0.0,0.0,0
34.182647,-118.129090,2.10,2.10,0.00,0.34,2.10,2.10,0.70,0.45,6506,2022-06-05 23:02:43.351,2022-06-05 16:02:43.351,17,0,0,16.054,34.182645,-118.129093,0.00,0.00,0.00,-3.50,1.40,-179.30,0,1,0,75,100,-7728,2703,16054,3171.50,4,WP,1,0,0,0,0,0,0,1654470163350,4101,4090,4101,4099,0,0,27,,,,,,,0,0,0,35.00,14.00,-1793.00,0.00,0.00,1650.00,14,21.00,0.00,3.38,0.00,0.00,0.00,0,,,100,100,0,2,0,0,0,1,0,,,,,0.0,0.0,0.0,0.0,0.0,0.0,0
34.182647,-118.129090,2.10,2.10,0.10,0.33,2.10,2.10,0.70,0.45,6606,2022-06-05 23:02:43.450,2022-06-05 16:02:43.450,17,0,0,16.054,34.182645,-118.129093,-0.10,0.00,0.00,-8.70,1.20,-179.40,0,1,0,75,100,-7728,2703,16054,3171.50,4,WP,1,0,0,0,0,0,0,1654470163450,4101,4090,4101,4099,0,0,27,,,,,,,0,0,0,87.00,12.00,-1794.00,0.00,0.00,1650.00,14,21.00,1.00,3.30,-1.00,0.00,0.00,0,,,100,100,0,2,0,0,0,1,0,,,,,0.0,0.0,0.0,0.0,0.0,0.0,0
34.182646,-118.129090,2.10,2.10,0.20,0.32,2.10,2.10,0.70,0.45,6706,2022-06-05 23:02:43.551,2022-06-05 16:02:43.551,17,0,0,16.054,34.182645,-118.129093,-0.20,0.00,0.00,-12.70,1.30,-179.50,0,1,0,75,100,-7728,2703,16054,3171.50,4,WP,1,0,0,0,0,0,0,1654470163550,4101,4090,4101,4099,0,0,27,,,,,,,0,0,0,127.00,13.00,-1795.00,0.00,0.00,1650.00,14,21.00,2.00,3.19,-2.00,0.00,0.00,0,,,100,100,0,2,0,0,0,1,0,,,,,0.0,0.0,0.0,0.0,0.0,0.0,0
34.182646,-118.129090,2.10,2.10,0.40,0.30,2.10,2.10,0.70,0.45,6809,2022-06-05 23:02:43.654,2022-06-05 16:02:43.654,17,0,0,16.054,34.182645,-118.129093,-0.40,0.00,0.00,-15.50,1.20,-179.50,0,1,0,75,100,-7728,2703,16054,3171.50,4,WP,1,0,0,0,0,0,0,1654470163653,4019,4004,4013,4013,0,0,27,,,,,,,0,0,0,155.00,12.00,-1795.00,0.00,0.00,1650.00,14,21.00,4.00,2.98,-4.00,0.00,0.00,0,,,100,100,0,2,0,0,0,1,0,,,,,0.0,0.0,0.0,0.0,0.0,0.0,0
34.182645,-118.129090,2.10,2.10,0.70,0.27,2.10,2.10,0.70,0.45,6906,2022-06-05 23:02:43.751,2022-06-05 16:02:43.751,17,0,0,16.054,34.182645,-118.129093,-0.70,0.00,0.00,-17.60,1.40,-179.50,0,1,0,75,100,-7728,2703,16054,3171.50,4,WP,1,0,0,0,0,0,0,1654470163750,4019,4004,4013,4013,0,0,27,,,,,,,0,0,0,176.00,14.00,-1795.00,0.00,0.00,1650.00,14,21.00,7.00,2.75,-7.00,0.00,0.00,0,,,100,100,0,2,0,0,0,1,0,,,,,0.0,0.0,0.0,0.0,0.0,0.0,0
34.182645,-118.129090,2.10,2.10,1.00,0.28,2.10,2.10,1.00,0.45,7005,2022-06-05 23:02:43.849,2022-06-05 16:02:43.849,17,0,0,16.054,34.182645,-118.129093,-1.00,0.00,0.00,-19.00,1.50,-179.50,0,1,0,75,100,-7728,2703,16054,3171.50,4,WP,1,0,0,0,0,0,0,1654470163849,4019,4004,4013,4013,0,0,27,,,,,,,0,0,0,190.00,15.00,-1795.00,0.00,0.00,1650.00,14,21.00,10.00,2.77,-10.00,0.00,0.00,0,,,100,100,0,2,0,0,0,1,0,,,,,0.0,0.0,0.0,0.0,0.0,0.0,0
34.182644,-118.129090,2.10,2.10,1.30,0.31,2.10,2.10,1.30,0.45,7107,2022-06-05 23:02:43.951,2022-06-05 16:02:43.951,17,0,0,16.054,34.182645,-118.129093,-1.30,0.00,0.00,-20.20,1.30,-179.50,0,1,0,75,100,-7728,2703,16054,3171.50,4,WP,1,0,0,0,0,0,0,1654470163951,4019,4004,4013,4013,0,0,27,,,,,,,0,0,0,202.00,13.00,-1795.00,0.00,0.00,1650.00,14,21.00,13.00,3.08,-13.00,0.00,0.00,0,,,100,100,0,2,0,0,0,1,0,,,,,0.0,0.0,0.0,0.0,0.0,0.0,0
34.182642,-118.129090,2.10,2.10,1.60,0.39,2.10,2.10,1.60,0.45,7207,2022-06-05 23:02:44.051,2022-06-05 16:02:44.051,17,0,0,16.049,34.182645,-118.129093,-1.60,0.00,0.00,-21.50,1.40,-179.60,0,1,0,75,100,-7391,2699,16049,3171.50,4,WP,1,0,0,0,0,0,0,1654470164051,4019,4004,4013,4013,0,0,27,,,,,,,0,0,0,215.00,14.00,-1796.00,0.00,0.00,1649.00,14,21.00,16.00,3.94,-16.00,0.00,0.00,0,,,100,100,0,2,0,0,0,1,0,,,,,0.0,0.0,0.0,0.0,0.0,0.0,0
34.182641,-118.129090,2.10,2.10,1.90,0.54,2.10,2.10,1.90,0.54,7311,2022-06-05 23:02:44.156,2022-06-05 16:02:44.156,17,0,0,16.049,34.182645,-118.129093,-1.90,0.00,0.00,-22.50,1.70,-179.70,0,1,0,75,100,-7391,2699,16049,3171.50,4,WP,1,0,0,0,0,0,0,1654470164155,4019,4004,4013,4013,0,0,27,,,,,,,0,0,0,225.00,17.00,-1797.00,0.00,0.00,1649.00,14,21.00,19.00,5.37,-19.00,0.00,0.00,0,,,100,100,0,2,0,0,0,1,0,,,,,0.0,0.0,0.0,0.0,0.0,0.0,0
34.182639,-118.129090,2.10,2.10,2.30,0.71,2.10,2.10,2.30,0.71,7406,2022-06-05 23:02:44.250,2022-06-05 16:02:44.250,17,0,0,16.049,34.182645,-118.129093,-2.30,0.00,0.00,-23.00,2.00,-179.80,0,1,0,75,100,-7391,2699,16049,3171.50,4,WP,1,0,0,0,0,0,0,1654470164250,4019,4004,4013,4013,0,0,27,,,,,,,0,0,0,230.00,20.00,-1798.00,0.00,0.00,1649.00,14,21.00,23.00,7.07,-23.00,0.00,0.00,0,,,100,100,0,2,0,0,0,1,0,,,,,0.0,0.0,0.0,0.0,0.0,0.0,0
34.182637,-118.129090,2.10,2.10,2.60,0.94,2.10,2.10,2.60,0.94,7507,2022-06-05 23:02:44.351,2022-06-05 16:02:44.351,17,0,0,16.049,34.182645,-118.129093,-2.60,0.00,-0.10,-23.00,1.90,-179.90,0,1,0,75,100,-7391,2699,16049,3171.50,4,WP,1,0,0,0,0,0,0,1654470164351,4019,4004,4013,4013,0,0,27,,,,,,,0,0,0,230.00,19.00,-1799.00,0.00,0.00,1649.00,14,21.00,26.02,9.45,-26.00,0.00,-1.00,0,,,100,100,0,2,0,0,0,1,0,,,,,0.0,0.0,0.0,0.0,0.0,0.0,0
34.182634,-118.129090,2.10,2.10,3.00,1.20,2.10,2.10,3.00,1.20,7606,2022-06-05 23:02:44.450,2022-06-05 16:02:44.450,17,0,0,16.049,34.182645,-118.129093,-3.00,0.00,-0.10,-22.40,2.00,-179.90,0,1,0,75,100,-7391,2699,16049,3171.50,4,WP,1,0,0,0,0,0,0,1654470164450,4019,4004,4013,4013,0,0,27,,,,,,,0,0,0,224.00,20.00,-1799.00,0.00,0.00,1649.00,14,21.00,30.02,12.05,-30.00,0.00,-1.00,0,,,100,100,0,2,0,0,0,1,0,,,,,0.0,0.0,0.0,0.0,0.0,0.0,0
34.182631,-118.129090,2.10,2.10,3.30,1.52,2.10,2.10,3.30,1.52,7707,2022-06-05 23:02:44.551,2022-06-05 16:02:44.551,17,0,0,16.049,34.182645,-118.129093,-3.30,0.00,-0.10,-22.00,2.10,-179.90,0,1,0,75,100,-7391,2699,16049,3171.50,4,WP,1,0,0,0,0,0,0,1654470164551,4019,4004,4013,4013,0,0,27,,,,,,,0,0,0,220.00,21.00,-1799.00,0.00,0.00,1649.00,14,21.00,33.02,15.16,-33.00,0.00,-1.00,0,,,100,100,0,2,0,0,0,1,0,,,,,0.0,0.0,0.0,0.0,0.0,0.0,0
34.182628,-118.129090,2.10,2.10,3.60,1.86,2.10,2.10,3.60,1.86,7808,2022-06-05 23:02:44.653,2022-06-05 16:02:44.653,17,0,0,16.049,34.182645,-118.129093,-3.60,0.00,0.00,-22.00,2.10,-179.80,0,1,0,75,100,-7391,2699,16049,3171.50,4,WP,1,0,0,0,0,0,0,1654470164652,4019,4004,4013,4013,0,0,27,,,,,,,0,0,0,220.00,21.00,-1798.00,0.00,0.00,1649.00,14,21.00,36.00,18.62,-36.00,0.00,0.00,0,,,100,100,0,2,0,0,0,1,0,,,,,0.0,0.0,0.0,0.0,0.0,0.0,0
34.182625,-118.129090,2.10,2.20,3.90,2.23,2.10,2.10,3.90,2.23,7907,2022-06-05 23:02:44.751,2022-06-05 16:02:44.751,17,0,0,16.049,34.182645,-118.129093,-3.90,0.00,0.00,-21.10,1.50,-179.70,0,1,0,75,100,-7391,2699,16049,3171.50,4,WP,1,0,0,0,0,0,0,1654470164751,4019,4004,4013,4013,0,0,27,,,,,,,0,0,0,211.00,15.00,-1797.00,0.00,0.00,1649.00,14,21.00,39.00,22.35,-39.00,0.00,0.00,0,,,100,100,0,2,0,0,0,1,0,,,,,0.0,0.0,0.0,0.0,0.0,0.0,0
34.182621,-118.129091,2.20,2.20,4.20,2.65,2.20,2.20,4.20,2.65,8010,2022-06-05 23:02:44.855,2022-06-05 16:02:44.855,17,0,0,16.049,34.182645,-118.129093,-4.20,0.00,-0.10,-16.60,1.30,-179.50,0,1,0,75,100,-7391,2699,16049,3171.50,4,WP,1,0,0,0,0,0,0,1654470164854,4019,4004,4013,4013,0,0,27,,,,,,,0,0,0,166.00,13.00,-1795.00,0.00,0.00,1649.00,14,22.00,42.01,26.49,-42.00,0.00,-1.00,0,,,100,100,0,2,0,0,0,1,0,,,,,0.0,0.0,0.0,0.0,0.0,0.0,0
34.182617,-118.129091,2.20,2.20,4.30,3.08,2.20,2.20,4.30,3.08,8105,2022-06-05 23:02:44.950,2022-06-05 16:02:44.950,17,0,0,16.049,34.182645,-118.129093,-4.30,0.00,-0.10,-12.40,1.10,-179.50,0,1,0,75,100,-7391,2699,16049,3171.50,4,WP,1,0,0,0,0,0,0,1654470164949,4019,4004,4013,4013,0,0,27,,,,,,,0,0,0,124.00,11.00,-1795.00,0.00,0.00,1649.00,14,22.00,43.01,30.76,-43.00,0.00,-1.00,0,,,100,100,0,2,0,0,0,1,0,,,,,0.0,0.0,0.0,0.0,0.0,0.0,0
34.182613,-118.129091,2.20,2.30,4.40,3.52,2.20,2.20,4.40,3.52,8205,2022-06-05 23:02:45.050,2022-06-05 16:02:45.050,17,0,0,16.049,34.182645,-118.129093,-4.40,0.00,-0.10,-9.70,1.20,-179.30,0,1,0,75,100,-7391,2699,16049,3171.50,4,WP,1,0,0,0,0,0,0,1654470165049,4019,4004,4013,4013,0,0,27,,,,,,,0,0,0,97.00,12.00,-1793.00,0.00,0.00,1649.00,14,22.00,44.01,35.21,-44.00,0.00,-1.00,0,,,100,100,0,2,0,0,0,1,0,,,,,0.0,0.0,0.0,0.0,0.0,0.0,0
34.182609,-118.129091,2.20,2.30,4.50,3.97,2.20,2.20,4.50,3.97,8305,2022-06-05 23:02:45.149,2022-06-05 16:02:45.149,17,0,0,16.049,34.182645,-118.129093,-4.50,0.00,-0.10,-6.40,1.10,-179.30,0,1,0,75,100,-7391,2699,16049,3171.50,4,WP,1,0,0,0,0,0,0,1654470165149,4019,4004,4013,4013,0,0,27,,,,,,,0,0,0,64.00,11.00,-1793.00,0.00,0.00,1649.00,14,22.00,45.01,39.69,-45.00,0.00,-1.00,0,,,100,100,0,2,0,0,0,1,0,,,,,0.0,0.0,0.0,0.0,0.0,0.0,0
34.182605,-118.129091,2.20,2.30,4.50,4.44,2.20,2.20,4.50,4.44,8406,2022-06-05 23:02:45.251,2022-06-05 16:02:45.251,17,0,0,16.049,34.182645,-118.129093,-4.50,0.00,-0.10,0.70,1.10,-179.10,0,1,0,75,100,-7391,2699,16049,3171.50,4,WP,1,0,0,0,0,0,0,1654470165250,4019,4004,4013,4013,0,0,27,,,,,,,0,0,0,-7.00,11.00,-1791.00,0.00,0.00,1649.00,14,22.00,45.01,44.37,-45.00,0.00,-1.00,0,,,100,100,0,2,0,0,0,1,0,,,,,0.0,0.0,0.0,0.0,0.0,0.0,0
34.182601,-118.129091,2.20,2.30,4.40,4.88,2.20,2.20,4.50,4.88,8508,2022-06-05 23:02:45.352,2022-06-05 16:02:45.352,17,0,0,16.049,34.182645,-118.129093,-4.40,0.00,-0.10,6.60,1.40,-178.90,0,1,0,75,100,-7391,2699,16049,3171.50,4,WP,1,0,0,0,0,0,0,1654470165352,4019,4004,4013,4013,0,0,27,,,,,,,0,0,0,-66.00,14.00,-1789.00,0.00,0.00,1649.00,14,22.00,44.01,48.84,-44.00,0.00,-1.00,0,,,100,100,0,2,0,0,0,1,0,,,,,0.0,0.0,0.0,0.0,0.0,0.0,0
34.182597,-118.129092,2.20,2.30,4.20,5.33,2.20,2.20,4.50,5.33,8606,2022-06-05 23:02:45.451,2022-06-05 16:02:45.451,17,0,0,16.049,34.182645,-118.129093,-4.20,0.00,-0.10,10.90,1.60,-178.70,0,1,0,75,100,-7391,2699,16049,3171.50,4,WP,1,0,0,0,0,0,0,1654470165450,4019,4004,4013,4013,0,0,27,,,,,,,0,0,0,-109.00,16.00,-1787.00,0.00,0.00,1649.00,14,22.00,42.01,53.28,-42.00,0.00,-1.00,0,,,100,100,0,2,0,0,0,1,0,,,,,0.0,0.0,0.0,0.0,0.0,0.0,0
34.182593,-118.129092,2.20,2.30,3.90,5.73,2.20,2.20,4.50,5.73,8707,2022-06-05 23:02:45.552,2022-06-05 16:02:45.552,17,0,0,16.049,34.182645,-118.129093,-3.90,0.00,-0.10,13.60,1.10,-178.80,0,1,0,75,100,-7391,2699,16049,3171.50,4,WP,1,0,0,0,0,0,0,1654470165551,4019,4004,4013,4013,0,0,27,,,,,,,0,0,0,-136.00,11.00,-1788.00,0.00,0.00,1649.00,14,22.00,39.01,57.34,-39.00,0.00,-1.00,0,,,100,100,0,2,0,0,0,1,0,,,,,0.0,0.0,0.0,0.0,0.0,0.0,0
34.182590,-118.129092,2.20,2.30,3.60,6.12,2.20,2.20,4.50,6.12,8806,2022-06-05 23:02:45.650,2022-06-05 16:02:45.650,17,0,0,16.049,34.182645,-118.129093,-3.60,0.00,0.00,14.50,0.40,-178.80,0,1,0,75,100,-7391,2699,16049,3171.50,4,WP,1,0,0,0,0,0,0,1654470165650,4019,4004,4013,4013,0,0,27,,,,,,,0,0,0,-145.00,4.00,-1788.00,0.00,0.00,1649.00,14,22.00,36.00,61.20,-36.00,0.00,0.00,0,,,100,100,0,2,0,0,0,1,0,,,,,0.0,0.0,0.0,0.0,0.0,0.0,0
34.182586,-118.129092,2.20,2.30,3.30,6.47,2.20,2.20,4.50,6.47,8907,2022-06-05 23:02:45.751,2022-06-05 16:02:45.751,17,0,0,16.049,34.182645,-118.129093,-3.30,0.00,0.00,16.40,0.40,-178.80,0,1,0,75,100,-7391,2699,16049,3171.50,4,WP,1,0,0,0,0,0,0,1654470165751,4019,4004,4013,4013,0,0,27,,,,,,,0,0,0,-164.00,4.00,-1788.00,0.00,0.00,1649.00,14,22.00,33.00,64.68,-33.00,0.00,0.00,0,,,100,100,0,2,0,0,0,1,0,,,,,0.0,0.0,0.0,0.0,0.0,0.0,0
34.182583,-118.129092,2.20,2.30,2.90,6.84,2.20,2.20,4.50,6.84,9007,2022-06-05 23:02:45.852,2022-06-05 16:02:45.852,17,0,0,16.049,34.182645,-118.129093,-2.90,0.00,0.00,17.60,-0.10,-178.70,0,1,0,75,100,-7391,2699,16049,3171.50,4,WP,1,0,0,0,0,0,0,1654470165851,4019,4004,4013,4013,0,0,27,,,,,,,0,0,0,-176.00,-1.00,-1787.00,0.00,0.00,1649.00,14,22.00,29.00,68.36,-29.00,0.00,0.00,0,,,100,100,0,2,0,0,0,1,0,,,,,0.0,0.0,0.0,0.0,0.0,0.0,0
34.182581,-118.129092,2.20,2.30,2.50,7.12,2.20,2.20,4.50,7.12,9107,2022-06-05 23:02:45.951,2022-06-05 16:02:45.951,17,0,0,16.049,34.182645,-118.129093,-2.50,0.00,0.00,17.60,-0.10,-178.70,0,1,0,75,100,-7391,2699,16049,3171.50,4,WP,1,0,0,0,0,0,0,1654470165951,4019,4004,4013,4013,0,0,27,,,,,,,0,0,0,-176.00,-1.00,-1787.00,0.00,0.00,1649.00,14,22.00,25.00,71.18,-25.00,0.00,0.00,0,,,100,100,0,2,0,0,0,1,0,,,,,0.0,0.0,0.0,0.0,0.0,0.0,0
34.182578,-118.129092,2.20,2.30,2.20,7.39,2.20,2.20,4.50,7.39,9207,2022-06-05 23:02:46.051,2022-06-05 16:02:46.052,17,0,0,16.043,34.182645,-118.129093,-2.20,0.10,0.00,15.60,0.40,-178.70,0,1,0,74,100,-7901,2694,16043,3171.50,4,WP,1,0,0,0,0,0,0,1654470166051,4019,4004,4013,4013,0,0,27,,,,,,,0,0,0,-156.00,4.00,-1787.00,0.00,0.00,1649.00,14,22.00,22.02,73.89,-22.00,1.00,0.00,0,,,100,100,0,2,0,0,0,1,0,,,,,0.0,0.0,0.0,0.0,0.0,0.0,0
34.182576,-118.129092,2.20,2.40,1.80,7.60,2.20,2.20,4.50,7.60,9308,2022-06-05 23:02:46.152,2022-06-05 16:02:46.152,17,0,0,16.043,34.182645,-118.129093,-1.80,0.10,0.00,13.10,1.50,-178.70,0,1,0,74,100,-7901,2694,16043,3171.50,4,WP,1,0,0,0,0,0,0,1654470166152,4019,4004,4013,4013,0,0,27,,,,,,,0,0,0,-131.00,15.00,-1787.00,0.00,0.00,1649.00,14,22.00,18.03,76.01,-18.00,1.00,0.00,0,,,100,100,0,2,0,0,0,1,0,,,,,0.0,0.0,0.0,0.0,0.0,0.0,0
34.182574,-118.129092,2.20,2.40,1.60,7.80,2.20,2.20,4.50,7.80,9407,2022-06-05 23:02:46.252,2022-06-05 16:02:46.252,17,0,0,16.043,34.182645,-118.129093,-1.60,0.10,0.00,10.10,2.20,-179.00,0,1,0,74,100,-7901,2694,16043,3171.50,4,WP,1,0,0,0,0,0,0,1654470166251,4019,4004,4013,4013,0,0,27,,,,,,,0,0,0,-101.00,22.00,-1790.00,0.00,0.00,1649.00,14,22.00,16.03,78.02,-16.00,1.00,0.00,0,,,100,100,0,2,0,0,0,1,0,,,,,0.0,0.0,0.0,0.0,0.0,0.0,0
34.182573,-118.129092,2.20,2.40,1.31,7.96,2.20,2.20,4.50,7.96,9507,2022-06-05 23:02:46.352,2022-06-05 16:02:46.352,17,0,0,16.043,34.182645,-118.129093,-1.30,0.10,-0.10,7.40,2.90,-179.20,0,1,0,74,100,-7901,2694,16043,3171.50,4,WP,1,0,0,0,0,0,0,1654470166351,4019,4004,4013,4013,0,0,27,,,,,,,0,0,0,-74.00,29.00,-1792.00,0.00,0.00,1649.00,14,22.00,13.08,79.63,-13.00,1.00,-1.00,0,,,100,100,0,2,0,0,0,1,0,,,,,0.0,0.0,0.0,0.0,0.0,0.0,0
34.182572,-118.129091,2.20,2.50,1.21,8.11,2.20,2.20,4.50,8.11,9607,2022-06-05 23:02:46.452,2022-06-05 16:02:46.452,17,0,0,16.043,34.182645,-118.129093,-1.20,0.10,-0.10,5.50,3.10,-179.30,0,1,0,74,100,-7901,2694,16043,3171.50,4,WP,1,0,0,0,0,0,0,1654470166451,4019,4004,4013,4013,0,0,27,,,,,,,0,0,0,-55.00,31.00,-1793.00,0.00,0.00,1649.00,14,22.00,12.08,81.08,-12.00,1.00,-1.00,0,,,100,100,0,2,0,0,0,1,0,,,,,0.0,0.0,0.0,0.0,0.0,0.0,0
34.182571,-118.129091,2.20,2.50,1.01,8.24,2.20,2.20,4.50,8.24,9707,2022-06-05 23:02:46.552,2022-06-05 16:02:46.552,17,0,0,16.043,34.182645,-118.129093,-1.00,0.10,-0.10,4.20,3.00,-179.40,0,1,0,74,100,-7901,2694,16043,3171.50,4,WP,1,0,0,0,0,0,0,1654470166551,4019,4004,4013,4013,0,0,27,,,,,,,0,0,0,-42.00,30.00,-1794.00,0.00,0.00,1649.00,14,22.00,10.10,82.36,-10.00,1.00,-1.00,0,,,100,100,0,2,0,0,0,1,0,,,,,0.0,0.0,0.0,0.0,0.0,0.0,0
34.182570,-118.129091,2.20,2.50,0.91,8.34,2.20,2.20,4.50,8.34,9809,2022-06-05 23:02:46.653,2022-06-05 16:02:46.653,17,0,0,16.043,34.182645,-118.129093,-0.90,0.00,-0.10,3.30,2.80,-179.40,0,1,0,74,100,-7901,2694,16043,3171.50,4,WP,1,0,0,0,0,0,0,1654470166653,4019,4004,4013,4013,0,0,27,,,,,,,0,0,0,-33.00,28.00,-1794.00,0.00,0.00,1649.00,14,22.00,9.06,83.42,-9.00,0.00,-1.00,0,,,100,100,0,2,0,0,0,1,0,,,,,0.0,0.0,0.0,0.0,0.0,0.0,0
34.182569,-118.129091,2.30,2.50,0.81,8.45,2.30,2.30,4.50,8.45,9907,2022-06-05 23:02:46.752,2022-06-05 16:02:46.752,17,0,0,16.043,34.182645,-118.129093,-0.80,0.00,-0.10,2.70,2.70,-179.40,0,1,0,74,100,-7901,2694,16043,3171.50,4,WP,1,0,0,0,0,0,0,1654470166751,4019,4004,4013,4013,0,0,27,,,,,,,0,0,0,-27.00,27.00,-1794.00,0.00,0.00,1649.00,14,23.00,8.06,84.50,-8.00,0.00,-1.00,0,,,100,100,0,2,0,0,0,1,0,,,,,0.0,0.0,0.0,0.0,0.0,0.0,0
34.182568,-118.129091,2.30,2.50,0.81,8.55,2.30,2.30,4.50,8.55,10010,2022-06-05 23:02:46.855,2022-06-05 16:02:46.855,17,0,0,16.043,34.182645,-118.129093,-0.80,0.00,-0.10,2.50,2.40,-179.40,0,1,0,74,100,-7901,2694,16043,3171.50,4,WP,1,0,0,0,0,0,0,1654470166854,4019,4004,4013,4013,0,0,27,,,,,,,0,0,0,-25.00,24.00,-1794.00,0.00,0.00,1649.00,14,23.00,8.06,85.46,-8.00,0.00,-1.00,0,,,100,100,0,2,0,0,0,1,0,,,,,0.0,0.0,0.0,0.0,0.0,0.0,0
34.182567,-118.129091,2.30,2.50,0.71,8.64,2.30,2.30,4.50,8.64,10108,2022-06-05 23:02:46.953,2022-06-05 16:02:46.953,17,0,0,16.043,34.182645,-118.129093,-0.70,0.00,-0.10,2.60,2.10,-179.30,0,1,0,74,100,-7901,2694,16043,3171.50,4,WP,1,0,0,0,0,0,0,1654470166952,4019,4004,4013,4013,0,0,27,,,,,,,0,0,0,-26.00,21.00,-1793.00,0.00,0.00,1649.00,14,23.00,7.07,86.40,-7.00,0.00,-1.00,0,,,100,100,0,2,0,0,0,1,0,,,,,0.0,0.0,0.0,0.0,0.0,0.0,0
34.182566,-118.129091,2.30,2.50,0.70,8.71,2.30,2.30,4.50,8.71,10207,2022-06-05 23:02:47.051,2022-06-05 16:02:47.051,17,0,0,16.043,34.182645,-118.129093,-0.70,0.00,0.00,3.10,1.80,-179.30,0,1,0,74,100,-7901,2694,16043,3171.50,4,WP,1,0,0,0,0,0,0,1654470167051,4019,4004,4013,4013,0,0,27,,,,,,,0,0,0,-31.00,18.00,-1793.00,0.00,0.00,1649.00,14,23.00,7.00,87.06,-7.00,0.00,0.00,0,,,100,100,0,2,0,0,0,1,0,,,,,0.0,0.0,0.0,0.0,0.0,0.0,0
34.182566,-118.129091,2.30,2.50,0.60,8.78,2.30,2.30,4.50,8.78,10307,2022-06-05 23:02:47.151,2022-06-05 16:02:47.151,17,0,0,16.043,34.182645,-118.129093,-0.60,0.00,0.00,3.30,1.70,-179.30,0,1,0,74,100,-7901,2694,16043,3171.50,4,WP,1,0,0,0,0,0,0,1654470167151,4019,4004,4013,4013,0,0,27,,,,,,,0,0,0,-33.00,17.00,-1793.00,0.00,0.00,1649.00,14,23.00,6.00,87.84,-6.00,0.00,0.00,0,,,100,100,0,2,0,0,0,1,0,,,,,0.0,0.0,0.0,0.0,0.0,0.0,0
34.182565,-118.129091,2.30,2.50,0.50,8.84,2.30,2.30,4.50,8.84,10408,2022-06-05 23:02:47.252,2022-06-05 16:02:47.252,17,0,0,16.043,34.182645,-118.129093,-0.50,0.00,0.00,3.70,1.60,-179.20,0,1,0,74,100,-7901,2694,16043,3171.50,4,WP,1,0,0,0,0,0,0,1654470167252,4019,4004,4013,4013,0,0,27,,,,,,,0,0,0,-37.00,16.00,-1792.00,0.00,0.00,1649.00,14,23.00,5.00,88.44,-5.00,0.00,0.00,0,,,100,100,0,2,0,0,0,1,0,,,,,0.0,0.0,0.0,0.0,0.0,0.0,0
34.182565,-118.129091,2.30,2.50,0.40,8.91,2.30,2.30,4.50,8.91,10509,2022-06-05 23:02:47.354,2022-06-05 16:02:47.354,17,0,0,16.043,34.182645,-118.129093,-0.40,0.00,0.00,3.70,1.40,-179.20,0,1,0,74,100,-7901,2694,16043,3171.50,4,WP,1,0,0,0,0,0,0,1654470167353,4019,4004,4013,4013,0,0,27,,,,,,,0,0,0,-37.00,14.00,-1792.00,0.00,0.00,1649.00,14,23.00,4.00,89.06,-4.00,0.00,0.00,0,,,100,100,0,2,0,0,0,1,0,,,,,0.0,0.0,0.0,0.0,0.0,0.0,0
34.182564,-118.129091,2.30,2.50,0.40,8.94,2.30,2.30,4.50,8.94,10608,2022-06-05 23:02:47.452,2022-06-05 16:02:47.452,17,0,0,16.043,34.182645,-118.129093,-0.40,0.00,0.00,3.50,1.00,-179.30,0,1,0,74,100,-7901,2694,16043,3171.50,4,WP,1,0,0,0,0,0,0,1654470167452,4019,4004,4013,4013,0,0,27,,,,,,,0,0,0,-35.00,10.00,-1793.00,0.00,0.00,1649.00,14,23.00,4.00,89.44,-4.00,0.00,0.00,0,,,100,100,0,2,0,0,0,1,0,,,,,0.0,0.0,0.0,0.0,0.0,0.0,0
34.182564,-118.129091,2.30,2.50,0.30,8.99,2.30,2.30,4.50,8.99,10708,2022-06-05 23:02:47.553,2022-06-05 16:02:47.553,17,0,0,16.043,34.182645,-118.129093,-0.30,0.00,0.00,5.90,0.40,-179.30,0,1,0,74,100,-7901,2694,16043,3171.50,4,WP,1,0,0,0,0,0,0,1654470167552,4019,4004,4013,4013,0,0,27,,,,,,,0,0,0,-59.00,4.00,-1793.00,0.00,0.00,1649.00,14,23.00,3.00,89.88,-3.00,0.00,0.00,0,,,100,100,0,2,0,0,0,1,0,,,,,0.0,0.0,0.0,0.0,0.0,0.0,0
34.182563,-118.129091,2.30,2.50,0.20,9.02,2.30,2.30,4.50,9.02,10809,2022-06-05 23:02:47.653,2022-06-05 16:02:47.653,17,0,0,16.043,34.182645,-118.129093,-0.20,0.00,0.00,4.40,0.50,-179.50,0,1,0,74,100,-7901,2694,16043,3171.50,4,WP,1,0,0,0,0,0,0,1654470167653,4019,4004,4013,4013,0,0,27,,,,,,,0,0,0,-44.00,5.00,-1795.00,0.00,0.00,1649.00,14,23.00,2.00,90.22,-2.00,0.00,0.00,0,,,100,100,0,2,0,0,0,1,0,,,,,0.0,0.0,0.0,0.0,0.0,0.0,0
34.182563,-118.129091,2.30,2.50,0.10,9.05,2.30,2.30,4.50,9.05,10908,2022-06-05 23:02:47.753,2022-06-05 16:02:47.753,17,0,0,16.043,34.182645,-118.129093,-0.10,0.00,0.00,2.70,0.90,-179.50,0,1,0,74,100,-7901,2694,16043,3171.50,4,WP,1,0,0,0,0,0,0,1654470167752,4019,4004,4013,4013,0,0,27,,,,,,,0,0,0,-27.00,9.00,-1795.00,0.00,0.00,1649.00,14,23.00,1.00,90.48,-1.00,0.00,0.00,0,,,100,100,0,2,0,0,0,1,0,,,,,0.0,0.0,0.0,0.0,0.0,0.0,0
34.182563,-118.129091,2.30,2.50,0.10,9.05,2.30,2.30,4.50,9.05,11008,2022-06-05 23:02:47.852,2022-06-05 16:02:47.852,17,0,0,16.043,34.182645,-118.129093,-0.10,0.00,0.00,1.50,0.80,-176.10,0,1,0,74,100,-7901,2694,16043,3171.50,4,WP,1,0,0,0,0,0,0,1654470167852,4019,4004,4013,4013,0,0,27,,,,,,,0,0,0,-15.00,8.00,-1761.00,0.00,0.00,1649.00,14,23.00,1.00,90.52,-1.00,0.00,0.00,0,,,100,100,0,2,0,0,0,1,0,,,,,0.0,0.0,0.0,0.0,0.0,0.0,0
34.182563,-118.129091,2.30,2.50,0.00,9.06,2.30,2.30,4.50,9.06,11109,2022-06-05 23:02:47.954,2022-06-05 16:02:47.954,17,0,0,16.043,34.182645,-118.129093,0.00,0.00,0.00,0.60,1.20,-168.50,0,1,0,74,100,-7901,2694,16043,3171.50,4,WP,1,0,0,0,0,0,0,1654470167953,4019,4004,4013,4013,0,0,27,,,,,,,0,0,0,-6.00,12.00,-1685.00,0.00,0.00,1655.00,14,23.00,0.00,90.65,0.00,0.00,0.00,0,,,100,100,0,2,0,0,0,1,0,,,,,0.0,0.0,0.0,0.0,0.0,0.0,0
34.182563,-118.129091,2.30,2.50,0.00,9.06,2.30,2.30,4.50,9.06,11210,2022-06-05 23:02:48.054,2022-06-05 16:02:48.055,17,0,0,16.043,34.182645,-118.129093,0.00,0.00,0.00,0.10,1.50,-161.00,0,1,0,74,100,-7901,2694,16043,3171.50,4,WP,1,0,0,0,0,0,0,1654470168054,4019,4004,4013,4013,0,0,27,,,,,,,0,0,0,-1.00,15.00,-1610.00,0.00,0.00,1711.00,14,23.00,0.00,90.61,0.00,0.00,0.00,0,,,100,100,0,2,0,0,0,1,0,,,,,0.0,0.0,0.0,0.0,0.0,0.0,0
34.182563,-118.129091,2.30,2.50,0.00,9.07,2.30,2.30,4.50,9.07,11308,2022-06-05 23:02:48.153,2022-06-05 16:02:48.153,17,0,0,16.019,34.182645,-118.129093,0.00,0.00,0.00,-0.10,1.30,-153.70,0,1,0,74,100,-7428,2690,16019,3171.50,4,WP,1,0,0,0,0,0,0,1654470168152,4019,4004,4013,4013,0,0,27,,,,,,,0,0,0,1.00,13.00,-1537.00,0.00,0.00,1711.00,14,23.00,0.00,90.68,0.00,0.00,0.00,0,,,100,100,0,2,0,0,0,1,0,,,,,0.0,0.0,0.0,0.0,0.0,0.0,0
34.182563,-118.129091,2.30,2.40,0.00,9.06,2.30,2.30,4.50,9.07,11410,2022-06-05 23:02:48.255,2022-06-05 16:02:48.255,17,0,0,16.019,34.182645,-118.129093,0.00,0.00,0.00,-0.40,0.90,-146.30,0,1,0,74,100,-7428,2690,16019,3171.50,4,WP,1,0,0,0,0,0,0,1654470168254,4019,4004,4013,4013,0,0,27,,,,,,,0,0,0,4.00,9.00,-1463.00,0.00,0.00,-1723.00,14,23.00,0.00,90.57,0.00,0.00,0.00,0,,,100,100,0,2,0,0,0,1,0,,,,,0.0,0.0,0.0,0.0,0.0,0.0,0
34.182563,-118.129091,2.30,2.40,0.00,9.06,2.30,2.30,4.50,9.07,11509,2022-06-05 23:02:48.353,2022-06-05 16:02:48.353,17,0,0,16.019,34.182645,-118.129093,0.00,0.00,0.00,-0.50,0.50,-139.00,0,1,0,74,100,-7428,2690,16019,3171.50,4,WP,1,0,0,0,0,0,0,1654470168353,4019,4004,4013,4013,0,0,27,,,,,,,0,0,0,5.00,5.00,-1390.00,0.00,0.00,-1644.00,14,23.00,0.00,90.59,0.00,0.00,0.00,0,,,100,100,0,2,0,0,0,1,0,,,,,0.0,0.0,0.0,0.0,0.0,0.0,0
34.182563,-118.129091,2.30,2.40,0.00,9.05,2.30,2.30,4.50,9.07,11611,2022-06-05 23:02:48.455,2022-06-05 16:02:48.455,17,0,0,16.019,34.182645,-118.129093,0.00,0.00,0.00,-0.50,0.30,-131.60,0,1,0,74,100,-7428,2690,16019,3171.50,4,WP,1,0,0,0,0,0,0,1654470168455,4019,4004,4013,4013,0,0,27,,,,,,,0,0,0,5.00,3.00,-1316.00,0.00,0.00,-1566.00,14,23.00,0.00,90.53,0.00,0.00,0.00,0,,,100,100,0,2,0,0,0,1,0,,,,,0.0,0.0,0.0,0.0,0.0,0.0,0
34.182563,-118.129091,2.30,2.40,0.00,9.05,2.30,2.30,4.50,9.07,11711,2022-06-05 23:02:48.556,2022-06-05 16:02:48.556,17,0,0,16.019,34.182645,-118.129093,0.00,0.00,0.00,-0.60,0.10,-124.20,0,1,0,74,100,-7428,2690,16019,3171.50,4,WP,1,0,0,0,0,0,0,1654470168555,4019,4004,4013,4013,0,0,27,,,,,,,0,0,0,6.00,1.00,-1242.00,0.00,0.00,-1490.00,14,23.00,0.00,90.52,0.00,0.00,0.00,0,,,100,100,0,2,0,0,0,1,0,,,,,0.0,0.0,0.0,0.0,0.0,0.0,0
34.182563,-118.129091,2.30,2.40,0.00,9.03,2.30,2.30,4.50,9.07,11808,2022-06-05 23:02:48.652,2022-06-05 16:02:48.652,17,0,0,16.019,34.182645,-118.129093,0.00,0.00,0.00,-0.60,-0.10,-116.70,0,1,0,74,100,-7428,2690,16019,3171.50,4,WP,1,0,0,0,0,0,0,1654470168652,4019,4004,4013,4013,0,0,27,,,,,,,0,0,0,6.00,-1.00,-1167.00,0.00,0.00,-1413.00,14,23.00,0.00,90.30,0.00,0.00,0.00,0,,,100,100,0,2,0,0,0,1,0,,,,,0.0,0.0,0.0,0.0,0.0,0.0,0
34.182563,-118.129091,2.20,2.40,0.00,9.03,2.30,2.30,4.50,9.07,11908,2022-06-05 23:02:48.753,2022-06-05 16:02:48.753,17,0,0,16.019,34.182645,-118.129093,0.00,0.00,0.00,-0.40,-0.30,-109.30,0,1,0,74,100,-7428,2690,16019,3171.50,4,WP,1,0,0,0,0,0,0,1654470168752,4019,4004,4013,4013,0,0,27,,,,,,,0,0,0,4.00,-3.00,-1093.00,0.00,0.00,-1337.00,14,22.00,0.00,90.26,0.00,0.00,0.00,0,,,100,100,0,2,0,0,0,1,0,,,,,0.0,0.0,0.0,0.0,0.0,0.0,0
34.182564,-118.129091,2.20,2.40,0.00,9.00,2.30,2.30,4.50,9.07,12010,2022-06-05 23:02:48.854,2022-06-05 16:02:48.854,17,0,0,16.019,34.182645,-118.129093,0.00,0.00,0.00,-0.40,-0.70,-102.00,0,1,0,74,100,-7428,2690,16019,3171.50,4,WP,1,0,0,0,0,0,0,1654470168854,4019,4004,4013,4013,0,0,27,,,,,,,0,0,0,4.00,-7.00,-1020.00,0.00,0.00,-1262.00,14,22.00,0.00,90.00,0.00,0.00,0.00,0,,,100,100,0,2,0,0,0,1,0,,,,,0.0,0.0,0.0,0.0,0.0,0.0,0
34.182564,-118.129091,2.20,2.40,0.00,8.99,2.30,2.30,4.50,9.07,12110,2022-06-05 23:02:48.954,2022-06-05 16:02:48.954,17,0,0,16.019,34.182645,-118.129093,0.00,0.00,0.00,-0.60,-0.80,-94.50,0,1,0,74,100,-7428,2690,16019,3171.50,4,WP,1,0,0,0,0,0,0,1654470168954,4019,4004,4013,4013,0,0,27,,,,,,,0,0,0,6.00,-8.00,-945.00,0.00,0.00,-1187.00,14,22.00,0.00,89.93,0.00,0.00,0.00,0,,,100,100,0,2,0,0,0,1,0,,,,,0.0,0.0,0.0,0.0,0.0,0.0,0
34.182564,-118.129091,2.20,2.40,0.00,8.98,2.30,2.30,4.50,9.07,12209,2022-06-05 23:02:49.053,2022-06-05 16:02:49.053,17,0,0,16.019,34.182645,-118.129093,0.00,0.00,0.00,-0.40,-0.80,-87.10,0,1,0,74,100,-7428,2690,16019,3171.50,4,WP,1,0,0,0,0,0,0,1654470169053,4019,4004,4013,4013,0,0,27,,,,,,,0,0,0,4.00,-8.00,-871.00,0.00,0.00,-1112.00,14,22.00,0.00,89.80,0.00,0.00,0.00,0,,,100,100,0,2,0,0,0,1,0,,,,,0.0,0.0,0.0,0.0,0.0,0.0,0
34.182564,-118.129091,2.20,2.40,0.00,8.97,2.30,2.30,4.50,9.07,12309,2022-06-05 23:02:49.153,2022-06-05 16:02:49.153,17,0,0,16.019,34.182645,-118.129093,0.00,0.00,0.00,-0.40,-0.60,-79.70,0,1,0,74,100,-7428,2690,16019,3171.50,4,WP,1,0,0,0,0,0,0,1654470169153,4019,4004,4013,4013,0,0,27,,,,,,,0,0,0,4.00,-6.00,-797.00,0.00,0.00,-1037.00,14,22.00,0.00,89.71,0.00,0.00,0.00,0,,,100,100,0,2,0,0,0,1,0,,,,,0.0,0.0,0.0,0.0,0.0,0.0,0
34.182564,-118.129091,2.20,2.40,0.00,8.97,2.30,2.30,4.50,9.07,12409,2022-06-05 23:02:49.254,2022-06-05 16:02:49.254,17,0,0,16.019,34.182645,-118.129093,0.00,0.00,0.00,-0.40,-0.40,-72.30,0,1,0,74,100,-7428,2690,16019,3171.50,4,WP,1,0,0,0,0,0,0,1654470169253,4019,4004,4013,4013,0,0,27,,,,,,,0,0,0,4.00,-4.00,-723.00,0.00,0.00,-1037.00,14,22.00,0.00,89.66,0.00,0.00,0.00,0,,,100,100,0,2,0,0,0,1,0,,,,,0.0,0.0,0.0,0.0,0.0,0.0,0
34.182564,-118.129091,2.20,2.40,0.00,8.96,2.30,2.30,4.50,9.07,12510,2022-06-05 23:02:49.355,2022-06-05 16:02:49.355,17,0,0,16.019,34.182645,-118.129093,0.00,0.00,0.00,-0.30,-0.60,-64.90,0,1,0,74,100,-7428,2690,16019,3171.50,4,WP,1,0,0,0,0,0,0,1654470169354,4019,4004,4013,4013,0,0,27,,,,,,,0,0,0,3.00,-6.00,-649.00,0.00,0.00,-889.00,14,22.00,0.00,89.57,0.00,0.00,0.00,0,,,100,100,0,2,0,0,0,1,0,,,,,0.0,0.0,0.0,0.0,0.0,0.0,0
34.182564,-118.129091,2.20,2.40,0.00,8.95,2.30,2.30,4.50,9.07,12610,2022-06-05 23:02:49.454,2022-06-05 16:02:49.454,17,0,0,16.019,34.182645,-118.129093,0.00,0.00,0.00,-0.20,-0.80,-57.50,0,1,0,74,100,-7428,2690,16019,3171.50,4,WP,1,0,0,0,0,0,0,1654470169454,4019,4004,4013,4013,0,0,27,,,,,,,0,0,0,2.00,-8.00,-575.00,0.00,0.00,-814.00,14,22.00,0.00,89.52,0.00,0.00,0.00,0,,,100,100,0,2,0,0,0,1,0,,,,,0.0,0.0,0.0,0.0,0.0,0.0,0
34.182564,-118.129091,2.20,2.40,0.00,8.94,2.30,2.30,4.50,9.07,12710,2022-06-05 23:02:49.554,2022-06-05 16:02:49.554,17,0,0,16.019,34.182645,-118.129093,0.00,0.00,0.00,0.00,-1.10,-50.00,0,1,0,74,100,-7428,2690,16019,3171.50,4,WP,1,0,0,0,0,0,0,1654470169554,4019,4004,4013,4013,0,0,27,,,,,,,0,0,0,-0.00,-11.00,-500.00,0.00,0.00,-740.00,14,22.00,0.00,89.41,0.00,0.00,0.00,0,,,100,100,0,2,0,0,0,1,0,,,,,0.0,0.0,0.0,0.0,0.0,0.0,0
34.182564,-118.129091,2.20,2.40,0.00,8.94,2.30,2.30,4.50,9.07,12813,2022-06-05 23:02:49.657,2022-06-05 16:02:49.657,17,0,0,16.019,34.182645,-118.129093,0.00,0.00,0.00,0.20,-1.40,-42.70,0,1,0,74,100,-7428,2690,16019,3171.50,4,WP,1,0,0,0,0,0,0,1654470169657,4019,4004,4013,4013,0,0,27,,,,,,,0,0,0,-2.00,-14.00,-427.00,0.00,0.00,-666.00,14,22.00,0.00,89.36,0.00,0.00,0.00,0,,,100,100,0,2,0,0,0,1,0,,,,,0.0,0.0,0.0,0.0,0.0,0.0,0
34.182564,-118.129091,2.20,2.40,0.00,8.93,2.30,2.30,4.50,9.07,12911,2022-06-05 23:02:49.756,2022-06-05 16:02:49.756,17,0,0,16.019,34.182645,-118.129093,0.00,0.00,0.00,0.40,-1.50,-35.20,0,1,0,74,100,-7428,2690,16019,3171.50,4,WP,1,0,0,0,0,0,0,1654470169755,4019,4004,4013,4013,0,0,27,,,,,,,0,0,0,-4.00,-15.00,-352.00,0.00,0.00,-592.00,14,22.00,0.00,89.25,0.00,0.00,0.00,0,,,100,100,0,2,0,0,0,1,0,,,,,0.0,0.0,0.0,0.0,0.0,0.0,0
34.182564,-118.129091,2.20,2.40,0.00,8.91,2.30,2.30,4.50,9.07,13012,2022-06-05 23:02:49.857,2022-06-05 16:02:49.857,17,0,0,16.019,34.182645,-118.129093,0.00,0.00,0.00,0.70,-1.30,-28.50,0,1,0,74,100,-7428,2690,16019,3171.50,4,WP,1,0,0,0,0,0,0,1654470169856,4019,4004,4013,4013,0,0,27,,,,,,,0,0,0,-7.00,-13.00,-285.00,0.00,0.00,-518.00,14,22.00,0.00,89.10,0.00,0.00,0.00,0,,,100,100,0,2,0,0,0,1,0,,,,,0.0,0.0,0.0,0.0,0.0,0.0,0
34.182565,-118.129091,2.20,2.40,0.00,8.90,2.30,2.30,4.50,9.07,13110,2022-06-05 23:02:49.955,2022-06-05 16:02:49.955,17,0,0,16.019,34.182645,-118.129093,0.00,0.00,0.00,0.70,-1.10,-23.10,0,1,0,74,100,-7428,2690,16019,3171.50,4,WP,1,0,0,0,0,0,0,1654470169954,4019,4004,4013,4013,0,0,27,,,,,,,0,0,0,-7.00,-11.00,-231.00,0.00,0.00,-452.00,14,22.00,0.00,89.01,0.00,0.00,0.00,0,,,100,100,0,2,0,0,0,1,0,,,,,0.0,0.0,0.0,0.0,0.0,0.0,0
34.182565,-118.129091,2.20,2.40,0.00,8.89,2.30,2.30,4.50,9.07,13211,2022-06-05 23:02:50.055,2022-06-05 16:02:50.055,17,0,0,16.019,34.182645,-118.129093,0.00,0.00,0.00,0.70,-1.20,-18.60,0,1,0,74,100,-7428,2690,16019,3171.50,4,WP,1,0,0,0,0,0,0,1654470170055,4019,4004,4013,4013,0,0,27,,,,,,,0,0,0,-7.00,-12.00,-186.00,0.00,0.00,-397.00,14,22.00,0.00,88.90,0.00,0.00,0.00,0,,,100,100,0,2,0,0,0,1,0,,,,,0.0,0.0,0.0,0.0,0.0,0.0,0
34.182565,-118.129091,2.20,2.40,0.00,8.88,2.30,2.30,4.50,9.07,13310,2022-06-05 23:02:50.155,2022-06-05 16:02:50.155,17,0,0,15.999,34.182645,-118.129093,0.00,0.00,0.00,0.90,-1.20,-15.00,0,1,0,74,100,-7614,2686,15999,3171.50,4,WP,1,0,0,0,0,0,0,1654470170154,4019,4004,4013,4013,0,0,27,,,,,,,0,0,0,-9.00,-12.00,-150.00,0.00,0.00,-354.00,14,22.00,0.00,88.81,0.00,0.00,0.00,0,,,100,100,0,2,0,0,0,1,0,,,,,0.0,0.0,0.0,0.0,0.0,0.0,0
34.182565,-118.129091,2.20,2.40,0.00,8.87,2.30,2.30,4.50,9.07,13410,2022-06-05 23:02:50.254,2022-06-05 16:02:50.254,17,0,0,15.999,34.182645,-118.129093,0.00,0.00,0.00,1.00,-1.40,-12.10,0,1,0,74,100,-7614,2686,15999,3171.50,4,WP,1,0,0,0,0,0,0,1654470170254,4019,4004,4013,4013,0,0,27,,,,,,,0,0,0,-10.00,-14.00,-121.00,0.00,0.00,-320.00,14,22.00,0.00,88.66,0.00,0.00,0.00,0,,,100,100,0,2,0,0,0,1,0,,,,,0.0,0.0,0.0,0.0,0.0,0.0,0
34.182565,-118.129091,2.20,2.40,0.00,8.86,2.30,2.30,4.50,9.07,13509,2022-06-05 23:02:50.354,2022-06-05 16:02:50.354,17,0,0,15.999,34.182645,-118.129093,0.00,0.00,0.00,1.10,-1.60,-9.80,0,1,0,74,100,-7614,2686,15999,3171.50,4,WP,1,0,0,0,0,0,0,1654470170353,4019,4004,4013,4013,0,0,27,,,,,,,0,0,0,-11.00,-16.00,-98.00,0.00,0.00,-320.00,14,22.00,0.00,88.59,0.00,0.00,0.00,0,,,100,100,0,2,0,0,0,1,0,,,,,0.0,0.0,0.0,0.0,0.0,0.0,0
34.182565,-118.129090,2.20,2.40,0.00,8.86,2.30,2.30,4.50,9.07,13609,2022-06-05 23:02:50.454,2022-06-05 16:02:50.454,17,0,0,15.999,34.182645,-118.129093,0.00,0.00,0.00,1.10,-1.70,-8.00,0,1,0,74,100,-7614,2686,15999,3171.50,4,WP,1,0,0,0,0,0,0,1654470170453,4019,4004,4013,4013,0,0,27,,,,,,,0,0,0,-11.00,-17.00,-80.00,0.00,0.00,-291.00,14,22.00,0.00,88.55,0.00,0.00,0.00,0,,,100,100,0,2,0,0,0,1,0,,,,,0.0,0.0,0.0,0.0,0.0,0.0,0
