latitude,longitude,altitude(feet),ultrasonicHeight(feet),speed(mph),distance(feet),max_altitude(feet),max_ascent(feet),max_speed(mph),max_distance(feet),time(millisecond),datetime(utc),datetime(local),satellites,pressure(Pa),temperature(F),voltage(v),home_latitude,home_longitude,velocityX(mph),velocityY(mph),velocityZ(mph),pitch(deg),roll(deg),yaw(deg),powerlevel,isflying,istakingphoto,remainPowerPercent,remainLifePercent,currentCurrent,currentElectricity,currentVoltage,batteryTemperature,dischargeCount,flightmode,isMotorsOn,isTakingVideo,Rc_elevator,Rc_aileron,Rc_throttle,Rc_rudder,Rc_gyro,timestamp,Battery_Cell1,Battery_Cell2,Battery_Cell3,Battery_Cell4,Battery_Cell5,Battery_Cell6,Dronetype,AppVersion,Planename,FlyControllerSerialNumber,RemoteSerialNumber,BatterySerialNumber,CENTER_BATTERY.productDate,CENTER_BATTERY.serialNo,CENTER_BATTERY.fullCapacity,CENTER_BATTERY.productDateRaw,pitchRaw,rollRaw,yawRaw,gimbalPitchRaw,gimbalRollRaw,gimbalYawRaw,flyState,altitudeRaw,speedRaw,distanceRaw,velocityXRaw,velocityYRaw,velocityZRaw,data_reuse,App_Tip,App_Warning,downlinkSignalQuality,uplinkSignalQuality,transmissionChannel,rcModeSwitch,rcHome,rcPause,rcTransform,rcJoystickMode,appMode,FlyControllerSerialNumber_legacy,RemoteSerialNumber_legacy,BatterySerialNumber_legacy,Battery2SerialNumber,frontAvoidDist,backAvoidDist,rightAvoidDist,leftAvoidDist,upAvoidDist,downAvoidDist,isBrakingToAvoid
34.182946,-118.129091,0.98,1.31,0.89,0.30,0.98,0.98,0.89,0.30,1,2022-06-06 23:27:29.298,2022-06-06 16:27:29.298,16,0,0,16.437,34.182946,-118.129091,0.00,0.00,-0.89,1.30,-1.80,-3.10,0,1,0,78,100,-2716,2647,16437,3151.50,10,TakeOff,1,0,0,0,0,0,0,1654558049298,4113,4113,4111,4101,0,0,27,Litchi_iOS_2.14.0,Brian-MAVIC 2,163DFCK001S13F,1DUCFB800104PR,0P2AFBV5340045,,0,3416,0,-13.00,-18.00,-31.00,0.00,0.00,-157.00,11,3.00,4.00,0.93,0.00,0.00,-4.00,0,,,100,100,0,1,0,0,0,1,6,(null),(null),(null),(null),0.0,0.0,0.0,0.0,0.0,0.0,0
34.182946,-118.129091,1.31,1.31,0.89,0.33,1.31,1.31,0.89,0.33,99,2022-06-06 23:27:29.396,2022-06-06 16:27:29.396,16,0,0,16.437,34.182946,-118.129091,0.00,0.00,-0.89,1.30,-2.00,-3.10,0,1,0,78,100,-2716,2647,16437,3151.50,10,TakeOff,1,0,0,0,0,0,0,1654558049396,4113,4113,4111,4101,0,0,27,,,,,,,0,0,0,-13.00,-20.00,-31.00,0.00,0.00,-157.00,11,4.00,4.00,0.99,0.00,0.00,-4.00,0,,,100,100,0,1,0,0,0,1,6,,,,,0.0,0.0,0.0,0.0,0.0,0.0,0
34.182946,-118.129091,1.31,1.64,0.89,0.37,1.31,1.31,0.89,0.37,198,2022-06-06 23:27:29.495,2022-06-06 16:27:29.496,16,0,0,16.272,34.182946,-118.129091,0.00,0.00,-0.89,1.50,-1.70,-3.10,0,1,0,78,100,-6766,2644,16272,3151.50,10,TakeOff,1,0,0,0,0,0,0,1654558049495,4113,4113,4111,4101,0,0,27,,,,,,,0,0,0,-15.00,-17.00,-31.00,0.00,0.00,-157.00,11,4.00,4.00,1.12,0.00,0.00,-4.00,0,,,100,100,0,1,0,0,0,1,6,,,,,0.0,0.0,0.0,0.0,0.0,0.0,0
34.182947,-118.129091,1.64,1.64,1.12,0.39,1.64,1.64,1.12,0.39,300,2022-06-06 23:27:29.598,2022-06-06 16:27:29.598,15,0,0,16.272,34.182946,-118.129091,0.00,0.00,-1.12,1.70,-1.90,-3.10,0,1,0,78,100,-6766,2644,16272,3151.50,10,TakeOff,1,0,0,0,0,0,0,1654558049597,4113,4113,4111,4101,0,0,27,,,,,,,0,0,0,-17.00,-19.00,-31.00,0.00,0.00,-157.00,11,5.00,5.00,1.20,0.00,0.00,-5.00,0,,,100,100,0,1,0,0,0,1,6,,,,,0.0,0.0,0.0,0.0,0.0,0.0,0
34.182947,-118.129091,1.64,1.97,1.12,0.40,1.64,1.64,1.12,0.40,401,2022-06-06 23:27:29.699,2022-06-06 16:27:29.699,15,0,0,16.272,34.182946,-118.129091,0.00,0.00,-1.12,1.90,-1.50,-3.10,0,1,0,78,100,-6766,2644,16272,3151.50,10,TakeOff,1,0,0,0,0,0,0,1654558049698,4113,4113,4111,4101,0,0,27,,,,,,,0,0,0,-19.00,-15.00,-31.00,0.00,0.00,-156.00,11,5.00,5.00,1.22,0.00,0.00,-5.00,0,,,100,100,0,1,0,0,0,1,6,,,,,0.0,0.0,0.0,0.0,0.0,0.0,0
34.182947,-118.129091,1.97,1.97,1.12,0.43,1.97,1.97,1.12,0.43,500,2022-06-06 23:27:29.797,2022-06-06 16:27:29.797,15,0,0,16.272,34.182946,-118.129091,0.00,0.00,-1.12,2.00,-1.10,-3.10,0,1,0,78,100,-6766,2644,16272,3151.50,10,TakeOff,1,0,0,0,0,0,0,1654558049797,4113,4113,4111,4101,0,0,27,,,,,,,0,0,0,-20.00,-11.00,-31.00,0.00,0.00,-156.00,11,6.00,5.00,1.31,0.00,0.00,-5.00,0,,,100,100,0,1,0,0,0,1,6,,,,,0.0,0.0,0.0,0.0,0.0,0.0,0
34.182947,-118.129091,2.30,2.30,1.12,0.51,2.30,2.30,1.12,0.51,549,2022-06-06 23:27:29.847,2022-06-06 16:27:29.847,15,0,0,16.272,34.182946,-118.129091,0.00,0.00,-1.12,2.40,-1.50,-3.00,0,1,0,78,100,-6766,2644,16272,3151.50,10,TakeOff,1,0,0,0,0,0,0,1654558049846,4113,4113,4111,4101,0,0,27,,,,,,,0,0,0,-24.00,-15.00,-30.00,0.00,0.00,-156.00,11,7.00,5.00,1.56,0.00,0.00,-5.00,0,,,100,100,0,1,0,0,0,1,6,,,,,0.0,0.0,0.0,0.0,0.0,0.0,0
34.182947,-118.129091,2.30,2.30,1.12,0.54,2.30,2.30,1.12,0.54,700,2022-06-06 23:27:29.998,2022-06-06 16:27:29.998,15,0,0,16.272,34.182946,-118.129091,0.00,0.00,-1.12,2.50,-1.70,-2.90,0,1,0,78,100,-6766,2644,16272,3151.50,10,TakeOff,1,0,0,0,0,0,0,1654558049997,4113,4113,4111,4101,0,0,27,,,,,,,0,0,0,-25.00,-17.00,-29.00,0.00,0.00,-156.00,11,7.00,5.00,1.66,0.00,0.00,-5.00,0,,,100,100,0,1,0,0,0,1,6,,,,,0.0,0.0,0.0,0.0,0.0,0.0,0
34.182947,-118.129091,2.62,2.62,1.12,0.65,2.62,2.62,1.12,0.65,799,2022-06-06 23:27:30.096,2022-06-06 16:27:30.097,15,0,0,16.272,34.182946,-118.129091,0.00,0.00,-1.12,2.80,-1.30,-2.90,0,1,0,78,100,-6766,2644,16272,3151.50,10,TakeOff,1,0,0,0,0,0,0,1654558050096,4113,4113,4111,4101,0,0,27,,,,,,,0,0,0,-28.00,-13.00,-29.00,0.00,0.00,-156.00,11,8.00,5.00,2.00,0.00,0.00,-5.00,0,,,100,100,0,1,0,0,0,1,6,,,,,0.0,0.0,0.0,0.0,0.0,0.0,0
34.182947,-118.129091,2.95,2.62,1.12,0.69,2.95,2.95,1.12,0.69,901,2022-06-06 23:27:30.198,2022-06-06 16:27:30.198,15,0,0,16.272,34.182946,-118.129091,0.00,0.00,-1.12,2.90,-1.10,-3.00,0,1,0,78,100,-6766,2644,16272,3151.50,10,TakeOff,1,0,0,0,0,0,0,1654558050198,4113,4113,4111,4101,0,0,27,,,,,,,0,0,0,-29.00,-11.00,-30.00,0.00,0.00,-156.00,11,9.00,5.00,2.10,0.00,0.00,-5.00,0,,,100,100,0,1,0,0,0,1,6,,,,,0.0,0.0,0.0,0.0,0.0,0.0,0
34.182947,-118.129091,2.95,2.95,1.12,0.71,2.95,2.95,1.12,0.71,1000,2022-06-06 23:27:30.298,2022-06-06 16:27:30.298,15,0,0,16.272,34.182946,-118.129091,0.00,0.00,-1.12,2.70,-0.60,-3.00,0,1,0,78,100,-6766,2644,16272,3151.50,10,TakeOff,1,0,0,0,0,0,0,1654558050297,4113,4113,4111,4101,0,0,27,,,,,,,0,0,0,-27.00,-6.00,-30.00,0.00,0.00,-155.00,11,9.00,5.00,2.16,0.00,0.00,-5.00,0,,,100,100,0,1,0,0,0,1,6,,,,,0.0,0.0,0.0,0.0,0.0,0.0,0
34.182948,-118.129091,3.28,3.28,1.12,0.74,3.28,3.28,1.12,0.74,1099,2022-06-06 23:27:30.396,2022-06-06 16:27:30.396,15,0,0,16.272,34.182946,-118.129091,0.00,0.00,-1.12,2.80,-0.50,-2.90,0,1,0,78,100,-6766,2644,16272,3151.50,10,TakeOff,1,0,0,0,0,0,0,1654558050396,4113,4113,4111,4101,0,0,27,,,,,,,0,0,0,-28.00,-5.00,-29.00,0.00,0.00,-155.00,11,10.00,5.00,2.25,0.00,0.00,-5.00,0,,,100,100,0,1,0,0,0,1,6,,,,,0.0,0.0,0.0,0.0,0.0,0.0,0
34.182947,-118.129091,3.28,3.28,1.12,0.71,3.28,3.28,1.12,0.74,1199,2022-06-06 23:27:30.497,2022-06-06 16:27:30.497,15,0,0,16.272,34.182946,-118.129091,0.00,0.00,-1.12,3.00,-0.80,-2.90,0,1,0,78,100,-6766,2644,16272,3151.50,10,TakeOff,1,0,0,0,0,0,0,1654558050496,4113,4113,4111,4101,0,0,27,,,,,,,0,0,0,-30.00,-8.00,-29.00,0.00,0.00,-155.00,11,10.00,5.00,2.15,0.00,0.00,-5.00,0,,,100,100,0,1,0,0,0,1,6,,,,,0.0,0.0,0.0,0.0,0.0,0.0,0
34.182948,-118.129091,3.61,3.61,1.12,0.73,3.61,3.61,1.12,0.74,1301,2022-06-06 23:27:30.598,2022-06-06 16:27:30.598,16,0,0,16.272,34.182946,-118.129091,0.00,0.00,-1.12,2.90,-1.10,-2.90,0,1,0,78,100,-6766,2644,16272,3151.50,10,TakeOff,1,0,0,0,0,0,0,1654558050598,4113,4113,4111,4101,0,0,27,,,,,,,0,0,0,-29.00,-11.00,-29.00,0.00,0.00,-155.00,11,11.00,5.00,2.21,0.00,0.00,-5.00,0,,,100,100,0,1,0,0,0,1,6,,,,,0.0,0.0,0.0,0.0,0.0,0.0,0
34.182947,-118.129091,3.61,3.61,0.89,0.72,3.61,3.61,1.12,0.74,1400,2022-06-06 23:27:30.697,2022-06-06 16:27:30.697,16,0,0,16.272,34.182946,-118.129091,0.00,0.00,-0.89,2.70,-1.10,-2.90,0,1,0,78,100,-6766,2644,16272,3151.50,10,Sport,1,0,0,0,0,0,0,1654558050697,4113,4113,4111,4101,0,0,27,,,,,,,0,0,0,-27.00,-11.00,-29.00,0.00,0.00,-155.00,31,11.00,4.00,2.19,0.00,0.00,-4.00,0,,,100,100,0,1,0,0,0,1,6,,,,,0.0,0.0,0.0,0.0,0.0,0.0,0
34.182948,-118.129092,3.61,3.61,0.67,0.73,3.61,3.61,1.12,0.74,1501,2022-06-06 23:27:30.799,2022-06-06 16:27:30.799,16,0,0,16.272,34.182946,-118.129091,0.00,0.00,-0.67,2.70,-0.90,-2.90,0,1,0,78,100,-6766,2644,16272,3151.50,10,Sport,1,0,0,0,0,0,0,1654558050798,4113,4113,4111,4101,0,0,27,,,,,,,0,0,0,-27.00,-9.00,-29.00,0.00,0.00,-155.00,31,11.00,3.00,2.23,0.00,0.00,-3.00,0,,,100,100,0,1,0,0,0,1,6,,,,,0.0,0.0,0.0,0.0,0.0,0.0,0
34.182948,-118.129091,3.94,3.94,0.22,0.78,3.94,3.94,1.12,0.78,1599,2022-06-06 23:27:30.897,2022-06-06 16:27:30.897,16,0,0,16.272,34.182946,-118.129091,0.00,0.00,-0.22,2.60,-1.00,-2.90,0,1,0,78,100,-6766,2644,16272,3151.50,10,Sport,1,0,0,0,0,0,0,1654558050896,4113,4113,4111,4101,0,0,27,,,,,,,0,0,0,-26.00,-10.00,-29.00,0.00,0.00,-155.00,31,12.00,1.00,2.37,0.00,0.00,-1.00,0,,,100,100,0,1,0,0,0,1,6,,,,,0.0,0.0,0.0,0.0,0.0,0.0,0
34.182948,-118.129091,3.94,3.94,0.00,0.79,3.94,3.94,1.12,0.79,1651,2022-06-06 23:27:30.948,2022-06-06 16:27:30.948,15,0,0,16.272,34.182946,-118.129091,0.00,0.00,0.00,2.40,-1.30,-2.80,0,1,0,78,100,-6766,2644,16272,3151.50,10,Sport,1,0,0,0,0,0,0,1654558050948,4113,4113,4111,4101,0,0,27,,,,,,,0,0,0,-24.00,-13.00,-28.00,0.00,0.00,-155.00,31,12.00,0.00,2.41,0.00,0.00,0.00,0,,,100,100,0,1,0,0,0,1,6,,,,,0.0,0.0,0.0,0.0,0.0,0.0,0
34.182948,-118.129091,3.94,3.94,0.00,0.80,3.94,3.94,1.12,0.80,1800,2022-06-06 23:27:31.098,2022-06-06 16:27:31.098,15,0,0,16.272,34.182946,-118.129091,0.00,0.00,0.00,2.30,-1.40,-2.70,0,1,0,78,100,-6766,2644,16272,3151.50,10,Sport,1,0,0,0,0,0,0,1654558051097,4113,4113,4111,4101,0,0,27,,,,,,,0,0,0,-23.00,-14.00,-27.00,0.00,0.00,-155.00,31,12.00,0.00,2.43,0.00,0.00,0.00,0,,,100,100,0,1,0,0,0,1,6,,,,,0.0,0.0,0.0,0.0,0.0,0.0,0
34.182948,-118.129091,3.94,3.94,0.00,0.81,3.94,3.94,1.12,0.81,1900,2022-06-06 23:27:31.198,2022-06-06 16:27:31.198,15,0,0,16.272,34.182946,-118.129091,0.00,0.00,0.00,2.40,-1.30,-2.70,0,1,0,78,100,-6766,2644,16272,3151.50,10,Sport,1,0,0,0,0,0,0,1654558051197,4113,4113,4111,4101,0,0,27,,,,,,,0,0,0,-24.00,-13.00,-27.00,0.00,0.00,-155.00,31,12.00,0.00,2.46,0.00,0.00,0.00,0,,,100,100,0,1,0,0,0,1,6,,,,,0.0,0.0,0.0,0.0,0.0,0.0,0
34.182948,-118.129091,3.61,3.94,0.00,0.88,3.94,3.94,1.12,0.88,2000,2022-06-06 23:27:31.297,2022-06-06 16:27:31.297,15,0,0,16.272,34.182946,-118.129091,0.00,0.00,0.00,2.50,-1.10,-2.80,0,1,0,78,100,-6766,2644,16272,3151.50,10,Sport,1,0,0,0,0,0,0,1654558051297,4113,4113,4111,4101,0,0,27,,,,,,,0,0,0,-25.00,-11.00,-28.00,0.00,0.00,-155.00,31,11.00,0.00,2.69,0.00,0.00,0.00,0,,,100,100,0,1,0,0,0,1,6,,,,,0.0,0.0,0.0,0.0,0.0,0.0,0
34.182948,-118.129091,3.61,3.94,0.00,0.89,3.94,3.94,1.12,0.89,2101,2022-06-06 23:27:31.399,2022-06-06 16:27:31.399,15,0,0,16.272,34.182946,-118.129091,0.00,0.00,0.00,2.60,-0.80,-2.80,0,1,0,78,100,-6766,2644,16272,3151.50,10,Sport,1,0,0,0,0,0,0,1654558051398,4113,4113,4111,4101,0,0,27,,,,,,,0,0,0,-26.00,-8.00,-28.00,0.00,0.00,-155.00,31,11.00,0.00,2.72,0.00,0.00,0.00,0,,,100,100,0,1,0,0,0,1,6,,,,,0.0,0.0,0.0,0.0,0.0,0.0,0
34.182948,-118.129092,3.61,3.94,0.00,0.80,3.94,3.94,1.12,0.89,2200,2022-06-06 23:27:31.497,2022-06-06 16:27:31.497,15,0,0,16.251,34.182946,-118.129091,0.00,0.00,0.00,2.60,-0.40,-2.90,0,1,0,78,100,-7528,2640,16251,3151.50,10,Sport,1,0,0,0,0,0,0,1654558051497,4113,4113,4111,4101,0,0,27,,,,,,,0,0,0,-26.00,-4.00,-29.00,0.00,0.00,-155.00,31,11.00,0.00,2.43,0.00,0.00,0.00,0,,,100,100,0,1,0,0,0,1,6,,,,,0.0,0.0,0.0,0.0,0.0,0.0,0
34.182948,-118.129092,3.61,3.94,0.00,0.80,3.94,3.94,1.12,0.89,2251,2022-06-06 23:27:31.549,2022-06-06 16:27:31.549,15,0,0,16.251,34.182946,-118.129091,0.00,0.00,0.00,2.40,0.00,-2.80,0,1,0,78,100,-7528,2640,16251,3151.50,10,Sport,1,0,0,0,0,0,0,1654558051548,4113,4113,4111,4101,0,0,27,,,,,,,0,0,0,-24.00,0.00,-28.00,0.00,0.00,-155.00,31,11.00,0.00,2.43,0.00,0.00,0.00,0,,,100,100,0,1,0,0,0,1,6,,,,,0.0,0.0,0.0,0.0,0.0,0.0,0
34.182948,-118.129092,3.61,3.94,0.00,0.78,3.94,3.94,1.12,0.89,2400,2022-06-06 23:27:31.698,2022-06-06 16:27:31.698,15,0,0,16.251,34.182946,-118.129091,0.00,0.00,0.00,2.20,0.00,-2.70,0,1,0,78,100,-7528,2640,16251,3151.50,10,Sport,1,0,0,0,0,0,0,1654558051697,4113,4113,4111,4101,0,0,27,,,,,,,0,0,0,-22.00,0.00,-27.00,0.00,0.00,-155.00,31,11.00,0.00,2.39,0.00,0.00,0.00,0,,,100,100,0,1,0,0,0,1,6,,,,,0.0,0.0,0.0,0.0,0.0,0.0,0
34.182948,-118.129092,3.61,3.94,0.00,0.78,3.94,3.94,1.12,0.89,2502,2022-06-06 23:27:31.800,2022-06-06 16:27:31.800,15,0,0,16.251,34.182946,-118.129091,0.00,0.00,0.00,2.40,-0.20,-2.60,0,1,0,78,100,-7528,2640,16251,3151.50,10,Sport,1,0,0,0,0,0,0,1654558051799,4113,4113,4111,4101,0,0,27,,,,,,,0,0,0,-24.00,-2.00,-26.00,0.00,0.00,-155.00,31,11.00,0.00,2.37,0.00,0.00,0.00,0,,,100,100,0,1,0,0,0,1,6,,,,,0.0,0.0,0.0,0.0,0.0,0.0,0
34.182947,-118.129092,3.61,3.94,0.00,0.71,3.94,3.94,1.12,0.89,2602,2022-06-06 23:27:31.900,2022-06-06 16:27:31.900,15,0,0,16.251,34.182946,-118.129091,0.00,0.00,0.00,2.50,-0.50,-2.70,0,1,0,78,100,-7528,2640,16251,3151.50,10,Sport,1,0,0,0,0,0,0,1654558051899,4113,4113,4111,4101,0,0,27,,,,,,,0,0,0,-25.00,-5.00,-27.00,0.00,0.00,-155.00,31,11.00,0.00,2.17,0.00,0.00,0.00,0,,,100,100,0,1,0,0,0,1,6,,,,,0.0,0.0,0.0,0.0,0.0,0.0,0
34.182947,-118.129091,3.61,3.94,0.00,0.70,3.94,3.94,1.12,0.89,2700,2022-06-06 23:27:31.997,2022-06-06 16:27:31.997,15,0,0,16.251,34.182946,-118.129091,0.00,0.00,0.00,2.50,-0.70,-2.70,0,1,0,78,100,-7528,2640,16251,3151.50,10,Sport,1,0,0,0,0,0,0,1654558051997,4113,4113,4111,4101,0,0,27,,,,,,,0,0,0,-25.00,-7.00,-27.00,0.00,0.00,-155.00,31,11.00,0.00,2.13,0.00,0.00,0.00,0,,,100,100,0,1,0,0,0,1,6,,,,,0.0,0.0,0.0,0.0,0.0,0.0,0
34.182947,-118.129092,3.61,3.94,0.00,0.66,3.94,3.94,1.12,0.89,2801,2022-06-06 23:27:32.099,2022-06-06 16:27:32.099,15,0,0,16.251,34.182946,-118.129091,0.00,0.00,0.00,2.20,-0.70,-2.70,0,1,0,78,100,-7528,2640,16251,3151.50,10,Sport,1,0,0,0,0,0,0,1654558052098,4113,4113,4111,4101,0,0,27,,,,,,,0,0,0,-22.00,-7.00,-27.00,0.00,0.00,-155.00,31,11.00,0.00,2.00,0.00,0.00,0.00,0,,,100,100,0,1,0,0,0,1,6,,,,,0.0,0.0,0.0,0.0,0.0,0.0,0
34.182947,-118.129091,3.61,3.94,0.00,0.63,3.94,3.94,1.12,0.89,2902,2022-06-06 23:27:32.199,2022-06-06 16:27:32.199,15,0,0,16.251,34.182946,-118.129091,0.00,0.00,0.00,2.00,-1.00,-2.80,0,1,0,78,100,-7528,2640,16251,3151.50,10,Sport,1,0,0,0,0,0,0,1654558052199,4113,4113,4111,4101,0,0,27,,,,,,,0,0,0,-20.00,-10.00,-28.00,0.00,0.00,-155.00,31,11.00,0.00,1.93,0.00,0.00,0.00,0,,,100,100,0,1,0,0,0,1,6,,,,,0.0,0.0,0.0,0.0,0.0,0.0,0
34.182947,-118.129091,3.61,3.94,0.00,0.54,3.94,3.94,1.12,0.89,3000,2022-06-06 23:27:32.298,2022-06-06 16:27:32.298,15,0,0,16.251,34.182946,-118.129091,0.00,0.00,0.00,2.00,-1.20,-2.90,0,1,0,78,100,-7528,2640,16251,3151.50,10,Sport,1,0,0,0,0,0,0,1654558052297,4113,4113,4111,4101,0,0,27,,,,,,,0,0,0,-20.00,-12.00,-29.00,0.00,0.00,-155.00,31,11.00,0.00,1.66,0.00,0.00,0.00,0,,,100,100,0,1,0,0,0,1,6,,,,,0.0,0.0,0.0,0.0,0.0,0.0,0
34.182947,-118.129091,3.61,3.94,0.00,0.51,3.94,3.94,1.12,0.89,3102,2022-06-06 23:27:32.399,2022-06-06 16:27:32.399,15,0,0,16.251,34.182946,-118.129091,0.00,0.00,0.00,1.80,-1.10,-2.90,0,1,0,78,100,-7528,2640,16251,3151.50,10,Sport,1,0,0,0,0,0,0,1654558052399,4113,4113,4111,4101,0,0,27,,,,,,,0,0,0,-18.00,-11.00,-29.00,0.00,0.00,-155.00,31,11.00,0.00,1.55,0.00,0.00,0.00,0,,,100,100,0,1,0,0,0,1,6,,,,,0.0,0.0,0.0,0.0,0.0,0.0,0
34.182947,-118.129091,3.61,3.94,0.00,0.49,3.94,3.94,1.12,0.89,3204,2022-06-06 23:27:32.501,2022-06-06 16:27:32.501,15,0,0,16.251,34.182946,-118.129091,0.00,0.00,0.00,1.50,-1.10,-3.00,0,1,0,78,100,-7528,2640,16251,3151.50,10,Sport,1,0,0,0,0,0,0,1654558052501,4113,4113,4111,4101,0,0,27,,,,,,,0,0,0,-15.00,-11.00,-30.00,0.00,0.00,-155.00,31,11.00,0.00,1.49,0.00,0.00,0.00,0,,,100,100,0,1,0,0,0,1,6,,,,,0.0,0.0,0.0,0.0,0.0,0.0,0
34.182947,-118.129091,3.61,3.94,0.00,0.45,3.94,3.94,1.12,0.89,3303,2022-06-06 23:27:32.601,2022-06-06 16:27:32.601,15,0,0,16.251,34.182946,-118.129091,0.00,0.00,0.00,1.30,-1.10,-2.90,0,1,0,78,100,-7528,2640,16251,3151.50,10,Sport,1,0,0,0,0,0,0,1654558052600,4113,4113,4111,4101,0,0,27,,,,,,,0,0,0,-13.00,-11.00,-29.00,0.00,0.00,-155.00,31,11.00,0.00,1.38,0.00,0.00,0.00,0,,,100,100,0,1,0,0,0,1,6,,,,,0.0,0.0,0.0,0.0,0.0,0.0,0
34.182947,-118.129091,3.61,3.94,0.00,0.44,3.94,3.94,1.12,0.89,3352,2022-06-06 23:27:32.649,2022-06-06 16:27:32.649,15,0,0,16.251,34.182946,-118.129091,0.00,0.00,0.00,1.00,-1.10,-2.90,0,1,0,78,100,-7528,2640,16251,3151.50,10,Sport,1,0,0,0,0,0,0,1654558052649,4113,4113,4111,4101,0,0,27,,,,,,,0,0,0,-10.00,-11.00,-29.00,0.00,0.00,-155.00,31,11.00,0.00,1.34,0.00,0.00,0.00,0,,,100,100,0,1,0,0,0,1,6,,,,,0.0,0.0,0.0,0.0,0.0,0.0,0
34.182947,-118.129091,3.61,3.94,0.00,0.41,3.94,3.94,1.12,0.89,3502,2022-06-06 23:27:32.800,2022-06-06 16:27:32.800,15,0,0,16.251,34.182946,-118.129091,0.00,0.00,0.00,0.90,-1.30,-2.70,0,1,0,78,100,-7528,2640,16251,3151.50,10,Sport,1,0,0,0,0,0,0,1654558052799,4113,4113,4111,4101,0,0,27,,,,,,,0,0,0,-9.00,-13.00,-27.00,0.00,0.00,-155.00,31,11.00,0.00,1.24,0.00,0.00,0.00,0,,,100,100,0,1,0,0,0,1,6,,,,,0.0,0.0,0.0,0.0,0.0,0.0,0
34.182946,-118.129091,3.61,3.94,0.00,0.30,3.94,3.94,1.12,0.89,3600,2022-06-06 23:27:32.898,2022-06-06 16:27:32.898,15,0,0,16.251,34.182946,-118.129091,0.00,0.00,0.00,0.70,-1.70,-2.70,0,1,0,78,100,-7528,2640,16251,3151.50,10,Sport,1,0,0,0,0,0,0,1654558052897,4113,4113,4111,4101,0,0,27,,,,,,,0,0,0,-7.00,-17.00,-27.00,0.00,0.00,-155.00,31,11.00,0.00,0.92,0.00,0.00,0.00,0,,,100,100,0,1,0,0,0,1,6,,,,,0.0,0.0,0.0,0.0,0.0,0.0,0
34.182946,-118.129091,3.61,3.94,0.00,0.27,3.94,3.94,1.12,0.89,3652,2022-06-06 23:27:32.949,2022-06-06 16:27:32.949,15,0,0,16.251,34.182946,-118.129091,0.00,0.00,0.00,0.50,-2.00,-2.70,0,1,0,78,100,-7528,2640,16251,3151.50,10,Sport,1,0,0,0,0,0,0,1654558052949,4113,4113,4111,4101,0,0,27,,,,,,,0,0,0,-5.00,-20.00,-27.00,0.00,0.00,-155.00,31,11.00,0.00,0.82,0.00,0.00,0.00,0,,,100,100,0,1,0,0,0,1,6,,,,,0.0,0.0,0.0,0.0,0.0,0.0,0
34.182946,-118.129091,3.61,3.94,0.00,0.25,3.94,3.94,1.12,0.89,3754,2022-06-06 23:27:33.051,2022-06-06 16:27:33.051,15,0,0,16.251,34.182946,-118.129091,0.00,0.00,0.00,0.50,-1.90,-2.60,0,1,0,78,100,-7528,2640,16251,3151.50,10,Sport,1,0,0,0,0,0,0,1654558053051,4113,4113,4111,4101,0,0,27,,,,,,,0,0,0,-5.00,-19.00,-26.00,0.00,0.00,-155.00,31,11.00,0.00,0.77,0.00,0.00,0.00,0,,,100,100,0,1,0,0,0,1,6,,,,,0.0,0.0,0.0,0.0,0.0,0.0,0
34.182946,-118.129091,3.61,3.94,0.00,0.23,3.94,3.94,1.12,0.89,3858,2022-06-06 23:27:33.156,2022-06-06 16:27:33.156,15,0,0,16.251,34.182946,-118.129091,0.00,0.00,0.00,0.60,-2.00,-2.50,0,1,0,78,100,-7528,2640,16251,3151.50,10,Sport,1,0,0,0,0,0,0,1654558053155,4113,4113,4111,4101,0,0,27,,,,,,,0,0,0,-6.00,-20.00,-25.00,0.00,0.00,-155.00,31,11.00,0.00,0.70,0.00,0.00,0.00,0,,,100,100,0,1,0,0,0,1,6,,,,,0.0,0.0,0.0,0.0,0.0,0.0,0
34.182946,-118.129091,3.61,3.94,0.00,0.21,3.94,3.94,1.12,0.89,4004,2022-06-06 23:27:33.301,2022-06-06 16:27:33.301,15,0,0,16.251,34.182946,-118.129091,0.00,0.00,0.00,0.80,-1.90,-2.60,0,1,0,78,100,-7528,2640,16251,3151.50,10,Sport,1,0,0,0,0,0,0,1654558053301,4113,4113,4111,4101,0,0,27,,,,,,,0,0,0,-8.00,-19.00,-26.00,0.00,0.00,-155.00,31,11.00,0.00,0.64,0.00,0.00,0.00,0,,,100,100,0,1,0,0,0,1,6,,,,,0.0,0.0,0.0,0.0,0.0,0.0,0
34.182946,-118.129091,3.61,3.94,0.00,0.19,3.94,3.94,1.12,0.89,4054,2022-06-06 23:27:33.351,2022-06-06 16:27:33.351,15,0,0,16.251,34.182946,-118.129091,0.00,0.00,0.00,0.90,-1.30,-2.80,0,1,0,78,100,-7528,2640,16251,3151.50,10,Sport,1,0,0,0,0,0,0,1654558053351,4113,4113,4111,4101,0,0,27,,,,,,,0,0,0,-9.00,-13.00,-28.00,0.00,0.00,-155.00,31,11.00,0.00,0.58,0.00,0.00,0.00,0,,,100,100,0,1,0,0,0,1,6,,,,,0.0,0.0,0.0,0.0,0.0,0.0,0
34.182946,-118.129091,3.61,3.94,0.00,0.16,3.94,3.94,1.12,0.89,4203,2022-06-06 23:27:33.500,2022-06-06 16:27:33.500,15,0,0,16.215,34.182946,-118.129091,0.00,0.00,0.00,1.10,-0.70,-2.80,0,1,0,78,100,-7507,2634,16215,3151.50,10,Sport,1,0,0,0,0,0,0,1654558053500,4113,4113,4111,4101,0,0,27,,,,,,,0,0,0,-11.00,-7.00,-28.00,0.00,0.00,-155.00,31,11.00,0.00,0.50,0.00,0.00,0.00,0,,,100,100,0,1,0,0,0,1,6,,,,,0.0,0.0,0.0,0.0,0.0,0.0,0
34.182946,-118.129091,3.61,3.94,0.00,0.15,3.94,3.94,1.12,0.89,4303,2022-06-06 23:27:33.600,2022-06-06 16:27:33.601,15,0,0,16.215,34.182946,-118.129091,0.00,0.00,0.00,1.20,-0.50,-2.80,0,1,0,78,100,-7507,2634,16215,3151.50,10,Sport,1,0,0,0,2,0,0,1654558053600,4113,4113,4111,4101,0,0,27,,,,,,,0,0,0,-12.00,-5.00,-28.00,0.00,0.00,-155.00,31,11.00,0.00,0.45,0.00,0.00,0.00,0,,,100,100,0,1,0,0,0,1,6,,,,,0.0,0.0,0.0,0.0,0.0,0.0,0
34.182946,-118.129091,3.61,3.94,0.00,0.15,3.94,3.94,1.12,0.89,4403,2022-06-06 23:27:33.701,2022-06-06 16:27:33.701,15,0,0,16.215,34.182946,-118.129091,0.00,0.00,0.00,1.30,-0.40,-2.90,0,1,0,78,100,-7507,2634,16215,3151.50,10,Sport,1,0,0,0,2,0,0,1654558053700,4113,4113,4111,4101,0,0,27,,,,,,,0,0,0,-13.00,-4.00,-29.00,0.00,0.00,-155.00,31,11.00,0.00,0.45,0.00,0.00,0.00,0,,,100,100,0,1,0,0,0,1,6,,,,,0.0,0.0,0.0,0.0,0.0,0.0,0
34.182946,-118.129091,3.61,3.94,0.00,0.14,3.94,3.94,1.12,0.89,4503,2022-06-06 23:27:33.800,2022-06-06 16:27:33.800,15,0,0,16.215,34.182946,-118.129091,0.00,0.00,0.00,1.50,-0.40,-3.00,0,1,0,78,100,-7507,2634,16215,3151.50,10,Sport,1,0,0,0,3,0,0,1654558053800,4113,4113,4111,4101,0,0,27,,,,,,,0,0,0,-15.00,-4.00,-30.00,0.00,0.00,-155.00,31,11.00,0.00,0.41,0.00,0.00,0.00,0,,,100,100,0,1,0,0,0,1,6,,,,,0.0,0.0,0.0,0.0,0.0,0.0,0
34.182946,-118.129091,3.61,3.94,0.00,0.17,3.94,3.94,1.12,0.89,4603,2022-06-06 23:27:33.901,2022-06-06 16:27:33.901,15,0,0,16.215,34.182946,-118.129091,0.00,0.00,0.00,1.50,0.00,-3.00,0,1,0,78,100,-7507,2634,16215,3151.50,10,Sport,1,0,0,0,14,0,0,1654558053900,4113,4113,4111,4101,0,0,27,,,,,,,0,0,0,-15.00,0.00,-30.00,0.00,0.00,-155.00,31,11.00,0.00,0.53,0.00,0.00,0.00,0,,,100,100,0,1,0,0,0,1,6,,,,,0.0,0.0,0.0,0.0,0.0,0.0,0
34.182946,-118.129091,3.61,3.94,0.00,0.16,3.94,3.94,1.12,0.89,4704,2022-06-06 23:27:34.002,2022-06-06 16:27:34.002,15,0,0,16.215,34.182946,-118.129091,0.00,0.00,0.00,1.00,0.00,-3.00,0,1,0,78,100,-7507,2634,16215,3151.50,10,Sport,1,0,0,0,45,0,0,1654558054001,4113,4113,4111,4101,0,0,27,,,,,,,0,0,0,-10.00,0.00,-30.00,0.00,0.00,-155.00,31,11.00,0.00,0.49,0.00,0.00,0.00,0,,,100,100,0,1,0,0,0,1,6,,,,,0.0,0.0,0.0,0.0,0.0,0.0,0
34.182946,-118.129091,3.61,3.94,0.00,0.17,3.94,3.94,1.12,0.89,4805,2022-06-06 23:27:34.102,2022-06-06 16:27:34.102,15,0,0,16.215,34.182946,-118.129091,0.00,0.00,0.00,0.90,-0.30,-2.80,0,1,0,78,100,-7507,2634,16215,3151.50,10,Sport,1,0,0,0,55,0,0,1654558054102,4113,4113,4111,4101,0,0,27,,,,,,,0,0,0,-9.00,-3.00,-28.00,0.00,0.00,-155.00,31,11.00,0.00,0.52,0.00,0.00,0.00,0,,,100,100,0,1,0,0,0,1,6,,,,,0.0,0.0,0.0,0.0,0.0,0.0,0
34.182946,-118.129091,3.61,3.94,0.00,0.16,3.94,3.94,1.12,0.89,4858,2022-06-06 23:27:34.156,2022-06-06 16:27:34.156,15,0,0,16.215,34.182946,-118.129091,0.00,0.00,0.00,0.80,-0.90,-2.90,0,1,0,78,100,-7507,2634,16215,3151.50,10,Sport,1,0,0,0,55,0,0,1654558054155,4113,4113,4111,4101,0,0,27,,,,,,,0,0,0,-8.00,-9.00,-29.00,0.00,0.00,-155.00,31,11.00,0.00,0.48,0.00,0.00,0.00,0,,,100,100,0,1,0,0,0,1,6,,,,,0.0,0.0,0.0,0.0,0.0,0.0,0
34.182946,-118.129091,3.61,3.94,0.00,0.16,3.94,3.94,1.12,0.89,5003,2022-06-06 23:27:34.301,2022-06-06 16:27:34.301,15,0,0,16.215,34.182946,-118.129091,0.00,0.00,0.00,0.90,-1.30,-3.00,0,1,0,78,100,-7507,2634,16215,3151.50,10,Sport,1,0,0,0,55,0,0,1654558054300,4113,4113,4111,4101,0,0,27,,,,,,,0,0,0,-9.00,-13.00,-30.00,0.00,0.00,-155.00,31,11.00,0.00,0.50,0.00,0.00,0.00,0,,,100,100,0,1,0,0,0,1,6,,,,,0.0,0.0,0.0,0.0,0.0,0.0,0
34.182946,-118.129091,3.61,3.94,0.00,0.15,3.94,3.94,1.12,0.89,5054,2022-06-06 23:27:34.351,2022-06-06 16:27:34.351,15,0,0,16.215,34.182946,-118.129091,0.00,0.00,0.00,0.90,-1.50,-3.10,0,1,0,78,100,-7507,2634,16215,3151.50,10,Sport,1,0,0,0,55,0,0,1654558054351,4113,4113,4111,4101,0,0,27,,,,,,,0,0,0,-9.00,-15.00,-31.00,0.00,0.00,-155.00,31,11.00,0.00,0.47,0.00,0.00,0.00,0,,,100,100,0,1,0,0,0,1,6,,,,,0.0,0.0,0.0,0.0,0.0,0.0,0
34.182946,-118.129091,3.61,3.94,0.00,0.18,3.94,3.94,1.12,0.89,5154,2022-06-06 23:27:34.451,2022-06-06 16:27:34.451,15,0,0,16.215,34.182946,-118.129091,0.00,0.00,0.00,0.70,-1.40,-3.00,0,1,0,78,100,-7507,2634,16215,3151.50,10,Sport,1,0,0,0,55,0,0,1654558054451,4113,4113,4111,4101,0,0,27,,,,,,,0,0,0,-7.00,-14.00,-30.00,0.00,0.00,-155.00,31,11.00,0.00,0.54,0.00,0.00,0.00,0,,,100,100,0,1,0,0,0,1,6,,,,,0.0,0.0,0.0,0.0,0.0,0.0,0
34.182946,-118.129091,3.61,3.94,0.00,0.17,3.94,3.94,1.12,0.89,5304,2022-06-06 23:27:34.601,2022-06-06 16:27:34.602,15,0,0,16.215,34.182946,-118.129091,0.00,0.00,0.00,0.60,-1.50,-3.00,0,1,0,78,100,-7507,2634,16215,3151.50,10,Sport,1,0,0,0,55,0,0,1654558054601,4113,4113,4111,4101,0,0,27,,,,,,,0,0,0,-6.00,-15.00,-30.00,0.00,0.00,-155.00,31,11.00,0.00,0.51,0.00,0.00,0.00,0,,,100,100,0,1,0,0,0,1,6,,,,,0.0,0.0,0.0,0.0,0.0,0.0,0
34.182946,-118.129091,3.61,3.94,0.00,0.14,3.94,3.94,1.12,0.89,5403,2022-06-06 23:27:34.701,2022-06-06 16:27:34.701,15,0,0,16.215,34.182946,-118.129091,0.00,0.00,0.00,0.50,-1.50,-3.00,0,1,0,78,100,-7507,2634,16215,3151.50,10,Sport,1,0,0,0,55,0,0,1654558054700,4113,4113,4111,4101,0,0,27,,,,,,,0,0,0,-5.00,-15.00,-30.00,0.00,0.00,-155.00,31,11.00,0.00,0.42,0.00,0.00,0.00,0,,,100,100,0,1,0,0,0,1,6,,,,,0.0,0.0,0.0,0.0,0.0,0.0,0
34.182946,-118.129091,3.61,3.94,0.00,0.13,3.94,3.94,1.12,0.89,5504,2022-06-06 23:27:34.802,2022-06-06 16:27:34.802,15,0,0,16.215,34.182946,-118.129091,0.00,0.00,0.00,0.50,-1.40,-3.10,0,1,0,78,100,-7507,2634,16215,3151.50,10,Sport,1,0,0,0,57,0,0,1654558054801,4113,4113,4111,4101,0,0,27,,,,,,,0,0,0,-5.00,-14.00,-31.00,0.00,0.00,-155.00,31,11.00,0.00,0.40,0.00,0.00,0.00,0,,,100,100,0,1,0,0,0,1,6,,,,,0.0,0.0,0.0,0.0,0.0,0.0,0
34.182946,-118.129091,3.61,3.94,0.00,0.15,3.94,3.94,1.12,0.89,5603,2022-06-06 23:27:34.900,2022-06-06 16:27:34.900,15,0,0,16.215,34.182946,-118.129091,0.00,0.00,0.00,0.70,-1.40,-3.10,0,1,0,78,100,-7507,2634,16215,3151.50,10,Sport,1,0,0,0,102,0,0,1654558054900,4113,4113,4111,4101,0,0,27,,,,,,,0,0,0,-7.00,-14.00,-31.00,0.00,0.00,-155.00,31,11.00,0.00,0.46,0.00,0.00,0.00,0,,,100,100,0,1,0,0,0,1,6,,,,,0.0,0.0,0.0,0.0,0.0,0.0,0
34.182946,-118.129091,3.61,3.94,0.00,0.15,3.94,3.94,1.12,0.89,5703,2022-06-06 23:27:35.000,2022-06-06 16:27:35.000,15,0,0,16.215,34.182946,-118.129091,0.00,0.00,0.00,0.60,-1.40,-3.00,0,1,0,78,100,-7507,2634,16215,3151.50,10,Sport,1,0,0,0,119,0,0,1654558055000,4113,4113,4111,4101,0,0,27,,,,,,,0,0,0,-6.00,-14.00,-30.00,0.00,0.00,-155.00,31,11.00,0.00,0.45,0.00,0.00,0.00,0,,,100,100,0,1,0,0,0,1,6,,,,,0.0,0.0,0.0,0.0,0.0,0.0,0
34.182946,-118.129091,3.61,3.94,0.00,0.17,3.94,3.94,1.12,0.89,5804,2022-06-06 23:27:35.101,2022-06-06 16:27:35.101,15,0,0,16.215,34.182946,-118.129091,0.00,0.00,0.00,0.50,-1.80,-3.00,0,1,0,78,100,-7507,2634,16215,3151.50,10,Sport,1,0,0,0,125,0,0,1654558055101,4113,4113,4111,4101,0,0,27,,,,,,,0,0,0,-5.00,-18.00,-30.00,0.00,0.00,-155.00,31,11.00,0.00,0.52,0.00,0.00,0.00,0,,,100,100,0,1,0,0,0,1,6,,,,,0.0,0.0,0.0,0.0,0.0,0.0,0
34.182946,-118.129091,3.61,3.94,0.00,0.17,3.94,3.94,1.12,0.89,5903,2022-06-06 23:27:35.200,2022-06-06 16:27:35.200,15,0,0,16.215,34.182946,-118.129091,0.00,0.00,0.00,0.50,-1.80,-3.00,0,1,0,78,100,-7507,2634,16215,3151.50,10,Sport,1,0,0,0,149,0,0,1654558055200,4113,4113,4111,4101,0,0,27,,,,,,,0,0,0,-5.00,-18.00,-30.00,0.00,0.00,-155.00,31,11.00,0.00,0.53,0.00,0.00,0.00,0,,,100,100,0,1,0,0,0,1,6,,,,,0.0,0.0,0.0,0.0,0.0,0.0,0
34.182946,-118.129091,3.94,3.94,0.00,0.13,3.94,3.94,1.12,0.89,6003,2022-06-06 23:27:35.301,2022-06-06 16:27:35.301,15,0,0,16.215,34.182946,-118.129091,0.00,0.00,0.00,0.70,-1.70,-2.90,0,1,0,78,100,-7507,2634,16215,3151.50,10,Sport,1,0,0,0,169,0,0,1654558055300,4113,4113,4111,4101,0,0,27,,,,,,,0,0,0,-7.00,-17.00,-29.00,0.00,0.00,-155.00,31,12.00,0.00,0.39,0.00,0.00,0.00,0,,,100,100,0,1,0,0,0,1,6,,,,,0.0,0.0,0.0,0.0,0.0,0.0,0
34.182946,-118.129091,3.94,4.27,0.22,0.13,3.94,3.94,1.12,0.89,6054,2022-06-06 23:27:35.352,2022-06-06 16:27:35.352,15,0,0,16.215,34.182946,-118.129091,0.00,0.00,-0.22,0.60,-1.70,-2.90,0,1,0,78,100,-7507,2634,16215,3151.50,10,Sport,1,0,0,0,176,0,0,1654558055351,4113,4113,4111,4101,0,0,27,,,,,,,0,0,0,-6.00,-17.00,-29.00,0.00,0.00,-155.00,31,12.00,1.00,0.40,0.00,0.00,-1.00,0,,,100,100,0,1,0,0,0,1,6,,,,,0.0,0.0,0.0,0.0,0.0,0.0,0
34.182946,-118.129091,3.94,4.27,0.22,0.09,3.94,3.94,1.12,0.89,6154,2022-06-06 23:27:35.452,2022-06-06 16:27:35.452,15,0,0,16.194,34.182946,-118.129091,0.00,0.00,-0.22,0.60,-1.90,-2.80,0,1,0,77,100,-7490,2630,16194,3151.50,10,Sport,1,0,0,0,175,0,0,1654558055451,4113,4113,4111,4101,0,0,27,,,,,,,0,0,0,-6.00,-19.00,-28.00,0.00,0.00,-155.00,31,12.00,1.00,0.27,0.00,0.00,-1.00,0,,,100,100,0,1,0,0,0,1,6,,,,,0.0,0.0,0.0,0.0,0.0,0.0,0
34.182946,-118.129091,3.94,4.27,0.45,0.09,3.94,3.94,1.12,0.89,6303,2022-06-06 23:27:35.601,2022-06-06 16:27:35.601,15,0,0,16.194,34.182946,-118.129091,0.00,0.00,-0.45,0.80,-2.30,-2.80,0,1,0,77,100,-7490,2630,16194,3151.50,10,Sport,1,0,0,0,174,0,0,1654558055600,4113,4113,4111,4101,0,0,27,,,,,,,0,0,0,-8.00,-23.00,-28.00,0.00,0.00,-155.00,31,12.00,2.00,0.28,0.00,0.00,-2.00,0,,,100,100,0,1,0,0,0,1,6,,,,,0.0,0.0,0.0,0.0,0.0,0.0,0
34.182946,-118.129091,3.94,4.27,0.45,0.12,3.94,3.94,1.12,0.89,6404,2022-06-06 23:27:35.702,2022-06-06 16:27:35.702,15,0,0,16.194,34.182946,-118.129091,0.00,0.00,-0.45,1.10,-2.20,-2.80,0,1,0,77,100,-7490,2630,16194,3151.50,10,Sport,1,0,0,0,173,0,0,1654558055701,4113,4113,4111,4101,0,0,27,,,,,,,0,0,0,-11.00,-22.00,-28.00,0.00,0.00,-155.00,31,12.00,2.00,0.35,0.00,0.00,-2.00,0,,,100,100,0,1,0,0,0,1,6,,,,,0.0,0.0,0.0,0.0,0.0,0.0,0
34.182946,-118.129091,4.27,4.27,0.45,0.12,4.27,4.27,1.12,0.89,6504,2022-06-06 23:27:35.801,2022-06-06 16:27:35.801,15,0,0,16.194,34.182946,-118.129091,0.00,0.00,-0.45,1.40,-1.80,-2.90,0,1,0,77,100,-7490,2630,16194,3151.50,10,Sport,1,0,0,0,168,0,0,1654558055801,4113,4113,4111,4101,0,0,27,,,,,,,0,0,0,-14.00,-18.00,-29.00,0.00,0.00,-155.00,31,13.00,2.00,0.36,0.00,0.00,-2.00,0,,,100,100,0,1,0,0,0,1,6,,,,,0.0,0.0,0.0,0.0,0.0,0.0,0
34.182946,-118.129091,4.27,4.59,0.45,0.16,4.27,4.27,1.12,0.89,6604,2022-06-06 23:27:35.902,2022-06-06 16:27:35.902,15,0,0,16.194,34.182946,-118.129091,0.00,0.00,-0.45,1.30,-1.70,-3.00,0,1,0,77,100,-7490,2630,16194,3151.50,10,Sport,1,0,0,0,168,0,0,1654558055901,4113,4113,4111,4101,0,0,27,,,,,,,0,0,0,-13.00,-17.00,-30.00,0.00,0.00,-155.00,31,13.00,2.00,0.50,0.00,0.00,-2.00,0,,,100,100,0,1,0,0,0,1,6,,,,,0.0,0.0,0.0,0.0,0.0,0.0,0
34.182946,-118.129091,4.27,4.59,0.45,0.17,4.27,4.27,1.12,0.89,6705,2022-06-06 23:27:36.002,2022-06-06 16:27:36.002,15,0,0,16.194,34.182946,-118.129091,0.00,0.00,-0.45,1.10,-1.50,-3.00,0,1,0,77,100,-7490,2630,16194,3151.50,10,Sport,1,0,0,0,167,0,0,1654558056002,4113,4113,4111,4101,0,0,27,,,,,,,0,0,0,-11.00,-15.00,-30.00,0.00,0.00,-155.00,31,13.00,2.00,0.51,0.00,0.00,-2.00,0,,,100,100,0,1,0,0,0,1,6,,,,,0.0,0.0,0.0,0.0,0.0,0.0,0
34.182946,-118.129091,4.27,4.59,0.45,0.12,4.27,4.27,1.12,0.89,6803,2022-06-06 23:27:36.101,2022-06-06 16:27:36.101,15,0,0,16.194,34.182946,-118.129091,0.00,0.00,-0.45,1.00,-1.60,-3.00,0,1,0,77,100,-7490,2630,16194,3151.50,10,Sport,1,0,0,0,166,0,0,1654558056100,4113,4113,4111,4101,0,0,27,,,,,,,0,0,0,-10.00,-16.00,-30.00,0.00,0.00,-155.00,31,13.00,2.00,0.36,0.00,0.00,-2.00,0,,,100,100,0,1,0,0,0,1,6,,,,,0.0,0.0,0.0,0.0,0.0,0.0,0
34.182946,-118.129091,4.59,4.59,0.45,0.13,4.59,4.59,1.12,0.89,6903,2022-06-06 23:27:36.201,2022-06-06 16:27:36.201,16,0,0,16.194,34.182946,-118.129091,0.00,0.00,-0.45,0.70,-2.10,-2.90,0,1,0,77,100,-7490,2630,16194,3151.50,10,Sport,1,0,0,0,166,0,0,1654558056200,4113,4113,4111,4101,0,0,27,,,,,,,0,0,0,-7.00,-21.00,-29.00,0.00,0.00,-155.00,31,14.00,2.00,0.38,0.00,0.00,-2.00,0,,,100,100,0,1,0,0,0,1,6,,,,,0.0,0.0,0.0,0.0,0.0,0.0,0
34.182946,-118.129091,4.59,4.92,0.45,0.14,4.59,4.59,1.12,0.89,7004,2022-06-06 23:27:36.301,2022-06-06 16:27:36.301,16,0,0,16.194,34.182946,-118.129091,0.00,0.00,-0.45,0.30,-2.40,-2.80,0,1,0,77,100,-7490,2630,16194,3151.50,10,Sport,1,0,0,0,165,0,0,1654558056301,4113,4113,4111,4101,0,0,27,,,,,,,0,0,0,-3.00,-24.00,-28.00,0.00,0.00,-155.00,31,14.00,2.00,0.41,0.00,0.00,-2.00,0,,,100,100,0,1,0,0,0,1,6,,,,,0.0,0.0,0.0,0.0,0.0,0.0,0
34.182945,-118.129091,4.59,4.92,0.45,0.15,4.59,4.59,1.12,0.89,7104,2022-06-06 23:27:36.401,2022-06-06 16:27:36.401,16,0,0,16.194,34.182946,-118.129091,0.00,0.00,-0.45,0.10,-2.50,-2.70,0,1,0,77,100,-7490,2630,16194,3151.50,10,Sport,1,0,0,0,164,0,0,1654558056401,4113,4113,4111,4101,0,0,27,,,,,,,0,0,0,-1.00,-25.00,-27.00,0.00,0.00,-155.00,31,14.00,2.00,0.45,0.00,0.00,-2.00,0,,,100,100,0,1,0,0,0,1,6,,,,,0.0,0.0,0.0,0.0,0.0,0.0,0
34.182945,-118.129091,4.59,4.92,0.45,0.19,4.59,4.59,1.12,0.89,7204,2022-06-06 23:27:36.502,2022-06-06 16:27:36.502,16,0,0,16.194,34.182946,-118.129091,0.00,0.00,-0.45,0.00,-2.60,-2.70,0,1,0,77,100,-7490,2630,16194,3151.50,10,Sport,1,0,0,0,157,0,0,1654558056501,4113,4113,4111,4101,0,0,27,,,,,,,0,0,0,-0.00,-26.00,-27.00,0.00,0.00,-155.00,31,14.00,2.00,0.59,0.00,0.00,-2.00,0,,,100,100,0,1,0,0,0,1,6,,,,,0.0,0.0,0.0,0.0,0.0,0.0,0
34.182945,-118.129091,4.59,4.92,0.45,0.21,4.59,4.59,1.12,0.89,7305,2022-06-06 23:27:36.602,2022-06-06 16:27:36.603,16,0,0,16.194,34.182946,-118.129091,0.00,0.00,-0.45,-0.20,-2.50,-2.70,0,1,0,77,100,-7490,2630,16194,3151.50,10,Sport,1,0,0,0,157,0,0,1654558056602,4113,4113,4111,4101,0,0,27,,,,,,,0,0,0,2.00,-25.00,-27.00,0.00,0.00,-155.00,31,14.00,2.00,0.63,0.00,0.00,-2.00,0,,,100,100,0,1,0,0,0,1,6,,,,,0.0,0.0,0.0,0.0,0.0,0.0,0
34.182945,-118.129090,4.92,5.25,0.45,0.23,4.92,4.92,1.12,0.89,7355,2022-06-06 23:27:36.652,2022-06-06 16:27:36.652,16,0,0,16.194,34.182946,-118.129091,0.00,0.00,-0.45,0.00,-2.40,-2.70,0,1,0,77,100,-7490,2630,16194,3151.50,10,Sport,1,0,0,0,156,0,0,1654558056652,4113,4113,4111,4101,0,0,27,,,,,,,0,0,0,-0.00,-24.00,-27.00,0.00,0.00,-155.00,31,15.00,2.00,0.69,0.00,0.00,-2.00,0,,,100,100,0,1,0,0,0,1,6,,,,,0.0,0.0,0.0,0.0,0.0,0.0,0
34.182945,-118.129090,4.92,5.25,0.22,0.24,4.92,4.92,1.12,0.89,7504,2022-06-06 23:27:36.802,2022-06-06 16:27:36.802,16,0,0,16.194,34.182946,-118.129091,0.00,0.00,-0.22,0.10,-2.10,-2.70,0,1,0,77,100,-7490,2630,16194,3151.50,10,Sport,1,0,0,0,157,0,0,1654558056801,4113,4113,4111,4101,0,0,27,,,,,,,0,0,0,-1.00,-21.00,-27.00,0.00,0.00,-155.00,31,15.00,1.00,0.73,0.00,0.00,-1.00,0,,,100,100,0,1,0,0,0,1,6,,,,,0.0,0.0,0.0,0.0,0.0,0.0,0
34.182945,-118.129090,4.92,5.25,0.22,0.27,4.92,4.92,1.12,0.89,7606,2022-06-06 23:27:36.903,2022-06-06 16:27:36.903,16,0,0,16.194,34.182946,-118.129091,0.00,0.00,-0.22,0.10,-2.10,-2.90,0,1,0,77,100,-7490,2630,16194,3151.50,10,Sport,1,0,0,0,156,0,0,1654558056903,4113,4113,4111,4101,0,0,27,,,,,,,0,0,0,-1.00,-21.00,-29.00,0.00,0.00,-155.00,31,15.00,1.00,0.84,0.00,0.00,-1.00,0,,,100,100,0,1,0,0,0,1,6,,,,,0.0,0.0,0.0,0.0,0.0,0.0,0
34.182945,-118.129090,4.92,5.25,0.22,0.30,4.92,4.92,1.12,0.89,7705,2022-06-06 23:27:37.003,2022-06-06 16:27:37.003,16,0,0,16.194,34.182946,-118.129091,0.00,0.00,-0.22,-0.10,-2.10,-2.90,0,1,0,77,100,-7490,2630,16194,3151.50,10,Sport,1,0,0,0,143,0,0,1654558057002,4113,4113,4111,4101,0,0,27,,,,,,,0,0,0,1.00,-21.00,-29.00,0.00,0.00,-155.00,31,15.00,1.00,0.90,0.00,0.00,-1.00,0,,,100,100,0,1,0,0,0,1,6,,,,,0.0,0.0,0.0,0.0,0.0,0.0,0
34.182945,-118.129090,4.92,5.25,0.22,0.36,4.92,4.92,1.12,0.89,7806,2022-06-06 23:27:37.104,2022-06-06 16:27:37.104,16,0,0,16.194,34.182946,-118.129091,0.00,0.00,-0.22,-0.10,-2.30,-2.90,0,1,0,77,100,-7490,2630,16194,3151.50,10,Sport,1,0,0,0,137,0,0,1654558057103,4113,4113,4111,4101,0,0,27,,,,,,,0,0,0,1.00,-23.00,-29.00,0.00,0.00,-155.00,31,15.00,1.00,1.09,0.00,0.00,-1.00,0,,,100,100,0,1,0,0,0,1,6,,,,,0.0,0.0,0.0,0.0,0.0,0.0,0
34.182945,-118.129090,5.25,5.25,0.22,0.39,5.25,5.25,1.12,0.89,7863,2022-06-06 23:27:37.161,2022-06-06 16:27:37.161,16,0,0,16.194,34.182946,-118.129091,0.00,0.00,-0.22,-0.20,-2.40,-3.00,0,1,0,77,100,-7490,2630,16194,3151.50,10,Sport,1,0,0,0,127,0,0,1654558057160,4113,4113,4111,4101,0,0,27,,,,,,,0,0,0,2.00,-24.00,-30.00,0.00,0.00,-155.00,31,16.00,1.00,1.17,0.00,0.00,-1.00,0,,,100,100,0,1,0,0,0,1,6,,,,,0.0,0.0,0.0,0.0,0.0,0.0,0
34.182945,-118.129090,5.25,5.58,0.22,0.37,5.25,5.25,1.12,0.89,7956,2022-06-06 23:27:37.254,2022-06-06 16:27:37.254,16,0,0,16.194,34.182946,-118.129091,0.00,0.00,-0.22,0.00,-2.80,-3.10,0,1,0,77,100,-7490,2630,16194,3151.50,10,Sport,1,0,0,0,36,0,0,1654558057253,4113,4113,4111,4101,0,0,27,,,,,,,0,0,0,-0.00,-28.00,-31.00,0.00,0.00,-155.00,31,16.00,1.00,1.14,0.00,0.00,-1.00,0,,,100,100,0,1,0,0,0,1,6,,,,,0.0,0.0,0.0,0.0,0.0,0.0,0
34.182945,-118.129090,5.25,5.58,0.22,0.40,5.25,5.25,1.12,0.89,8056,2022-06-06 23:27:37.354,2022-06-06 16:27:37.354,16,0,0,16.194,34.182946,-118.129091,0.00,0.00,-0.22,0.00,-2.80,-3.00,0,1,0,77,100,-7490,2630,16194,3151.50,10,Sport,1,0,0,0,0,0,0,1654558057353,4113,4113,4111,4101,0,0,27,,,,,,,0,0,0,-0.00,-28.00,-30.00,0.00,0.00,-155.00,31,16.00,1.00,1.21,0.00,0.00,-1.00,0,,,100,100,0,1,0,0,0,1,6,,,,,0.0,0.0,0.0,0.0,0.0,0.0,0
34.182945,-118.129090,5.25,5.58,0.00,0.39,5.25,5.25,1.12,0.89,8156,2022-06-06 23:27:37.453,2022-06-06 16:27:37.453,16,0,0,16.168,34.182946,-118.129091,0.00,0.00,0.00,-0.10,-2.60,-2.90,0,1,0,77,100,-7651,2626,16168,3151.50,10,Sport,1,0,0,0,0,0,0,1654558057453,4113,4113,4111,4101,0,0,27,,,,,,,0,0,0,1.00,-26.00,-29.00,0.00,0.00,-155.00,31,16.00,0.00,1.20,0.00,0.00,0.00,0,,,100,100,0,1,0,0,0,1,6,,,,,0.0,0.0,0.0,0.0,0.0,0.0,0
34.182945,-118.129090,5.25,5.58,0.00,0.41,5.25,5.25,1.12,0.89,8257,2022-06-06 23:27:37.554,2022-06-06 16:27:37.554,16,0,0,16.168,34.182946,-118.129091,0.00,0.00,0.00,-0.50,-2.80,-2.80,0,1,0,77,100,-7651,2626,16168,3151.50,10,Sport,1,0,0,0,0,0,0,1654558057554,4113,4113,4111,4101,0,0,27,,,,,,,0,0,0,5.00,-28.00,-28.00,0.00,0.00,-155.00,31,16.00,0.00,1.26,0.00,0.00,0.00,0,,,100,100,0,1,0,0,0,1,6,,,,,0.0,0.0,0.0,0.0,0.0,0.0,0
34.182945,-118.129090,5.25,5.58,0.00,0.39,5.25,5.25,1.12,0.89,8358,2022-06-06 23:27:37.656,2022-06-06 16:27:37.656,16,0,0,16.168,34.182946,-118.129091,0.00,0.00,0.00,-0.40,-2.70,-2.90,0,1,0,77,100,-7651,2626,16168,3151.50,10,Sport,1,0,0,0,0,0,0,1654558057655,4113,4113,4111,4101,0,0,27,,,,,,,0,0,0,4.00,-27.00,-29.00,0.00,0.00,-155.00,31,16.00,0.00,1.20,0.00,0.00,0.00,0,,,100,100,0,1,0,0,0,1,6,,,,,0.0,0.0,0.0,0.0,0.0,0.0,0
34.182945,-118.129090,5.25,5.58,0.00,0.40,5.25,5.25,1.12,0.89,8506,2022-06-06 23:27:37.804,2022-06-06 16:27:37.804,16,0,0,16.168,34.182946,-118.129091,0.00,0.00,0.00,-0.30,-2.60,-2.90,0,1,0,77,100,-7651,2626,16168,3151.50,10,Sport,1,0,0,0,0,0,0,1654558057803,4113,4113,4111,4101,0,0,27,,,,,,,0,0,0,3.00,-26.00,-29.00,0.00,0.00,-155.00,31,16.00,0.00,1.23,0.00,0.00,0.00,0,,,100,100,0,1,0,0,0,1,6,,,,,0.0,0.0,0.0,0.0,0.0,0.0,0
34.182945,-118.129090,5.25,5.58,0.00,0.43,5.25,5.25,1.12,0.89,8608,2022-06-06 23:27:37.906,2022-06-06 16:27:37.906,16,0,0,16.168,34.182946,-118.129091,0.00,0.00,0.00,-0.10,-2.60,-2.80,0,1,0,77,100,-7651,2626,16168,3151.50,10,Sport,1,0,0,0,0,0,0,1654558057905,4113,4113,4111,4101,0,0,27,,,,,,,0,0,0,1.00,-26.00,-28.00,0.00,0.00,-155.00,31,16.00,0.00,1.32,0.00,0.00,0.00,0,,,100,100,0,1,0,0,0,1,6,,,,,0.0,0.0,0.0,0.0,0.0,0.0,0
34.182945,-118.129090,5.25,5.58,0.00,0.45,5.25,5.25,1.12,0.89,8710,2022-06-06 23:27:38.008,2022-06-06 16:27:38.008,16,0,0,16.168,34.182946,-118.129091,0.00,0.00,0.00,-0.10,-2.90,-2.80,0,1,0,77,100,-7651,2626,16168,3151.50,10,Sport,1,0,0,0,0,0,0,1654558058007,4113,4113,4111,4101,0,0,27,,,,,,,0,0,0,1.00,-29.00,-28.00,0.00,0.00,-155.00,31,16.00,0.00,1.36,0.00,0.00,0.00,0,,,100,100,0,1,0,0,0,1,6,,,,,0.0,0.0,0.0,0.0,0.0,0.0,0
34.182945,-118.129090,5.25,5.58,0.00,0.41,5.25,5.25,1.12,0.89,8812,2022-06-06 23:27:38.110,2022-06-06 16:27:38.110,16,0,0,16.168,34.182946,-118.129091,0.00,0.00,0.00,0.60,-3.10,-2.90,0,1,0,77,100,-7651,2626,16168,3151.50,10,Sport,1,0,0,0,0,0,0,1654558058109,4113,4113,4111,4101,0,0,27,,,,,,,0,0,0,-6.00,-31.00,-29.00,0.00,0.00,-155.00,31,16.00,0.00,1.25,0.00,0.00,0.00,0,,,100,100,0,1,0,0,0,1,6,,,,,0.0,0.0,0.0,0.0,0.0,0.0,0
34.182945,-118.129090,5.25,5.58,0.00,0.42,5.25,5.25,1.12,0.89,8908,2022-06-06 23:27:38.206,2022-06-06 16:27:38.206,16,0,0,16.168,34.182946,-118.129091,0.00,0.00,0.00,1.00,-3.30,-3.00,0,1,0,77,100,-7651,2626,16168,3151.50,10,Sport,1,0,0,0,37,0,0,1654558058205,4113,4113,4111,4101,0,0,27,,,,,,,0,0,0,-10.00,-33.00,-30.00,0.00,0.00,-155.00,31,16.00,0.00,1.28,0.00,0.00,0.00,0,,,100,100,0,1,0,0,0,1,6,,,,,0.0,0.0,0.0,0.0,0.0,0.0,0
34.182945,-118.129090,5.25,5.58,0.00,0.44,5.25,5.25,1.12,0.89,9007,2022-06-06 23:27:38.304,2022-06-06 16:27:38.304,16,0,0,16.168,34.182946,-118.129091,0.00,0.00,0.00,1.30,-3.60,-3.00,0,1,0,77,100,-7651,2626,16168,3151.50,10,Sport,1,0,0,0,107,0,0,1654558058304,4113,4113,4111,4101,0,0,27,,,,,,,0,0,0,-13.00,-36.00,-30.00,0.00,0.00,-155.00,31,16.00,0.00,1.35,0.00,0.00,0.00,0,,,100,100,0,1,0,0,0,1,6,,,,,0.0,0.0,0.0,0.0,0.0,0.0,0
34.182945,-118.129090,5.25,5.58,0.00,0.46,5.25,5.25,1.12,0.89,9106,2022-06-06 23:27:38.403,2022-06-06 16:27:38.403,16,0,0,16.168,34.182946,-118.129091,0.00,0.00,0.00,1.30,-3.30,-3.00,0,1,0,77,100,-7651,2626,16168,3151.50,10,Sport,1,0,0,0,134,0,0,1654558058403,4113,4113,4111,4101,0,0,27,,,,,,,0,0,0,-13.00,-33.00,-30.00,0.00,0.00,-155.00,31,16.00,0.00,1.40,0.00,0.00,0.00,0,,,100,100,0,1,0,0,0,1,6,,,,,0.0,0.0,0.0,0.0,0.0,0.0,0
34.182945,-118.129090,5.25,5.58,0.00,0.46,5.25,5.25,1.12,0.89,9205,2022-06-06 23:27:38.503,2022-06-06 16:27:38.503,16,0,0,16.168,34.182946,-118.129091,0.00,0.00,0.00,1.20,-3.60,-3.00,0,1,0,77,100,-7651,2626,16168,3151.50,10,Sport,1,0,0,0,165,0,0,1654558058502,4046,4043,4038,4032,0,0,27,,,,,,,0,0,0,-12.00,-36.00,-30.00,0.00,0.00,-155.00,31,16.00,0.00,1.40,0.00,0.00,0.00,0,,,100,100,0,1,0,0,0,1,6,,,,,0.0,0.0,0.0,0.0,0.0,0.0,0
34.182945,-118.129090,5.25,5.58,0.22,0.47,5.25,5.25,1.12,0.89,9306,2022-06-06 23:27:38.604,2022-06-06 16:27:38.604,16,0,0,16.168,34.182946,-118.129091,0.00,0.00,-0.22,1.40,-3.50,-3.00,0,1,0,77,100,-7651,2626,16168,3151.50,10,Sport,1,0,0,0,174,0,0,1654558058603,4046,4043,4038,4032,0,0,27,,,,,,,0,0,0,-14.00,-35.00,-30.00,0.00,0.00,-155.00,31,16.00,1.00,1.44,0.00,0.00,-1.00,0,,,100,100,0,1,0,0,0,1,6,,,,,0.0,0.0,0.0,0.0,0.0,0.0,0
34.182945,-118.129090,5.25,5.58,0.22,0.51,5.25,5.25,1.12,0.89,9407,2022-06-06 23:27:38.704,2022-06-06 16:27:38.704,16,0,0,16.168,34.182946,-118.129091,0.00,0.00,-0.22,1.10,-3.30,-2.90,0,1,0,77,100,-7651,2626,16168,3151.50,10,Sport,1,0,0,0,174,0,0,1654558058704,4046,4043,4038,4032,0,0,27,,,,,,,0,0,0,-11.00,-33.00,-29.00,0.00,0.00,-155.00,31,16.00,1.00,1.56,0.00,0.00,-1.00,0,,,100,100,0,1,0,0,0,1,6,,,,,0.0,0.0,0.0,0.0,0.0,0.0,0
34.182945,-118.129089,5.25,5.58,0.45,0.52,5.25,5.25,1.12,0.89,9507,2022-06-06 23:27:38.804,2022-06-06 16:27:38.804,16,0,0,16.168,34.182946,-118.129091,0.00,0.00,-0.45,1.10,-3.30,-2.80,0,1,0,77,100,-7651,2626,16168,3151.50,10,Sport,1,0,0,0,170,0,0,1654558058804,4046,4043,4038,4032,0,0,27,,,,,,,0,0,0,-11.00,-33.00,-28.00,0.00,0.00,-155.00,31,16.00,2.00,1.59,0.00,0.00,-2.00,0,,,100,100,0,1,0,0,0,1,6,,,,,0.0,0.0,0.0,0.0,0.0,0.0,0
34.182945,-118.129090,5.25,5.58,0.45,0.52,5.25,5.25,1.12,0.89,9556,2022-06-06 23:27:38.853,2022-06-06 16:27:38.853,16,0,0,16.168,34.182946,-118.129091,0.00,0.00,-0.45,1.20,-3.30,-2.80,0,1,0,77,100,-7651,2626,16168,3151.50,10,Sport,1,0,0,0,167,0,0,1654558058853,4046,4043,4038,4032,0,0,27,,,,,,,0,0,0,-12.00,-33.00,-28.00,0.00,0.00,-155.00,31,16.00,2.00,1.57,0.00,0.00,-2.00,0,,,100,100,0,1,0,0,0,1,6,,,,,0.0,0.0,0.0,0.0,0.0,0.0,0
34.182945,-118.129089,5.58,5.58,0.45,0.53,5.58,5.58,1.12,0.89,9657,2022-06-06 23:27:38.954,2022-06-06 16:27:38.954,16,0,0,16.168,34.182946,-118.129091,0.00,0.00,-0.45,1.80,-3.30,-2.80,0,1,0,77,100,-7651,2626,16168,3151.50,10,Sport,1,0,0,0,164,0,0,1654558058954,4046,4043,4038,4032,0,0,27,,,,,,,0,0,0,-18.00,-33.00,-28.00,0.00,0.00,-155.00,31,17.00,2.00,1.61,0.00,0.00,-2.00,0,,,100,100,0,1,0,0,0,1,6,,,,,0.0,0.0,0.0,0.0,0.0,0.0,0
34.182945,-118.129089,5.58,5.91,0.45,0.55,5.58,5.58,1.12,0.89,9758,2022-06-06 23:27:39.055,2022-06-06 16:27:39.055,16,0,0,16.168,34.182946,-118.129091,0.00,0.00,-0.45,2.20,-3.60,-2.90,0,1,0,77,100,-7651,2626,16168,3151.50,10,Sport,1,0,0,0,156,0,0,1654558059055,4046,4043,4038,4032,0,0,27,,,,,,,0,0,0,-22.00,-36.00,-29.00,0.00,0.00,-155.00,31,17.00,2.00,1.67,0.00,0.00,-2.00,0,,,100,100,0,1,0,0,0,1,6,,,,,0.0,0.0,0.0,0.0,0.0,0.0,0
34.182945,-118.129089,5.58,5.91,0.45,0.56,5.58,5.58,1.12,0.89,9908,2022-06-06 23:27:39.206,2022-06-06 16:27:39.206,16,0,0,16.168,34.182946,-118.129091,0.00,0.00,-0.45,2.50,-3.60,-2.90,0,1,0,77,100,-7651,2626,16168,3151.50,10,Sport,1,0,0,0,148,0,0,1654558059205,4046,4043,4038,4032,0,0,27,,,,,,,0,0,0,-25.00,-36.00,-29.00,0.00,0.00,-155.00,31,17.00,2.00,1.71,0.00,0.00,-2.00,0,,,100,100,0,1,0,0,0,1,6,,,,,0.0,0.0,0.0,0.0,0.0,0.0,0
34.182945,-118.129089,5.58,5.91,0.22,0.54,5.58,5.58,1.12,0.89,9958,2022-06-06 23:27:39.256,2022-06-06 16:27:39.256,16,0,0,16.168,34.182946,-118.129091,0.00,0.00,-0.22,2.50,-3.70,-3.00,0,1,0,77,100,-7651,2626,16168,3151.50,10,Sport,1,0,0,0,145,0,0,1654558059255,4046,4043,4038,4032,0,0,27,,,,,,,0,0,0,-25.00,-37.00,-30.00,0.00,0.00,-155.00,31,17.00,1.00,1.64,0.00,0.00,-1.00,0,,,100,100,0,1,0,0,0,1,6,,,,,0.0,0.0,0.0,0.0,0.0,0.0,0
34.182945,-118.129089,5.58,5.91,0.22,0.55,5.58,5.58,1.12,0.89,10058,2022-06-06 23:27:39.355,2022-06-06 16:27:39.356,15,0,0,16.168,34.182946,-118.129091,0.00,0.00,-0.22,2.40,-3.70,-3.00,0,1,0,77,100,-7651,2626,16168,3151.50,10,Sport,1,0,0,0,150,0,0,1654558059355,4046,4043,4038,4032,0,0,27,,,,,,,0,0,0,-24.00,-37.00,-30.00,0.00,0.00,-155.00,31,17.00,1.00,1.66,0.00,0.00,-1.00,0,,,100,100,0,1,0,0,0,1,6,,,,,0.0,0.0,0.0,0.0,0.0,0.0,0
34.182945,-118.129089,5.91,5.91,0.22,0.61,5.91,5.91,1.12,0.89,10157,2022-06-06 23:27:39.454,2022-06-06 16:27:39.454,15,0,0,16.168,34.182946,-118.129091,0.00,0.00,-0.22,2.10,-3.70,-2.80,0,1,0,77,100,-7651,2626,16168,3151.50,10,Sport,1,0,0,0,161,0,0,1654558059454,4046,4043,4038,4032,0,0,27,,,,,,,0,0,0,-21.00,-37.00,-28.00,0.00,0.00,-155.00,31,18.00,1.00,1.87,0.00,0.00,-1.00,0,,,100,100,0,1,0,0,0,1,6,,,,,0.0,0.0,0.0,0.0,0.0,0.0,0
34.182945,-118.129089,5.91,6.23,0.22,0.62,5.91,5.91,1.12,0.89,10308,2022-06-06 23:27:39.606,2022-06-06 16:27:39.606,16,0,0,16.148,34.182946,-118.129091,0.00,0.00,-0.22,1.90,-3.50,-2.90,0,1,0,77,100,-7853,2622,16148,3151.50,10,Sport,1,0,0,0,165,0,0,1654558059605,4046,4043,4038,4032,0,0,27,,,,,,,0,0,0,-19.00,-35.00,-29.00,0.00,0.00,-155.00,31,18.00,1.00,1.89,0.00,0.00,-1.00,0,,,100,100,0,1,0,0,0,1,6,,,,,0.0,0.0,0.0,0.0,0.0,0.0,0
34.182945,-118.129089,5.91,6.23,0.22,0.68,5.91,5.91,1.12,0.89,10357,2022-06-06 23:27:39.655,2022-06-06 16:27:39.655,16,0,0,16.148,34.182946,-118.129091,0.00,0.00,-0.22,2.20,-3.20,-2.80,0,1,0,77,100,-7853,2622,16148,3151.50,10,Sport,1,0,0,0,171,0,0,1654558059654,4046,4043,4038,4032,0,0,27,,,,,,,0,0,0,-22.00,-32.00,-28.00,0.00,0.00,-155.00,31,18.00,1.00,2.07,0.00,0.00,-1.00,0,,,100,100,0,1,0,0,0,1,6,,,,,0.0,0.0,0.0,0.0,0.0,0.0,0
34.182945,-118.129089,5.91,6.23,0.45,0.69,5.91,5.91,1.12,0.89,10459,2022-06-06 23:27:39.756,2022-06-06 16:27:39.756,16,0,0,16.148,34.182946,-118.129091,0.00,0.00,-0.45,2.50,-3.30,-2.80,0,1,0,77,100,-7853,2622,16148,3151.50,10,Sport,1,0,0,0,177,0,0,1654558059756,4046,4043,4038,4032,0,0,27,,,,,,,0,0,0,-25.00,-33.00,-28.00,0.00,0.00,-155.00,31,18.00,2.00,2.11,0.00,0.00,-2.00,0,,,100,100,0,1,0,0,0,1,6,,,,,0.0,0.0,0.0,0.0,0.0,0.0,0
34.182945,-118.129089,5.91,6.23,0.45,0.70,5.91,5.91,1.12,0.89,10559,2022-06-06 23:27:39.856,2022-06-06 16:27:39.856,16,0,0,16.148,34.182946,-118.129091,0.00,0.00,-0.45,2.50,-2.90,-3.00,0,1,0,77,100,-7853,2622,16148,3151.50,10,Sport,1,0,0,0,190,0,0,1654558059856,4046,4043,4038,4032,0,0,27,,,,,,,0,0,0,-25.00,-29.00,-30.00,0.00,0.00,-155.00,31,18.00,2.00,2.12,0.00,0.00,-2.00,0,,,100,100,0,1,0,0,0,1,6,,,,,0.0,0.0,0.0,0.0,0.0,0.0,0
34.182945,-118.129089,5.91,6.23,0.45,0.71,5.91,5.91,1.12,0.89,10658,2022-06-06 23:27:39.956,2022-06-06 16:27:39.956,16,0,0,16.148,34.182946,-118.129091,0.00,0.00,-0.45,2.40,-3.10,-3.20,0,1,0,77,100,-7853,2622,16148,3151.50,10,Sport,1,0,0,0,205,0,0,1654558059955,4046,4043,4038,4032,0,0,27,,,,,,,0,0,0,-24.00,-31.00,-32.00,0.00,0.00,-155.00,31,18.00,2.00,2.17,0.00,0.00,-2.00,0,,,100,100,0,1,0,0,0,1,6,,,,,0.0,0.0,0.0,0.0,0.0,0.0,0
34.182945,-118.129089,6.23,6.23,0.45,0.74,6.23,6.23,1.12,0.89,10759,2022-06-06 23:27:40.056,2022-06-06 16:27:40.057,16,0,0,16.148,34.182946,-118.129091,0.00,0.00,-0.45,1.90,-3.40,-3.10,0,1,0,77,100,-7853,2622,16148,3151.50,10,Sport,1,0,0,0,204,0,0,1654558060056,4046,4043,4038,4032,0,0,27,,,,,,,0,0,0,-19.00,-34.00,-31.00,0.00,0.00,-155.00,31,19.00,2.00,2.25,0.00,0.00,-2.00,0,,,100,100,0,1,0,0,0,1,6,,,,,0.0,0.0,0.0,0.0,0.0,0.0,0
34.182945,-118.129089,6.23,6.56,0.67,0.76,6.23,6.23,1.12,0.89,10868,2022-06-06 23:27:40.165,2022-06-06 16:27:40.165,16,0,0,16.148,34.182946,-118.129091,0.00,0.00,-0.67,1.00,-3.60,-3.00,0,1,0,77,100,-7853,2622,16148,3151.50,10,Sport,1,0,0,0,200,0,0,1654558060165,4046,4043,4038,4032,0,0,27,,,,,,,0,0,0,-10.00,-36.00,-30.00,0.00,0.00,-155.00,31,19.00,3.00,2.31,0.00,0.00,-3.00,0,,,100,100,0,1,0,0,0,1,6,,,,,0.0,0.0,0.0,0.0,0.0,0.0,0
34.182945,-118.129089,6.23,6.56,0.67,0.74,6.23,6.23,1.12,0.89,10957,2022-06-06 23:27:40.254,2022-06-06 16:27:40.254,16,0,0,16.148,34.182946,-118.129091,0.00,0.00,-0.67,0.70,-3.50,-3.10,0,1,0,77,100,-7853,2622,16148,3151.50,10,Sport,1,0,0,0,184,0,0,1654558060254,4046,4043,4038,4032,0,0,27,,,,,,,0,0,0,-7.00,-35.00,-31.00,0.00,0.00,-155.00,31,19.00,3.00,2.24,0.00,0.00,-3.00,0,,,100,100,0,1,0,0,0,1,6,,,,,0.0,0.0,0.0,0.0,0.0,0.0,0
34.182945,-118.129089,6.56,6.56,0.67,0.75,6.56,6.56,1.12,0.89,11058,2022-06-06 23:27:40.355,2022-06-06 16:27:40.355,16,0,0,16.148,34.182946,-118.129091,0.00,0.00,-0.67,0.70,-3.30,-3.10,0,1,0,77,100,-7853,2622,16148,3151.50,10,Sport,1,0,0,0,164,0,0,1654558060355,4046,4043,4038,4032,0,0,27,,,,,,,0,0,0,-7.00,-33.00,-31.00,0.00,0.00,-155.00,31,20.00,3.00,2.28,0.00,0.00,-3.00,0,,,100,100,0,1,0,0,0,1,6,,,,,0.0,0.0,0.0,0.0,0.0,0.0,0
34.182945,-118.129089,6.56,6.89,0.67,0.68,6.56,6.56,1.12,0.89,11159,2022-06-06 23:27:40.456,2022-06-06 16:27:40.456,16,0,0,16.148,34.182946,-118.129091,0.00,0.00,-0.67,0.90,-3.30,-3.10,0,1,0,77,100,-7853,2622,16148,3151.50,10,Sport,1,0,0,0,76,0,0,1654558060456,4046,4043,4038,4032,0,0,27,,,,,,,0,0,0,-9.00,-33.00,-31.00,0.00,0.00,-155.00,31,20.00,3.00,2.08,0.00,0.00,-3.00,0,,,100,100,0,1,0,0,0,1,6,,,,,0.0,0.0,0.0,0.0,0.0,0.0,0
34.182945,-118.129089,6.56,6.89,0.45,0.69,6.56,6.56,1.12,0.89,11259,2022-06-06 23:27:40.556,2022-06-06 16:27:40.556,16,0,0,16.148,34.182946,-118.129091,0.00,0.00,-0.45,0.80,-3.40,-3.00,0,1,0,77,100,-7853,2622,16148,3151.50,10,Sport,1,0,0,0,0,0,0,1654558060556,4046,4043,4038,4032,0,0,27,,,,,,,0,0,0,-8.00,-34.00,-30.00,0.00,0.00,-155.00,31,20.00,2.00,2.11,0.00,0.00,-2.00,0,,,100,100,0,1,0,0,0,1,6,,,,,0.0,0.0,0.0,0.0,0.0,0.0,0
34.182945,-118.129089,6.56,6.89,0.00,0.70,6.56,6.56,1.12,0.89,11408,2022-06-06 23:27:40.705,2022-06-06 16:27:40.705,16,0,0,16.148,34.182946,-118.129091,0.00,0.00,0.00,0.60,-3.90,-3.00,0,1,0,77,100,-7853,2622,16148,3151.50,10,Sport,1,0,0,0,0,0,0,1654558060705,4046,4043,4038,4032,0,0,27,,,,,,,0,0,0,-6.00,-39.00,-30.00,0.00,0.00,-155.00,31,20.00,0.00,2.12,0.00,0.00,0.00,0,,,100,100,0,1,0,0,0,1,6,,,,,0.0,0.0,0.0,0.0,0.0,0.0,0
34.182945,-118.129089,6.56,6.89,0.00,0.71,6.56,6.56,1.12,0.89,11508,2022-06-06 23:27:40.806,2022-06-06 16:27:40.806,16,0,0,16.148,34.182946,-118.129091,0.00,0.00,0.00,0.40,-3.80,-2.90,0,1,0,77,100,-7853,2622,16148,3151.50,10,Sport,1,0,0,0,0,0,0,1654558060805,4046,4043,4038,4032,0,0,27,,,,,,,0,0,0,-4.00,-38.00,-29.00,0.00,0.00,-155.00,31,20.00,0.00,2.17,0.00,0.00,0.00,0,,,100,100,0,1,0,0,0,1,6,,,,,0.0,0.0,0.0,0.0,0.0,0.0,0
34.182945,-118.129089,6.56,6.89,0.00,0.69,6.56,6.56,1.12,0.89,11609,2022-06-06 23:27:40.907,2022-06-06 16:27:40.907,16,0,0,16.148,34.182946,-118.129091,0.00,0.00,0.00,0.20,-3.70,-2.90,0,1,0,77,100,-7853,2622,16148,3151.50,10,Sport,1,0,0,0,0,0,0,1654558060906,4046,4043,4038,4032,0,0,27,,,,,,,0,0,0,-2.00,-37.00,-29.00,0.00,0.00,-155.00,31,20.00,0.00,2.09,0.00,0.00,0.00,0,,,100,100,0,1,0,0,0,1,6,,,,,0.0,0.0,0.0,0.0,0.0,0.0,0
34.182945,-118.129089,6.56,6.89,0.00,0.69,6.56,6.56,1.12,0.89,11709,2022-06-06 23:27:41.006,2022-06-06 16:27:41.006,16,0,0,16.148,34.182946,-118.129091,0.00,0.00,0.00,0.20,-3.50,-2.90,0,1,0,77,100,-7853,2622,16148,3151.50,10,Sport,1,0,0,0,0,0,0,1654558061006,4046,4043,4038,4032,0,0,27,,,,,,,0,0,0,-2.00,-35.00,-29.00,0.00,0.00,-155.00,31,20.00,0.00,2.11,0.00,0.00,0.00,0,,,100,100,0,1,0,0,0,1,6,,,,,0.0,0.0,0.0,0.0,0.0,0.0,0
34.182945,-118.129089,6.56,6.89,0.00,0.69,6.56,6.56,1.12,0.89,11809,2022-06-06 23:27:41.106,2022-06-06 16:27:41.106,16,0,0,16.148,34.182946,-118.129091,0.00,0.00,0.00,0.30,-3.40,-2.80,0,1,0,77,100,-7853,2622,16148,3151.50,10,Sport,1,0,0,0,0,0,0,1654558061106,4046,4043,4038,4032,0,0,27,,,,,,,0,0,0,-3.00,-34.00,-28.00,0.00,0.00,-155.00,31,20.00,0.00,2.11,0.00,0.00,0.00,0,,,100,100,0,1,0,0,0,1,6,,,,,0.0,0.0,0.0,0.0,0.0,0.0,0
34.182945,-118.129089,6.56,6.89,0.00,0.69,6.56,6.56,1.12,0.89,11909,2022-06-06 23:27:41.206,2022-06-06 16:27:41.206,16,0,0,16.148,34.182946,-118.129091,0.00,0.00,0.00,0.80,-3.30,-2.80,0,1,0,77,100,-7853,2622,16148,3151.50,10,Sport,1,0,0,0,36,0,0,1654558061206,4046,4043,4038,4032,0,0,27,,,,,,,0,0,0,-8.00,-33.00,-28.00,0.00,0.00,-155.00,31,20.00,0.00,2.11,0.00,0.00,0.00,0,,,100,100,0,1,0,0,0,1,6,,,,,0.0,0.0,0.0,0.0,0.0,0.0,0
34.182945,-118.129089,6.56,6.89,0.00,0.64,6.56,6.56,1.12,0.89,12008,2022-06-06 23:27:41.306,2022-06-06 16:27:41.306,16,0,0,16.148,34.182946,-118.129091,0.00,0.00,0.00,1.20,-3.50,-2.80,0,1,0,77,100,-7853,2622,16148,3151.50,10,Sport,1,0,0,0,126,0,0,1654558061305,4046,4043,4038,4032,0,0,27,,,,,,,0,0,0,-12.00,-35.00,-28.00,0.00,0.00,-155.00,31,20.00,0.00,1.94,0.00,0.00,0.00,0,,,100,100,0,1,0,0,0,1,6,,,,,0.0,0.0,0.0,0.0,0.0,0.0,0
34.182945,-118.129089,6.56,6.89,0.00,0.63,6.56,6.56,1.12,0.89,12057,2022-06-06 23:27:41.355,2022-06-06 16:27:41.355,16,0,0,16.148,34.182946,-118.129091,0.00,0.00,0.00,1.30,-3.20,-2.80,0,1,0,77,100,-7853,2622,16148,3151.50,10,Sport,1,0,0,0,137,0,0,1654558061354,4046,4043,4038,4032,0,0,27,,,,,,,0,0,0,-13.00,-32.00,-28.00,0.00,0.00,-155.00,31,20.00,0.00,1.92,0.00,0.00,0.00,0,,,100,100,0,1,0,0,0,1,6,,,,,0.0,0.0,0.0,0.0,0.0,0.0,0
34.182945,-118.129089,6.56,6.89,0.00,0.63,6.56,6.56,1.12,0.89,12209,2022-06-06 23:27:41.507,2022-06-06 16:27:41.507,16,0,0,16.144,34.182946,-118.129091,0.00,0.00,0.00,1.00,-3.20,-2.80,0,1,0,77,100,-7297,2618,16144,3151.50,10,Sport,1,0,0,0,137,0,0,1654558061506,4046,4043,4038,4032,0,0,27,,,,,,,0,0,0,-10.00,-32.00,-28.00,0.00,0.00,-155.00,31,20.00,0.00,1.91,0.00,0.00,0.00,0,,,100,100,0,1,0,0,0,1,6,,,,,0.0,0.0,0.0,0.0,0.0,0.0,0
34.182945,-118.129089,6.56,6.89,0.00,0.62,6.56,6.56,1.12,0.89,12308,2022-06-06 23:27:41.605,2022-06-06 16:27:41.605,16,0,0,16.144,34.182946,-118.129091,0.00,0.00,0.00,0.90,-3.10,-2.80,0,1,0,77,100,-7297,2618,16144,3151.50,10,Sport,1,0,0,0,137,0,0,1654558061605,4046,4043,4038,4032,0,0,27,,,,,,,0,0,0,-9.00,-31.00,-28.00,0.00,0.00,-155.00,31,20.00,0.00,1.88,0.00,0.00,0.00,0,,,100,100,0,1,0,0,0,1,6,,,,,0.0,0.0,0.0,0.0,0.0,0.0,0
34.182945,-118.129089,6.56,6.89,0.00,0.57,6.56,6.56,1.12,0.89,12357,2022-06-06 23:27:41.654,2022-06-06 16:27:41.654,16,0,0,16.144,34.182946,-118.129091,0.00,0.00,0.00,1.30,-2.90,-2.80,0,1,0,77,100,-7297,2618,16144,3151.50,10,Sport,1,0,0,0,137,0,0,1654558061654,4046,4043,4038,4032,0,0,27,,,,,,,0,0,0,-13.00,-29.00,-28.00,0.00,0.00,-155.00,31,20.00,0.00,1.74,0.00,0.00,0.00,0,,,100,100,0,1,0,0,0,1,6,,,,,0.0,0.0,0.0,0.0,0.0,0.0,0
34.182945,-118.129089,6.56,6.89,0.32,0.55,6.56,6.56,1.12,0.89,12457,2022-06-06 23:27:41.755,2022-06-06 16:27:41.755,16,0,0,16.144,34.182946,-118.129091,0.22,0.00,-0.22,2.40,-2.80,-2.80,0,1,0,77,100,-7297,2618,16144,3151.50,10,Sport,1,0,0,0,137,0,0,1654558061754,4046,4043,4038,4032,0,0,27,,,,,,,0,0,0,-24.00,-28.00,-28.00,0.00,0.00,-155.00,31,20.00,1.41,1.68,1.00,0.00,-1.00,0,,,100,100,0,1,0,0,0,1,6,,,,,0.0,0.0,0.0,0.0,0.0,0.0,0
34.182945,-118.129089,6.56,6.89,0.32,0.55,6.56,6.56,1.12,0.89,12559,2022-06-06 23:27:41.857,2022-06-06 16:27:41.857,16,0,0,16.144,34.182946,-118.129091,0.22,0.00,-0.22,3.10,-2.90,-2.90,0,1,0,77,100,-7297,2618,16144,3151.50,10,Sport,1,0,0,0,137,0,0,1654558061856,4046,4043,4038,4032,0,0,27,,,,,,,0,0,0,-31.00,-29.00,-29.00,0.00,0.00,-155.00,31,20.00,1.41,1.68,1.00,0.00,-1.00,0,,,100,100,0,1,0,0,0,1,6,,,,,0.0,0.0,0.0,0.0,0.0,0.0,0
34.182945,-118.129089,6.89,7.22,0.22,0.54,6.89,6.89,1.12,0.89,12710,2022-06-06 23:27:42.007,2022-06-06 16:27:42.007,16,0,0,16.144,34.182946,-118.129091,0.00,0.00,-0.22,3.30,-3.00,-2.90,0,1,0,77,100,-7297,2618,16144,3151.50,10,Sport,1,0,0,0,137,0,0,1654558062007,4046,4043,4038,4032,0,0,27,,,,,,,0,0,0,-33.00,-30.00,-29.00,0.00,0.00,-155.00,31,21.00,1.00,1.65,0.00,0.00,-1.00,0,,,100,100,0,1,0,0,0,1,6,,,,,0.0,0.0,0.0,0.0,0.0,0.0,0
34.182946,-118.129090,6.89,7.22,0.22,0.51,6.89,6.89,1.12,0.89,12808,2022-06-06 23:27:42.106,2022-06-06 16:27:42.106,16,0,0,16.144,34.182946,-118.129091,0.00,0.00,-0.22,3.40,-3.10,-2.90,0,1,0,77,100,-7297,2618,16144,3151.50,10,Sport,1,0,0,0,95,0,0,1654558062105,4046,4043,4038,4032,0,0,27,,,,,,,0,0,0,-34.00,-31.00,-29.00,0.00,0.00,-155.00,31,21.00,1.00,1.55,0.00,0.00,-1.00,0,,,100,100,0,1,0,0,0,1,6,,,,,0.0,0.0,0.0,0.0,0.0,0.0,0
34.182946,-118.129090,6.89,7.22,0.22,0.50,6.89,6.89,1.12,0.89,12867,2022-06-06 23:27:42.164,2022-06-06 16:27:42.164,16,0,0,16.144,34.182946,-118.129091,0.00,0.00,-0.22,3.10,-3.30,-2.80,0,1,0,77,100,-7297,2618,16144,3151.50,10,Sport,1,0,0,0,0,0,0,1654558062164,4046,4043,4038,4032,0,0,27,,,,,,,0,0,0,-31.00,-33.00,-28.00,0.00,0.00,-155.00,31,21.00,1.00,1.52,0.00,0.00,-1.00,0,,,100,100,0,1,0,0,0,1,6,,,,,0.0,0.0,0.0,0.0,0.0,0.0,0
34.182946,-118.129089,6.89,7.22,0.00,0.56,6.89,6.89,1.12,0.89,12958,2022-06-06 23:27:42.256,2022-06-06 16:27:42.256,16,0,0,16.144,34.182946,-118.129091,0.00,0.00,0.00,2.90,-3.20,-2.80,0,1,0,77,100,-7297,2618,16144,3151.50,10,Sport,1,0,0,0,0,0,0,1654558062255,4046,4043,4038,4032,0,0,27,,,,,,,0,0,0,-29.00,-32.00,-28.00,0.00,0.00,-155.00,31,21.00,0.00,1.72,0.00,0.00,0.00,0,,,100,100,0,1,0,0,0,1,6,,,,,0.0,0.0,0.0,0.0,0.0,0.0,0
34.182946,-118.129089,6.89,7.22,0.00,0.55,6.89,6.89,1.12,0.89,13059,2022-06-06 23:27:42.356,2022-06-06 16:27:42.356,16,0,0,16.144,34.182946,-118.129091,0.00,0.00,0.00,3.00,-2.70,-2.80,0,1,0,77,100,-7297,2618,16144,3151.50,10,Sport,1,0,0,0,0,0,0,1654558062356,4046,4043,4038,4032,0,0,27,,,,,,,0,0,0,-30.00,-27.00,-28.00,0.00,0.00,-155.00,31,21.00,0.00,1.68,0.00,0.00,0.00,0,,,100,100,0,1,0,0,0,1,6,,,,,0.0,0.0,0.0,0.0,0.0,0.0,0
34.182946,-118.129089,6.89,7.22,0.00,0.58,6.89,6.89,1.12,0.89,13160,2022-06-06 23:27:42.457,2022-06-06 16:27:42.457,16,0,0,16.144,34.182946,-118.129091,0.00,0.00,0.00,2.80,-2.30,-2.90,0,1,0,77,100,-7297,2618,16144,3151.50,10,Sport,1,0,0,0,0,0,0,1654558062457,4046,4043,4038,4032,0,0,27,,,,,,,0,0,0,-28.00,-23.00,-29.00,0.00,0.00,-155.00,31,21.00,0.00,1.76,0.00,0.00,0.00,0,,,100,100,0,1,0,0,0,1,6,,,,,0.0,0.0,0.0,0.0,0.0,0.0,0
34.182946,-118.129090,6.89,7.22,0.00,0.57,6.89,6.89,1.12,0.89,13259,2022-06-06 23:27:42.557,2022-06-06 16:27:42.557,16,0,0,16.144,34.182946,-118.129091,0.00,0.00,0.00,2.50,-2.40,-2.80,0,1,0,77,100,-7297,2618,16144,3151.50,10,Sport,1,0,0,0,0,0,0,1654558062556,4046,4043,4038,4032,0,0,27,,,,,,,0,0,0,-25.00,-24.00,-28.00,0.00,0.00,-155.00,31,21.00,0.00,1.74,0.00,0.00,0.00,0,,,100,100,0,1,0,0,0,1,6,,,,,0.0,0.0,0.0,0.0,0.0,0.0,0
34.182946,-118.129090,6.89,7.22,0.00,0.53,6.89,6.89,1.12,0.89,13362,2022-06-06 23:27:42.659,2022-06-06 16:27:42.659,16,0,0,16.144,34.182946,-118.129091,0.00,0.00,0.00,2.40,-2.50,-2.70,0,1,0,77,100,-7297,2618,16144,3151.50,10,Sport,1,0,0,0,32,0,0,1654558062659,4046,4043,4038,4032,0,0,27,,,,,,,0,0,0,-24.00,-25.00,-27.00,0.00,0.00,-155.00,31,21.00,0.00,1.61,0.00,0.00,0.00,0,,,100,100,0,1,0,0,0,1,6,,,,,0.0,0.0,0.0,0.0,0.0,0.0,0
34.182946,-118.129090,6.89,7.22,0.00,0.51,6.89,6.89,1.12,0.89,13460,2022-06-06 23:27:42.757,2022-06-06 16:27:42.757,16,0,0,16.144,34.182946,-118.129091,0.00,0.00,0.00,2.50,-2.00,-2.70,0,1,0,77,100,-7297,2618,16144,3151.50,10,Sport,1,0,0,0,218,0,0,1654558062757,4046,4043,4038,4032,0,0,27,,,,,,,0,0,0,-25.00,-20.00,-27.00,0.00,0.00,-155.00,31,21.00,0.00,1.57,0.00,0.00,0.00,0,,,100,100,0,1,0,0,0,1,6,,,,,0.0,0.0,0.0,0.0,0.0,0.0,0
