latitude,longitude,altitude(m),ultrasonicHeight(m),speed(mps),distance(m),max_altitude(m),max_ascent(m),max_speed(mps),max_distance(m),time(millisecond),datetime(utc),datetime(local),satellites,pressure(Pa),temperature(F),voltage(v),home_latitude,home_longitude,velocityX(mps),velocityY(mps),velocityZ(mps),pitch(deg),roll(deg),yaw(deg),powerlevel,isflying,istakingphoto,remainPowerPercent,remainLifePercent,currentCurrent,currentElectricity,currentVoltage,batteryTemperature,dischargeCount,flightmode,isMotorsOn,isTakingVideo,Rc_elevator,Rc_aileron,Rc_throttle,Rc_rudder,Rc_gyro,timestamp,Battery_Cell1,Battery_Cell2,Battery_Cell3,Battery_Cell4,Battery_Cell5,Battery_Cell6,Dronetype,AppVersion,Planename,FlyControllerSerialNumber,RemoteSerialNumber,BatterySerialNumber,CENTER_BATTERY.productDate,CENTER_BATTERY.serialNo,CENTER_BATTERY.fullCapacity,CENTER_BATTERY.productDateRaw,pitchRaw,rollRaw,yawRaw,gimbalPitchRaw,gimbalRollRaw,gimbalYawRaw,flyState,altitudeRaw,speedRaw,distanceRaw,velocityXRaw,velocityYRaw,velocityZRaw,data_reuse,App_Tip,App_Warning,downlinkSignalQuality,uplinkSignalQuality,transmissionChannel,rcModeSwitch,rcHome,rcPause,rcTransform,rcJoystickMode,appMode,FlyControllerSerialNumber_legacy,RemoteSerialNumber_legacy,BatterySerialNumber_legacy,Battery2SerialNumber,frontAvoidDist,backAvoidDist,rightAvoidDist,leftAvoidDist,upAvoidDist,downAvoidDist,isBrakingToAvoid
34.182592,-118.129089,0.30,0.40,0.41,0.17,0.30,0.30,0.41,0.17,0,2022-06-08 00:32:52.853,2022-06-07 17:32:52.853,15,0,0,15.841,34.182590,-118.129089,0.10,0.00,-0.40,1.40,-2.40,-35.00,0,1,0,68,100,-5234,2445,15841,3161.50,5,TakeOff,1,0,0,0,0,0,0,1654648372852,4006,3982,3989,3986,0,0,27,Litchi_iOS_2.14.0,Brian-MAVIC 2,163DFCK001S13F,1DUCFB800104PR,0P2AG3L53400KG,,0,3630,0,-14.00,-24.00,-350.00,0.00,0.00,-325.00,11,3.00,4.12,1.69,1.00,0.00,-4.00,0,,,100,100,0,2,0,0,0,1,0,(null),(null),(null),(null),0.0,0.0,0.0,0.0,0.0,0.0,0
34.182592,-118.129089,0.40,0.40,0.41,0.18,0.40,0.40,0.41,0.18,100,2022-06-08 00:32:52.952,2022-06-07 17:32:52.952,15,0,0,15.841,34.182590,-118.129089,0.10,0.00,-0.40,1.40,-2.30,-35.00,0,1,0,68,100,-5234,2445,15841,3161.50,5,TakeOff,1,0,0,0,0,0,0,1654648372952,4006,3982,3989,3986,0,0,27,,,,,,,0,0,0,-14.00,-23.00,-350.00,0.00,0.00,-325.00,11,4.00,4.12,1.82,1.00,0.00,-4.00,0,,,100,100,0,2,0,0,0,1,0,,,,,0.0,0.0,0.0,0.0,0.0,0.0,0
34.182592,-118.129089,0.40,0.50,0.41,0.24,0.40,0.40,0.41,0.24,200,2022-06-08 00:32:53.053,2022-06-07 17:32:53.053,15,0,0,15.841,34.182590,-118.129089,0.10,0.00,-0.40,1.60,-2.60,-34.90,0,1,0,68,100,-5234,2445,15841,3161.50,5,TakeOff,1,0,0,0,0,0,0,1654648373052,4006,3982,3989,3986,0,0,27,,,,,,,0,0,0,-16.00,-26.00,-349.00,0.00,0.00,-326.00,11,4.00,4.12,2.42,1.00,0.00,-4.00,0,,,100,100,0,2,0,0,0,1,0,,,,,0.0,0.0,0.0,0.0,0.0,0.0,0
34.182592,-118.129089,0.50,0.50,0.51,0.26,0.50,0.50,0.51,0.26,300,2022-06-08 00:32:53.152,2022-06-07 17:32:53.152,15,0,0,15.841,34.182590,-118.129089,0.10,0.00,-0.50,1.70,-3.10,-35.00,0,1,0,68,100,-5234,2445,15841,3161.50,5,TakeOff,1,0,0,0,0,0,0,1654648373152,4006,3982,3989,3986,0,0,27,,,,,,,0,0,0,-17.00,-31.00,-350.00,0.00,0.00,-326.00,11,5.00,5.10,2.58,1.00,0.00,-5.00,0,,,100,100,0,2,0,0,0,1,0,,,,,0.0,0.0,0.0,0.0,0.0,0.0,0
34.182592,-118.129089,0.50,0.60,0.51,0.26,0.50,0.50,0.51,0.26,400,2022-06-08 00:32:53.252,2022-06-07 17:32:53.252,15,0,0,15.841,34.182590,-118.129089,0.10,0.00,-0.50,1.70,-3.30,-34.90,0,1,0,68,100,-5234,2445,15841,3161.50,5,TakeOff,1,0,0,0,0,0,0,1654648373252,4006,3982,3989,3986,0,0,27,,,,,,,0,0,0,-17.00,-33.00,-349.00,0.00,0.00,-326.00,11,5.00,5.10,2.55,1.00,0.00,-5.00,0,,,100,100,0,2,0,0,0,1,0,,,,,0.0,0.0,0.0,0.0,0.0,0.0,0
34.182593,-118.129089,0.60,0.60,0.50,0.27,0.60,0.60,0.51,0.27,500,2022-06-08 00:32:53.352,2022-06-07 17:32:53.352,15,0,0,15.841,34.182590,-118.129089,0.00,0.00,-0.50,1.70,-3.20,-34.90,0,1,0,68,100,-5234,2445,15841,3161.50,5,TakeOff,1,0,0,0,0,0,0,1654648373352,4006,3982,3989,3986,0,0,27,,,,,,,0,0,0,-17.00,-32.00,-349.00,0.00,0.00,-326.00,11,6.00,5.00,2.66,0.00,0.00,-5.00,0,,,100,100,0,2,0,0,0,1,0,,,,,0.0,0.0,0.0,0.0,0.0,0.0,0
34.182592,-118.129089,0.60,0.70,0.50,0.26,0.60,0.60,0.51,0.27,600,2022-06-08 00:32:53.452,2022-06-07 17:32:53.452,15,0,0,15.841,34.182590,-118.129089,0.00,0.00,-0.50,1.70,-2.90,-34.90,0,1,0,68,100,-5234,2445,15841,3161.50,5,TakeOff,1,0,0,0,0,0,0,1654648373452,4006,3982,3989,3986,0,0,27,,,,,,,0,0,0,-17.00,-29.00,-349.00,0.00,0.00,-326.00,11,6.00,5.00,2.63,0.00,0.00,-5.00,0,,,100,100,0,2,0,0,0,1,0,,,,,0.0,0.0,0.0,0.0,0.0,0.0,0
34.182593,-118.129089,0.70,0.70,0.50,0.27,0.70,0.70,0.51,0.27,699,2022-06-08 00:32:53.552,2022-06-07 17:32:53.552,15,0,0,15.841,34.182590,-118.129089,0.00,0.00,-0.50,1.80,-2.70,-34.90,0,1,0,68,100,-5234,2445,15841,3161.50,5,TakeOff,1,0,0,0,0,0,0,1654648373551,4006,3982,3989,3986,0,0,27,,,,,,,0,0,0,-18.00,-27.00,-349.00,0.00,0.00,-326.00,11,7.00,5.00,2.70,0.00,0.00,-5.00,0,,,100,100,0,2,0,0,0,1,0,,,,,0.0,0.0,0.0,0.0,0.0,0.0,0
34.182593,-118.129089,0.70,0.80,0.50,0.30,0.70,0.70,0.51,0.30,800,2022-06-08 00:32:53.652,2022-06-07 17:32:53.652,15,0,0,15.841,34.182590,-118.129089,0.00,0.00,-0.50,1.80,-2.60,-34.90,0,1,0,68,100,-5234,2445,15841,3161.50,5,TakeOff,1,0,0,0,0,0,0,1654648373652,4006,3982,3989,3986,0,0,27,,,,,,,0,0,0,-18.00,-26.00,-349.00,0.00,0.00,-326.00,11,7.00,5.00,3.05,0.00,0.00,-5.00,0,,,100,100,0,2,0,0,0,1,0,,,,,0.0,0.0,0.0,0.0,0.0,0.0,0
34.182593,-118.129089,0.80,0.80,0.50,0.31,0.80,0.80,0.51,0.31,899,2022-06-08 00:32:53.752,2022-06-07 17:32:53.752,15,0,0,15.841,34.182590,-118.129089,0.00,0.00,-0.50,1.90,-2.60,-34.90,0,1,0,68,100,-5234,2445,15841,3161.50,5,TakeOff,1,0,0,0,0,0,0,1654648373751,4006,3982,3989,3986,0,0,27,,,,,,,0,0,0,-19.00,-26.00,-349.00,0.00,0.00,-326.00,11,8.00,5.00,3.11,0.00,0.00,-5.00,0,,,100,100,0,2,0,0,0,1,0,,,,,0.0,0.0,0.0,0.0,0.0,0.0,0
34.182593,-118.129089,0.80,0.90,0.50,0.31,0.80,0.80,0.51,0.31,1000,2022-06-08 00:32:53.852,2022-06-07 17:32:53.852,15,0,0,15.841,34.182590,-118.129089,0.00,0.00,-0.50,1.80,-2.70,-34.90,0,1,0,68,100,-5234,2445,15841,3161.50,5,TakeOff,1,0,0,0,0,0,0,1654648373852,4006,3982,3989,3986,0,0,27,,,,,,,0,0,0,-18.00,-27.00,-349.00,0.00,0.00,-327.00,11,8.00,5.00,3.06,0.00,0.00,-5.00,0,,,100,100,0,2,0,0,0,1,0,,,,,0.0,0.0,0.0,0.0,0.0,0.0,0
34.182593,-118.129089,0.90,0.90,0.40,0.31,0.90,0.90,0.51,0.31,1100,2022-06-08 00:32:53.952,2022-06-07 17:32:53.952,15,0,0,15.841,34.182590,-118.129089,0.00,0.00,-0.40,1.80,-2.60,-34.90,0,1,0,68,100,-5234,2445,15841,3161.50,5,TakeOff,1,0,0,0,0,0,0,1654648373952,4006,3982,3989,3986,0,0,27,,,,,,,0,0,0,-18.00,-26.00,-349.00,0.00,0.00,-327.00,11,9.00,4.00,3.09,0.00,0.00,-4.00,0,,,100,100,0,2,0,0,0,1,0,,,,,0.0,0.0,0.0,0.0,0.0,0.0,0
34.182593,-118.129089,0.90,1.00,0.50,0.31,0.90,0.90,0.51,0.31,1200,2022-06-08 00:32:54.052,2022-06-07 17:32:54.053,15,0,0,15.841,34.182590,-118.129089,0.00,0.00,-0.50,1.60,-2.40,-34.80,0,1,0,68,100,-5234,2445,15841,3161.50,5,TakeOff,1,0,0,0,0,0,0,1654648374052,4006,3982,3989,3986,0,0,27,,,,,,,0,0,0,-16.00,-24.00,-348.00,0.00,0.00,-327.00,11,9.00,5.00,3.09,0.00,0.00,-5.00,0,,,100,100,0,2,0,0,0,1,0,,,,,0.0,0.0,0.0,0.0,0.0,0.0,0
34.182593,-118.129089,1.00,1.00,0.50,0.31,1.00,1.00,0.51,0.31,1299,2022-06-08 00:32:54.152,2022-06-07 17:32:54.152,15,0,0,15.841,34.182590,-118.129089,0.00,0.00,-0.50,1.50,-2.30,-34.80,0,1,0,68,100,-5234,2445,15841,3161.50,5,TakeOff,1,0,0,0,0,0,0,1654648374151,4006,3982,3989,3986,0,0,27,,,,,,,0,0,0,-15.00,-23.00,-348.00,0.00,0.00,-327.00,11,10.00,5.00,3.09,0.00,0.00,-5.00,0,,,100,100,0,2,0,0,0,1,0,,,,,0.0,0.0,0.0,0.0,0.0,0.0,0
34.182593,-118.129089,1.00,1.10,0.50,0.29,1.00,1.00,0.51,0.31,1399,2022-06-08 00:32:54.252,2022-06-07 17:32:54.252,15,0,0,15.841,34.182590,-118.129089,0.00,0.00,-0.50,1.30,-1.90,-34.80,0,1,0,68,100,-5234,2445,15841,3161.50,5,WP,1,0,0,0,0,0,0,1654648374251,4006,3982,3989,3986,0,0,27,,,,,,,0,0,0,-13.00,-19.00,-348.00,0.00,0.00,-327.00,14,10.00,5.00,2.92,0.00,0.00,-5.00,0,,,100,100,0,2,0,0,0,1,0,,,,,0.0,0.0,0.0,0.0,0.0,0.0,0
34.182593,-118.129089,1.10,1.10,0.40,0.29,1.10,1.10,0.51,0.31,1500,2022-06-08 00:32:54.352,2022-06-07 17:32:54.352,15,0,0,15.773,34.182590,-118.129089,0.00,0.00,-0.40,0.20,-0.40,-35.10,0,1,0,68,100,-8028,2443,15773,3161.50,5,WP,1,0,0,0,0,0,0,1654648374352,4006,3982,3989,3986,0,0,27,,,,,,,0,0,0,-2.00,-4.00,-351.00,0.00,0.00,-327.00,14,11.00,4.00,2.90,0.00,0.00,-4.00,0,,,100,100,0,2,0,0,0,1,0,,,,,0.0,0.0,0.0,0.0,0.0,0.0,0
34.182593,-118.129089,1.10,1.20,0.40,0.30,1.10,1.10,0.51,0.31,1600,2022-06-08 00:32:54.453,2022-06-07 17:32:54.453,15,0,0,15.773,34.182590,-118.129089,0.00,0.00,-0.40,0.60,-0.50,-36.00,0,1,0,68,100,-8028,2443,15773,3161.50,5,WP,1,0,0,0,0,0,0,1654648374452,4006,3982,3989,3986,0,0,27,,,,,,,0,0,0,-6.00,-5.00,-360.00,0.00,0.00,-327.00,14,11.00,4.00,3.04,0.00,0.00,-4.00,0,,,100,100,0,2,0,0,0,1,0,,,,,0.0,0.0,0.0,0.0,0.0,0.0,0
34.182593,-118.129089,1.10,1.20,0.40,0.31,1.10,1.10,0.51,0.31,1700,2022-06-08 00:32:54.552,2022-06-07 17:32:54.552,15,0,0,15.773,34.182590,-118.129089,0.00,0.00,-0.40,1.00,-0.90,-37.40,0,1,0,68,100,-8028,2443,15773,3161.50,5,WP,1,0,0,0,0,0,0,1654648374552,4006,3982,3989,3986,0,0,27,,,,,,,0,0,0,-10.00,-9.00,-374.00,0.00,0.00,-328.00,14,11.00,4.00,3.08,0.00,0.00,-4.00,0,,,100,100,0,2,0,0,0,1,0,,,,,0.0,0.0,0.0,0.0,0.0,0.0,0
34.182593,-118.129089,1.20,1.30,0.40,0.32,1.20,1.20,0.51,0.32,1802,2022-06-08 00:32:54.654,2022-06-07 17:32:54.654,15,0,0,15.773,34.182590,-118.129089,0.00,0.00,-0.40,1.20,-1.30,-39.40,0,1,0,68,100,-8028,2443,15773,3161.50,5,WP,1,0,0,0,0,0,0,1654648374654,4006,3982,3989,3986,0,0,27,,,,,,,0,0,0,-12.00,-13.00,-394.00,0.00,0.00,-331.00,14,12.00,4.00,3.16,0.00,0.00,-4.00,0,,,100,100,0,2,0,0,0,1,0,,,,,0.0,0.0,0.0,0.0,0.0,0.0,0
34.182593,-118.129089,1.20,1.30,0.40,0.32,1.20,1.20,0.51,0.32,1901,2022-06-08 00:32:54.753,2022-06-07 17:32:54.753,15,0,0,15.773,34.182590,-118.129089,0.00,0.00,-0.40,1.40,-1.60,-42.00,0,1,0,68,100,-8028,2443,15773,3161.50,5,WP,1,0,0,0,0,0,0,1654648374753,4006,3982,3989,3986,0,0,27,,,,,,,0,0,0,-14.00,-16.00,-420.00,0.00,0.00,-339.00,14,12.00,4.00,3.24,0.00,0.00,-4.00,0,,,100,100,0,2,0,0,0,1,0,,,,,0.0,0.0,0.0,0.0,0.0,0.0,0
34.182593,-118.129089,1.30,1.40,0.40,0.31,1.30,1.30,0.51,0.32,2000,2022-06-08 00:32:54.853,2022-06-07 17:32:54.853,15,0,0,15.773,34.182590,-118.129089,0.00,0.00,-0.40,1.30,-1.70,-45.20,0,1,0,68,100,-8028,2443,15773,3161.50,5,WP,1,0,0,0,0,0,0,1654648374852,4006,3982,3989,3986,0,0,27,,,,,,,0,0,0,-13.00,-17.00,-452.00,0.00,0.00,-358.00,14,13.00,4.00,3.09,0.00,0.00,-4.00,0,,,100,100,0,2,0,0,0,1,0,,,,,0.0,0.0,0.0,0.0,0.0,0.0,0
34.182593,-118.129089,1.30,1.40,0.40,0.31,1.30,1.30,0.51,0.32,2102,2022-06-08 00:32:54.954,2022-06-07 17:32:54.954,15,0,0,15.773,34.182590,-118.129089,0.00,0.00,-0.40,1.10,-1.80,-49.00,0,1,0,68,100,-8028,2443,15773,3161.50,5,WP,1,0,0,0,0,0,0,1654648374954,4006,3982,3989,3986,0,0,27,,,,,,,0,0,0,-11.00,-18.00,-490.00,0.00,0.00,-389.00,14,13.00,4.00,3.15,0.00,0.00,-4.00,0,,,100,100,0,2,0,0,0,1,0,,,,,0.0,0.0,0.0,0.0,0.0,0.0,0
34.182593,-118.129089,1.40,1.50,0.40,0.31,1.40,1.40,0.51,0.32,2201,2022-06-08 00:32:55.053,2022-06-07 17:32:55.053,15,0,0,15.773,34.182590,-118.129089,0.00,0.00,-0.40,1.10,-1.90,-53.30,0,1,0,68,100,-8028,2443,15773,3161.50,5,WP,1,0,0,0,0,0,0,1654648375053,4006,3982,3989,3986,0,0,27,,,,,,,0,0,0,-11.00,-19.00,-533.00,0.00,0.00,-431.00,14,14.00,4.00,3.11,0.00,0.00,-4.00,0,,,100,100,0,2,0,0,0,1,0,,,,,0.0,0.0,0.0,0.0,0.0,0.0,0
34.182593,-118.129089,1.40,1.50,0.40,0.32,1.40,1.40,0.51,0.32,2301,2022-06-08 00:32:55.153,2022-06-07 17:32:55.153,15,0,0,15.773,34.182590,-118.129089,0.00,0.00,-0.40,0.90,-1.90,-58.20,0,1,0,68,100,-8028,2443,15773,3161.50,5,WP,1,0,0,0,0,0,0,1654648375153,4006,3982,3989,3986,0,0,27,,,,,,,0,0,0,-9.00,-19.00,-582.00,0.00,0.00,-479.00,14,14.00,4.00,3.16,0.00,0.00,-4.00,0,,,100,100,0,2,0,0,0,1,0,,,,,0.0,0.0,0.0,0.0,0.0,0.0,0
34.182593,-118.129089,1.50,1.60,0.40,0.34,1.50,1.50,0.51,0.34,2401,2022-06-08 00:32:55.254,2022-06-07 17:32:55.254,15,0,0,15.773,34.182590,-118.129089,0.00,0.00,-0.40,0.60,-2.10,-63.60,0,1,0,68,100,-8028,2443,15773,3161.50,5,WP,1,0,0,0,0,0,0,1654648375253,4006,3982,3989,3986,0,0,27,,,,,,,0,0,0,-6.00,-21.00,-636.00,0.00,0.00,-534.00,14,15.00,4.00,3.43,0.00,0.00,-4.00,0,,,100,100,0,2,0,0,0,1,0,,,,,0.0,0.0,0.0,0.0,0.0,0.0,0
34.182593,-118.129089,1.50,1.60,0.40,0.35,1.50,1.50,0.51,0.35,2501,2022-06-08 00:32:55.353,2022-06-07 17:32:55.353,15,0,0,15.773,34.182590,-118.129089,0.00,0.00,-0.40,0.40,-2.20,-69.50,0,1,0,68,100,-8028,2443,15773,3161.50,5,WP,1,0,0,0,0,0,0,1654648375353,4006,3982,3989,3986,0,0,27,,,,,,,0,0,0,-4.00,-22.00,-695.00,0.00,0.00,-593.00,14,15.00,4.00,3.49,0.00,0.00,-4.00,0,,,100,100,0,2,0,0,0,1,0,,,,,0.0,0.0,0.0,0.0,0.0,0.0,0
34.182593,-118.129089,1.60,1.70,0.40,0.34,1.60,1.60,0.51,0.35,2602,2022-06-08 00:32:55.454,2022-06-07 17:32:55.454,15,0,0,15.773,34.182590,-118.129089,0.00,0.00,-0.40,0.30,-2.30,-76.10,0,1,0,68,100,-8028,2443,15773,3161.50,5,WP,1,0,0,0,0,0,0,1654648375454,4006,3982,3989,3986,0,0,27,,,,,,,0,0,0,-3.00,-23.00,-761.00,0.00,0.00,-657.00,14,16.00,4.00,3.42,0.00,0.00,-4.00,0,,,100,100,0,2,0,0,0,1,0,,,,,0.0,0.0,0.0,0.0,0.0,0.0,0
34.182593,-118.129089,1.60,1.70,0.30,0.35,1.60,1.60,0.51,0.35,2701,2022-06-08 00:32:55.554,2022-06-07 17:32:55.554,15,0,0,15.773,34.182590,-118.129089,0.00,0.00,-0.30,0.00,-2.20,-83.20,0,1,0,68,100,-8028,2443,15773,3161.50,5,WP,1,0,0,0,0,0,0,1654648375553,4006,3982,3989,3986,0,0,27,,,,,,,0,0,0,-0.00,-22.00,-832.00,0.00,0.00,-726.00,14,16.00,3.00,3.46,0.00,0.00,-3.00,0,,,100,100,0,2,0,0,0,1,0,,,,,0.0,0.0,0.0,0.0,0.0,0.0,0
34.182593,-118.129089,1.60,1.70,0.30,0.33,1.60,1.60,0.51,0.35,2801,2022-06-08 00:32:55.653,2022-06-07 17:32:55.653,15,0,0,15.773,34.182590,-118.129089,0.00,0.00,-0.30,-0.20,-2.20,-90.70,0,1,0,68,100,-8028,2443,15773,3161.50,5,WP,1,0,0,0,0,0,0,1654648375653,4006,3982,3989,3986,0,0,27,,,,,,,0,0,0,2.00,-22.00,-907.00,0.00,0.00,-800.00,14,16.00,3.00,3.27,0.00,0.00,-3.00,0,,,100,100,0,2,0,0,0,1,0,,,,,0.0,0.0,0.0,0.0,0.0,0.0,0
34.182593,-118.129089,1.70,1.80,0.20,0.33,1.70,1.70,0.51,0.35,2901,2022-06-08 00:32:55.753,2022-06-07 17:32:55.753,15,0,0,15.773,34.182590,-118.129089,0.00,0.00,-0.20,-0.40,-2.10,-98.20,0,1,0,68,100,-8028,2443,15773,3161.50,5,WP,1,0,0,0,0,0,0,1654648375753,4006,3982,3989,3986,0,0,27,,,,,,,0,0,0,4.00,-21.00,-982.00,0.00,0.00,-878.00,14,17.00,2.00,3.28,0.00,0.00,-2.00,0,,,100,100,0,2,0,0,0,1,0,,,,,0.0,0.0,0.0,0.0,0.0,0.0,0
34.182593,-118.129089,1.70,1.80,0.20,0.35,1.70,1.70,0.51,0.35,3001,2022-06-08 00:32:55.853,2022-06-07 17:32:55.853,15,0,0,15.773,34.182590,-118.129089,0.00,0.00,-0.20,-0.60,-1.90,-105.70,0,1,0,68,100,-8028,2443,15773,3161.50,5,WP,1,0,0,0,0,0,0,1654648375853,4006,3982,3989,3986,0,0,27,,,,,,,0,0,0,6.00,-19.00,-1057.00,0.00,0.00,-955.00,14,17.00,2.00,3.51,0.00,0.00,-2.00,0,,,100,100,0,2,0,0,0,1,0,,,,,0.0,0.0,0.0,0.0,0.0,0.0,0
34.182593,-118.129089,1.70,1.80,0.20,0.35,1.70,1.70,0.51,0.35,3101,2022-06-08 00:32:55.954,2022-06-07 17:32:55.954,15,0,0,15.773,34.182590,-118.129089,0.00,0.00,-0.20,-0.80,-1.70,-113.10,0,1,0,68,100,-8028,2443,15773,3161.50,5,WP,1,0,0,0,0,0,0,1654648375953,4006,3982,3989,3986,0,0,27,,,,,,,0,0,0,8.00,-17.00,-1131.00,0.00,0.00,-1031.00,14,17.00,2.00,3.53,0.00,0.00,-2.00,0,,,100,100,0,2,0,0,0,1,0,,,,,0.0,0.0,0.0,0.0,0.0,0.0,0
34.182593,-118.129089,1.70,1.80,0.10,0.35,1.70,1.70,0.51,0.35,3201,2022-06-08 00:32:56.054,2022-06-07 17:32:56.054,15,0,0,15.773,34.182590,-118.129089,0.00,0.00,-0.10,-0.90,-1.50,-120.60,0,1,0,68,100,-8028,2443,15773,3161.50,5,WP,1,0,0,0,0,0,0,1654648376053,4006,3982,3989,3986,0,0,27,,,,,,,0,0,0,9.00,-15.00,-1206.00,0.00,0.00,-1107.00,14,17.00,1.00,3.45,0.00,0.00,-1.00,0,,,100,100,0,2,0,0,0,1,0,,,,,0.0,0.0,0.0,0.0,0.0,0.0,0
34.182593,-118.129089,1.80,1.80,0.10,0.35,1.80,1.80,0.51,0.35,3301,2022-06-08 00:32:56.154,2022-06-07 17:32:56.154,15,0,0,15.773,34.182590,-118.129089,0.00,0.00,-0.10,-1.00,-1.30,-128.10,0,1,0,68,100,-8028,2443,15773,3161.50,5,WP,1,0,0,0,0,0,0,1654648376153,4006,3982,3989,3986,0,0,27,,,,,,,0,0,0,10.00,-13.00,-1281.00,0.00,0.00,-1183.00,14,18.00,1.00,3.46,0.00,0.00,-1.00,0,,,100,100,0,2,0,0,0,1,0,,,,,0.0,0.0,0.0,0.0,0.0,0.0,0
34.182593,-118.129089,1.80,1.90,0.10,0.34,1.80,1.80,0.51,0.35,3402,2022-06-08 00:32:56.255,2022-06-07 17:32:56.255,15,0,0,15.749,34.182590,-118.129089,0.00,0.00,-0.10,-1.00,-1.10,-135.60,0,1,0,68,100,-7997,2438,15749,3161.50,5,WP,1,0,0,0,0,0,0,1654648376254,4006,3982,3989,3986,0,0,27,,,,,,,0,0,0,10.00,-11.00,-1356.00,0.00,0.00,-1258.00,14,18.00,1.00,3.41,0.00,0.00,-1.00,0,,,100,100,0,2,0,0,0,1,0,,,,,0.0,0.0,0.0,0.0,0.0,0.0,0
34.182593,-118.129089,1.80,1.90,0.10,0.34,1.80,1.80,0.51,0.35,3501,2022-06-08 00:32:56.354,2022-06-07 17:32:56.354,15,0,0,15.749,34.182590,-118.129089,0.00,0.00,-0.10,-1.00,-0.90,-143.10,0,1,0,68,100,-7997,2438,15749,3161.50,5,WP,1,0,0,0,0,0,0,1654648376353,4006,3982,3989,3986,0,0,27,,,,,,,0,0,0,10.00,-9.00,-1431.00,0.00,0.00,-1333.00,14,18.00,1.00,3.40,0.00,0.00,-1.00,0,,,100,100,0,2,0,0,0,1,0,,,,,0.0,0.0,0.0,0.0,0.0,0.0,0
34.182593,-118.129089,1.80,1.90,0.10,0.36,1.80,1.80,0.51,0.36,3602,2022-06-08 00:32:56.454,2022-06-07 17:32:56.454,15,0,0,15.749,34.182590,-118.129089,0.00,0.00,-0.10,-1.00,-0.70,-150.60,0,1,0,68,100,-7997,2438,15749,3161.50,5,WP,1,0,0,0,0,0,0,1654648376454,4006,3982,3989,3986,0,0,27,,,,,,,0,0,0,10.00,-7.00,-1506.00,0.00,0.00,-1409.00,14,18.00,1.00,3.56,0.00,0.00,-1.00,0,,,100,100,0,2,0,0,0,1,0,,,,,0.0,0.0,0.0,0.0,0.0,0.0,0
34.182593,-118.129089,1.80,1.90,0.10,0.36,1.80,1.80,0.51,0.36,3703,2022-06-08 00:32:56.555,2022-06-07 17:32:56.556,15,0,0,15.749,34.182590,-118.129089,0.00,0.00,-0.10,-1.00,-0.50,-158.00,0,1,0,68,100,-7997,2438,15749,3161.50,5,WP,1,0,0,0,0,0,0,1654648376555,4006,3982,3989,3986,0,0,27,,,,,,,0,0,0,10.00,-5.00,-1580.00,0.00,0.00,-1484.00,14,18.00,1.00,3.55,0.00,0.00,-1.00,0,,,100,100,0,2,0,0,0,1,0,,,,,0.0,0.0,0.0,0.0,0.0,0.0,0
34.182593,-118.129089,1.80,1.90,0.00,0.35,1.80,1.80,0.51,0.36,3802,2022-06-08 00:32:56.654,2022-06-07 17:32:56.654,15,0,0,15.749,34.182590,-118.129089,0.00,0.00,0.00,-1.00,-0.50,-164.80,0,1,0,68,100,-7997,2438,15749,3161.50,5,WP,1,0,0,0,0,0,0,1654648376654,4006,3982,3989,3986,0,0,27,,,,,,,0,0,0,10.00,-5.00,-1648.00,0.00,0.00,-1559.00,14,18.00,0.00,3.47,0.00,0.00,0.00,0,,,100,100,0,2,0,0,0,1,0,,,,,0.0,0.0,0.0,0.0,0.0,0.0,0
34.182593,-118.129089,1.80,1.90,0.00,0.34,1.80,1.80,0.51,0.36,3903,2022-06-08 00:32:56.756,2022-06-07 17:32:56.756,15,0,0,15.749,34.182590,-118.129089,0.00,0.00,0.00,-0.80,-0.50,-169.50,0,1,0,68,100,-7997,2438,15749,3161.50,5,WP,1,0,0,0,0,0,0,1654648376755,4006,3982,3989,3986,0,0,27,,,,,,,0,0,0,8.00,-5.00,-1695.00,0.00,0.00,-1625.00,14,18.00,0.00,3.45,0.00,0.00,0.00,0,,,100,100,0,2,0,0,0,1,0,,,,,0.0,0.0,0.0,0.0,0.0,0.0,0
34.182593,-118.129089,1.80,1.90,0.00,0.34,1.80,1.80,0.51,0.36,4001,2022-06-08 00:32:56.854,2022-06-07 17:32:56.854,15,0,0,15.749,34.182590,-118.129089,0.00,0.00,0.00,-0.60,-0.30,-172.60,0,1,0,68,100,-7997,2438,15749,3161.50,5,WP,1,0,0,0,0,0,0,1654648376853,4006,3982,3989,3986,0,0,27,,,,,,,0,0,0,6.00,-3.00,-1726.00,0.00,0.00,-1671.00,14,18.00,0.00,3.37,0.00,0.00,0.00,0,,,100,100,0,2,0,0,0,1,0,,,,,0.0,0.0,0.0,0.0,0.0,0.0,0
34.182593,-118.129089,1.80,1.90,0.00,0.33,1.80,1.80,0.51,0.36,4103,2022-06-08 00:32:56.955,2022-06-07 17:32:56.955,15,0,0,15.749,34.182590,-118.129089,0.00,0.00,0.00,-0.60,0.00,-174.40,0,1,0,68,100,-7997,2438,15749,3161.50,5,WP,1,0,0,0,0,0,0,1654648376955,4006,3982,3989,3986,0,0,27,,,,,,,0,0,0,6.00,0.00,-1744.00,0.00,0.00,-1703.00,14,18.00,0.00,3.33,0.00,0.00,0.00,0,,,100,100,0,2,0,0,0,1,0,,,,,0.0,0.0,0.0,0.0,0.0,0.0,0
34.182593,-118.129088,1.80,2.00,0.00,0.33,1.80,1.80,0.51,0.36,4252,2022-06-08 00:32:57.105,2022-06-07 17:32:57.105,15,0,0,15.749,34.182590,-118.129089,0.00,0.00,0.00,-0.60,0.20,-175.60,0,1,0,68,100,-7997,2438,15749,3161.50,5,WP,1,0,0,0,0,0,0,1654648377104,4006,3982,3989,3986,0,0,27,,,,,,,0,0,0,6.00,2.00,-1756.00,0.00,0.00,-1723.00,14,18.00,0.00,3.29,0.00,0.00,0.00,0,,,100,100,0,2,0,0,0,1,0,,,,,0.0,0.0,0.0,0.0,0.0,0.0,0
34.182593,-118.129088,1.80,2.00,0.00,0.32,1.80,1.80,0.51,0.36,4303,2022-06-08 00:32:57.155,2022-06-07 17:32:57.155,15,0,0,15.749,34.182590,-118.129089,0.00,0.00,0.00,-0.50,0.40,-176.00,0,1,0,68,100,-7997,2438,15749,3161.50,5,WP,1,0,0,0,0,0,0,1654648377155,4006,3982,3989,3986,0,0,27,,,,,,,0,0,0,5.00,4.00,-1760.00,0.00,0.00,-1735.00,14,18.00,0.00,3.24,0.00,0.00,0.00,0,,,100,100,0,2,0,0,0,1,0,,,,,0.0,0.0,0.0,0.0,0.0,0.0,0
34.182593,-118.129088,1.80,2.00,0.00,0.33,1.80,1.80,0.51,0.36,4403,2022-06-08 00:32:57.255,2022-06-07 17:32:57.255,15,0,0,15.749,34.182590,-118.129089,0.00,0.00,0.00,-2.80,0.90,-176.10,0,1,0,68,100,-7997,2438,15749,3161.50,5,WP,1,0,0,0,0,0,0,1654648377255,4006,3982,3989,3986,0,0,27,,,,,,,0,0,0,28.00,9.00,-1761.00,0.00,0.00,-1742.00,14,18.00,0.00,3.33,0.00,0.00,0.00,0,,,100,100,0,2,0,0,0,1,0,,,,,0.0,0.0,0.0,0.0,0.0,0.0,0
34.182593,-118.129088,1.80,2.00,0.00,0.33,1.80,1.80,0.51,0.36,4502,2022-06-08 00:32:57.355,2022-06-07 17:32:57.355,15,0,0,15.749,34.182590,-118.129089,0.00,0.00,0.00,-6.20,0.80,-176.10,0,1,0,68,100,-7997,2438,15749,3161.50,5,WP,1,0,0,0,0,0,0,1654648377354,4006,3982,3989,3986,0,0,27,,,,,,,0,0,0,62.00,8.00,-1761.00,0.00,0.00,-1745.00,14,18.00,0.00,3.26,0.00,0.00,0.00,0,,,100,100,0,2,0,0,0,1,0,,,,,0.0,0.0,0.0,0.0,0.0,0.0,0
34.182593,-118.129088,1.80,2.00,0.20,0.31,1.80,1.80,0.51,0.36,4603,2022-06-08 00:32:57.455,2022-06-07 17:32:57.455,15,0,0,15.749,34.182590,-118.129089,-0.20,0.00,0.00,-9.20,0.50,-176.20,0,1,0,68,100,-7997,2438,15749,3161.50,5,WP,1,0,0,0,0,0,0,1654648377455,4006,3982,3989,3986,0,0,27,,,,,,,0,0,0,92.00,5.00,-1762.00,0.00,0.00,-1746.00,14,18.00,2.00,3.08,-2.00,0.00,0.00,0,,,100,100,0,2,0,0,0,1,0,,,,,0.0,0.0,0.0,0.0,0.0,0.0,0
34.182593,-118.129088,1.80,2.00,0.30,0.28,1.80,1.80,0.51,0.36,4703,2022-06-08 00:32:57.556,2022-06-07 17:32:57.556,15,0,0,15.749,34.182590,-118.129089,-0.30,0.00,0.00,-11.30,0.30,-176.10,0,1,0,68,100,-7997,2438,15749,3161.50,5,WP,1,0,0,0,0,0,0,1654648377555,4006,3982,3989,3986,0,0,27,,,,,,,0,0,0,113.00,3.00,-1761.00,0.00,0.00,-1747.00,14,18.00,3.00,2.79,-3.00,0.00,0.00,0,,,100,100,0,2,0,0,0,1,0,,,,,0.0,0.0,0.0,0.0,0.0,0.0,0
34.182592,-118.129088,1.90,1.90,0.50,0.25,1.90,1.90,0.51,0.36,4802,2022-06-08 00:32:57.655,2022-06-07 17:32:57.655,15,0,0,15.749,34.182590,-118.129089,-0.50,0.00,0.00,-12.80,0.00,-176.10,0,1,0,68,100,-7997,2438,15749,3161.50,5,WP,1,0,0,0,0,0,0,1654648377654,4006,3982,3989,3986,0,0,27,,,,,,,0,0,0,128.00,0.00,-1761.00,0.00,0.00,-1747.00,14,19.00,5.00,2.46,-5.00,0.00,0.00,0,,,100,100,0,2,0,0,0,1,0,,,,,0.0,0.0,0.0,0.0,0.0,0.0,0
34.182592,-118.129089,1.90,1.90,0.70,0.18,1.90,1.90,0.70,0.36,4902,2022-06-08 00:32:57.755,2022-06-07 17:32:57.755,15,0,0,15.749,34.182590,-118.129089,-0.70,0.00,0.00,-13.60,0.00,-176.10,0,1,0,68,100,-7997,2438,15749,3161.50,5,WP,1,0,0,0,0,0,0,1654648377754,4006,3982,3989,3986,0,0,27,,,,,,,0,0,0,136.00,0.00,-1761.00,0.00,0.00,-1748.00,14,19.00,7.00,1.84,-7.00,0.00,0.00,0,,,100,100,0,2,0,0,0,1,0,,,,,0.0,0.0,0.0,0.0,0.0,0.0,0
34.182591,-118.129089,1.90,1.90,0.90,0.12,1.90,1.90,0.90,0.36,5002,2022-06-08 00:32:57.855,2022-06-07 17:32:57.855,15,0,0,15.749,34.182590,-118.129089,-0.90,0.00,0.00,-13.80,0.00,-176.10,0,1,0,68,100,-7997,2438,15749,3161.50,5,WP,1,0,0,0,0,0,0,1654648377854,4006,3982,3989,3986,0,0,27,,,,,,,0,0,0,138.00,0.00,-1761.00,0.00,0.00,-1748.00,14,19.00,9.00,1.21,-9.00,0.00,0.00,0,,,100,100,0,2,0,0,0,1,0,,,,,0.0,0.0,0.0,0.0,0.0,0.0,0
34.182590,-118.129089,1.90,2.00,1.10,0.08,1.90,1.90,1.10,0.36,5102,2022-06-08 00:32:57.955,2022-06-07 17:32:57.955,15,0,0,15.749,34.182590,-118.129089,-1.10,-0.10,0.00,-13.20,0.00,-176.10,0,1,0,68,100,-7997,2438,15749,3161.50,5,WP,1,0,0,0,0,0,0,1654648377954,4006,3982,3989,3986,0,0,27,,,,,,,0,0,0,132.00,0.00,-1761.00,0.00,0.00,-1748.00,14,19.00,11.05,0.77,-11.00,-1.00,0.00,0,,,100,100,0,2,0,0,0,1,0,,,,,0.0,0.0,0.0,0.0,0.0,0.0,0
34.182589,-118.129089,1.90,2.00,1.30,0.14,1.90,1.90,1.30,0.36,5203,2022-06-08 00:32:58.056,2022-06-07 17:32:58.056,15,0,0,15.749,34.182590,-118.129089,-1.30,-0.10,0.00,-12.00,0.00,-176.10,0,1,0,68,100,-7997,2438,15749,3161.50,5,WP,1,0,0,0,0,0,0,1654648378055,4006,3982,3989,3986,0,0,27,,,,,,,0,0,0,120.00,0.00,-1761.00,0.00,0.00,-1748.00,14,19.00,13.04,1.36,-13.00,-1.00,0.00,0,,,100,100,0,2,0,0,0,1,0,,,,,0.0,0.0,0.0,0.0,0.0,0.0,0
34.182588,-118.129089,1.90,2.00,1.40,0.27,1.90,1.90,1.40,0.36,5353,2022-06-08 00:32:58.206,2022-06-07 17:32:58.206,15,0,0,15.749,34.182590,-118.129089,-1.40,-0.10,0.00,-8.60,0.00,-176.00,0,1,0,68,100,-7997,2438,15749,3161.50,5,WP,1,0,0,0,0,0,0,1654648378205,4006,3982,3989,3986,0,0,27,,,,,,,0,0,0,86.00,0.00,-1760.00,0.00,0.00,-1748.00,14,19.00,14.04,2.67,-14.00,-1.00,0.00,0,,,100,100,0,2,0,0,0,1,0,,,,,0.0,0.0,0.0,0.0,0.0,0.0,0
34.182587,-118.129089,1.90,2.00,1.50,0.39,1.90,1.90,1.50,0.39,5402,2022-06-08 00:32:58.255,2022-06-07 17:32:58.255,15,0,0,15.739,34.182590,-118.129089,-1.50,-0.10,0.00,-5.70,-0.40,-176.00,0,1,0,68,100,-7573,2434,15739,3161.50,5,WP,1,0,0,0,0,0,0,1654648378254,4006,3982,3989,3986,0,0,27,,,,,,,0,0,0,57.00,-4.00,-1760.00,0.00,0.00,-1748.00,14,19.00,15.03,3.94,-15.00,-1.00,0.00,0,,,100,100,0,2,0,0,0,1,0,,,,,0.0,0.0,0.0,0.0,0.0,0.0,0
34.182585,-118.129089,1.90,2.00,1.60,0.55,1.90,1.90,1.60,0.55,5503,2022-06-08 00:32:58.356,2022-06-07 17:32:58.356,15,0,0,15.739,34.182590,-118.129089,-1.60,-0.10,0.00,-3.20,-0.50,-176.00,0,1,0,68,100,-7573,2434,15739,3161.50,5,WP,1,0,0,0,0,0,0,1654648378355,4006,3982,3989,3986,0,0,27,,,,,,,0,0,0,32.00,-5.00,-1760.00,0.00,0.00,-1748.00,14,19.00,16.03,5.52,-16.00,-1.00,0.00,0,,,100,100,0,2,0,0,0,1,0,,,,,0.0,0.0,0.0,0.0,0.0,0.0,0
34.182584,-118.129090,1.90,2.00,1.60,0.72,1.90,1.90,1.60,0.72,5604,2022-06-08 00:32:58.456,2022-06-07 17:32:58.456,15,0,0,15.739,34.182590,-118.129089,-1.60,-0.10,0.00,-1.20,-0.70,-176.00,0,1,0,68,100,-7573,2434,15739,3161.50,5,WP,1,0,0,0,0,0,0,1654648378456,4006,3982,3989,3986,0,0,27,,,,,,,0,0,0,12.00,-7.00,-1760.00,0.00,0.00,-1748.00,14,19.00,16.03,7.22,-16.00,-1.00,0.00,0,,,100,100,0,2,0,0,0,1,0,,,,,0.0,0.0,0.0,0.0,0.0,0.0,0
34.182582,-118.129090,1.90,2.00,1.60,0.88,1.90,1.90,1.60,0.88,5702,2022-06-08 00:32:58.555,2022-06-07 17:32:58.555,15,0,0,15.739,34.182590,-118.129089,-1.60,-0.10,0.00,0.00,-0.40,-175.90,0,1,0,68,100,-7573,2434,15739,3161.50,5,WP,1,0,0,0,0,0,0,1654648378554,4006,3982,3989,3986,0,0,27,,,,,,,0,0,0,-0.00,-4.00,-1759.00,0.00,0.00,-1748.00,14,19.00,16.03,8.84,-16.00,-1.00,0.00,0,,,100,100,0,2,0,0,0,1,0,,,,,0.0,0.0,0.0,0.0,0.0,0.0,0
34.182581,-118.129090,1.90,2.00,1.60,1.04,1.90,1.90,1.60,1.04,5803,2022-06-08 00:32:58.655,2022-06-07 17:32:58.656,15,0,0,15.739,34.182590,-118.129089,-1.60,0.00,0.00,0.60,-0.90,-175.90,0,1,0,68,100,-7573,2434,15739,3161.50,5,WP,1,0,0,0,0,0,0,1654648378655,4006,3982,3989,3986,0,0,27,,,,,,,0,0,0,-6.00,-9.00,-1759.00,0.00,0.00,-1748.00,14,19.00,16.00,10.43,-16.00,0.00,0.00,0,,,100,100,0,2,0,0,0,1,0,,,,,0.0,0.0,0.0,0.0,0.0,0.0,0
34.182579,-118.129091,1.90,2.00,1.50,1.20,1.90,1.90,1.60,1.20,5904,2022-06-08 00:32:58.757,2022-06-07 17:32:58.757,15,0,0,15.739,34.182590,-118.129089,-1.50,0.00,0.00,1.10,-0.70,-175.90,0,1,0,68,100,-7573,2434,15739,3161.50,5,WP,1,0,0,0,0,0,0,1654648378756,4006,3982,3989,3986,0,0,27,,,,,,,0,0,0,-11.00,-7.00,-1759.00,0.00,0.00,-1748.00,14,19.00,15.00,11.97,-15.00,0.00,0.00,0,,,100,100,0,2,0,0,0,1,0,,,,,0.0,0.0,0.0,0.0,0.0,0.0,0
34.182578,-118.129091,1.90,2.00,1.50,1.35,1.90,1.90,1.60,1.35,6003,2022-06-08 00:32:58.856,2022-06-07 17:32:58.856,15,0,0,15.739,34.182590,-118.129089,-1.50,0.00,0.00,1.30,-0.70,-176.00,0,1,0,68,100,-7573,2434,15739,3161.50,5,WP,1,0,0,0,0,0,0,1654648378855,4006,3982,3989,3986,0,0,27,,,,,,,0,0,0,-13.00,-7.00,-1760.00,0.00,0.00,-1748.00,14,19.00,15.00,13.46,-15.00,0.00,0.00,0,,,100,100,0,2,0,0,0,1,0,,,,,0.0,0.0,0.0,0.0,0.0,0.0,0
34.182577,-118.129091,1.90,2.00,1.40,1.49,1.90,1.90,1.60,1.49,6106,2022-06-08 00:32:58.958,2022-06-07 17:32:58.958,15,0,0,15.739,34.182590,-118.129089,-1.40,0.00,0.00,1.70,-0.60,-175.90,0,1,0,68,100,-7573,2434,15739,3161.50,5,WP,1,0,0,0,0,0,0,1654648378958,4006,3982,3989,3986,0,0,27,,,,,,,0,0,0,-17.00,-6.00,-1759.00,0.00,0.00,-1748.00,14,19.00,14.00,14.90,-14.00,0.00,0.00,0,,,100,100,0,2,0,0,0,1,0,,,,,0.0,0.0,0.0,0.0,0.0,0.0,0
34.182575,-118.129091,1.90,2.00,1.30,1.64,1.90,1.90,1.60,1.64,6205,2022-06-08 00:32:59.058,2022-06-07 17:32:59.058,15,0,0,15.739,34.182590,-118.129089,-1.30,0.00,0.00,2.50,-0.90,-176.00,0,1,0,68,100,-7573,2434,15739,3161.50,5,WP,1,0,0,0,0,0,0,1654648379057,4006,3982,3989,3986,0,0,27,,,,,,,0,0,0,-25.00,-9.00,-1760.00,0.00,0.00,-1748.00,14,19.00,13.00,16.36,-13.00,0.00,0.00,0,,,100,100,0,2,0,0,0,1,0,,,,,0.0,0.0,0.0,0.0,0.0,0.0,0
34.182574,-118.129091,1.90,2.00,1.30,1.77,1.90,1.90,1.60,1.77,6304,2022-06-08 00:32:59.157,2022-06-07 17:32:59.157,15,0,0,15.739,34.182590,-118.129089,-1.30,0.00,0.00,2.90,-0.70,-175.90,0,1,0,68,100,-7573,2434,15739,3161.50,5,WP,1,0,0,0,0,0,0,1654648379156,4006,3982,3989,3986,0,0,27,,,,,,,0,0,0,-29.00,-7.00,-1759.00,0.00,0.00,-1748.00,14,19.00,13.00,17.67,-13.00,0.00,0.00,0,,,100,100,0,2,0,0,0,1,0,,,,,0.0,0.0,0.0,0.0,0.0,0.0,0
34.182573,-118.129091,1.90,2.00,1.20,1.91,1.90,1.90,1.60,1.91,6406,2022-06-08 00:32:59.258,2022-06-07 17:32:59.258,15,0,0,15.739,34.182590,-118.129089,-1.20,0.00,0.00,3.30,-0.50,-176.00,0,1,0,68,100,-7573,2434,15739,3161.50,5,WP,1,0,0,0,0,0,0,1654648379258,4006,3982,3989,3986,0,0,27,,,,,,,0,0,0,-33.00,-5.00,-1760.00,0.00,0.00,-1748.00,14,19.00,12.00,19.07,-12.00,0.00,0.00,0,,,100,100,0,2,0,0,0,1,0,,,,,0.0,0.0,0.0,0.0,0.0,0.0,0
34.182572,-118.129091,1.90,2.00,1.10,2.02,1.90,1.90,1.60,2.02,6503,2022-06-08 00:32:59.356,2022-06-07 17:32:59.356,15,0,0,15.739,34.182590,-118.129089,-1.10,0.00,0.00,3.20,-0.40,-175.90,0,1,0,68,100,-7573,2434,15739,3161.50,5,WP,1,0,0,0,0,0,0,1654648379355,4006,3982,3989,3986,0,0,27,,,,,,,0,0,0,-32.00,-4.00,-1759.00,0.00,0.00,-1748.00,14,19.00,11.00,20.23,-11.00,0.00,0.00,0,,,100,100,0,2,0,0,0,1,0,,,,,0.0,0.0,0.0,0.0,0.0,0.0,0
34.182571,-118.129092,1.90,2.00,1.00,2.15,1.90,1.90,1.60,2.15,6603,2022-06-08 00:32:59.456,2022-06-07 17:32:59.456,15,0,0,15.739,34.182590,-118.129089,-1.00,0.00,0.00,3.10,-0.40,-176.00,0,1,0,68,100,-7573,2434,15739,3161.50,5,WP,1,0,0,0,0,0,0,1654648379455,4006,3982,3989,3986,0,0,27,,,,,,,0,0,0,-31.00,-4.00,-1760.00,0.00,0.00,-1748.00,14,19.00,10.00,21.46,-10.00,0.00,0.00,0,,,100,100,0,2,0,0,0,1,0,,,,,0.0,0.0,0.0,0.0,0.0,0.0,0
34.182570,-118.129092,1.90,2.00,0.90,2.25,1.90,1.90,1.60,2.25,6754,2022-06-08 00:32:59.606,2022-06-07 17:32:59.607,15,0,0,15.739,34.182590,-118.129089,-0.90,0.00,0.00,2.70,-0.20,-175.90,0,1,0,68,100,-7573,2434,15739,3161.50,5,WP,1,0,0,0,0,0,0,1654648379606,4006,3982,3989,3986,0,0,27,,,,,,,0,0,0,-27.00,-2.00,-1759.00,0.00,0.00,-1748.00,14,19.00,9.00,22.48,-9.00,0.00,0.00,0,,,100,100,0,2,0,0,0,1,0,,,,,0.0,0.0,0.0,0.0,0.0,0.0,0
34.182569,-118.129091,1.80,2.00,0.90,2.33,1.90,1.90,1.60,2.33,6803,2022-06-08 00:32:59.656,2022-06-07 17:32:59.656,15,0,0,15.739,34.182590,-118.129089,-0.90,0.00,0.00,2.00,0.10,-176.00,0,1,0,68,100,-7573,2434,15739,3161.50,5,WP,1,0,0,0,0,0,0,1654648379655,4006,3982,3989,3986,0,0,27,,,,,,,0,0,0,-20.00,1.00,-1760.00,0.00,0.00,-1748.00,14,18.00,9.00,23.29,-9.00,0.00,0.00,0,,,100,100,0,2,0,0,0,1,0,,,,,0.0,0.0,0.0,0.0,0.0,0.0,0
34.182568,-118.129092,1.80,2.00,0.80,2.42,1.90,1.90,1.60,2.42,6904,2022-06-08 00:32:59.757,2022-06-07 17:32:59.757,15,0,0,15.739,34.182590,-118.129089,-0.80,0.00,0.00,1.80,0.10,-176.00,0,1,0,68,100,-7573,2434,15739,3161.50,5,WP,1,0,0,0,0,0,0,1654648379756,4006,3982,3989,3986,0,0,27,,,,,,,0,0,0,-18.00,1.00,-1760.00,0.00,0.00,-1748.00,14,18.00,8.00,24.17,-8.00,0.00,0.00,0,,,100,100,0,2,0,0,0,1,0,,,,,0.0,0.0,0.0,0.0,0.0,0.0,0
34.182568,-118.129091,1.80,2.00,0.80,2.50,1.90,1.90,1.60,2.50,7004,2022-06-08 00:32:59.857,2022-06-07 17:32:59.857,15,0,0,15.739,34.182590,-118.129089,-0.80,0.00,0.00,1.80,0.50,-176.00,0,1,0,68,100,-7573,2434,15739,3161.50,5,WP,1,0,0,0,0,0,0,1654648379856,4006,3982,3989,3986,0,0,27,,,,,,,0,0,0,-18.00,5.00,-1760.00,0.00,0.00,-1748.00,14,18.00,8.00,25.02,-8.00,0.00,0.00,0,,,100,100,0,2,0,0,0,1,0,,,,,0.0,0.0,0.0,0.0,0.0,0.0,0
34.182567,-118.129091,1.80,2.00,0.70,2.58,1.90,1.90,1.60,2.58,7103,2022-06-08 00:32:59.956,2022-06-07 17:32:59.956,15,0,0,15.739,34.182590,-118.129089,-0.70,0.00,0.00,1.70,0.40,-176.00,0,1,0,68,100,-7573,2434,15739,3161.50,5,WP,1,0,0,0,0,0,0,1654648379955,4006,3982,3989,3986,0,0,27,,,,,,,0,0,0,-17.00,4.00,-1760.00,0.00,0.00,-1748.00,14,18.00,7.00,25.80,-7.00,0.00,0.00,0,,,100,100,0,2,0,0,0,1,0,,,,,0.0,0.0,0.0,0.0,0.0,0.0,0
34.182566,-118.129091,1.80,2.00,0.70,2.66,1.90,1.90,1.60,2.66,7204,2022-06-08 00:33:00.057,2022-06-07 17:33:00.057,15,0,0,15.739,34.182590,-118.129089,-0.70,0.00,0.00,2.40,0.60,-176.10,0,1,0,68,100,-7573,2434,15739,3161.50,5,WP,1,0,0,0,0,0,0,1654648380056,4006,3982,3989,3986,0,0,27,,,,,,,0,0,0,-24.00,6.00,-1761.00,0.00,0.00,-1749.00,14,18.00,7.00,26.64,-7.00,0.00,0.00,0,,,100,100,0,2,0,0,0,1,0,,,,,0.0,0.0,0.0,0.0,0.0,0.0,0
34.182566,-118.129091,1.80,2.00,0.60,2.73,1.90,1.90,1.60,2.73,7304,2022-06-08 00:33:00.156,2022-06-07 17:33:00.156,15,0,0,15.739,34.182590,-118.129089,-0.60,0.00,0.00,3.00,0.70,-176.00,0,1,0,68,100,-7573,2434,15739,3161.50,5,WP,1,0,0,0,0,0,0,1654648380156,4006,3982,3989,3986,0,0,27,,,,,,,0,0,0,-30.00,7.00,-1760.00,0.00,0.00,-1749.00,14,18.00,6.00,27.32,-6.00,0.00,0.00,0,,,100,100,0,2,0,0,0,1,0,,,,,0.0,0.0,0.0,0.0,0.0,0.0,0
34.182565,-118.129091,1.80,2.00,0.50,2.79,1.90,1.90,1.60,2.79,7405,2022-06-08 00:33:00.258,2022-06-07 17:33:00.258,15,0,0,15.723,34.182590,-118.129089,-0.50,0.00,0.00,3.20,1.00,-176.00,0,1,0,67,100,-7490,2430,15723,3171.50,5,WP,1,0,0,0,0,0,0,1654648380257,3938,3926,3932,3929,0,0,27,,,,,,,0,0,0,-32.00,10.00,-1760.00,0.00,0.00,-1749.00,14,18.00,5.00,27.87,-5.00,0.00,0.00,0,,,100,100,0,2,0,0,0,1,0,,,,,0.0,0.0,0.0,0.0,0.0,0.0,0
34.182565,-118.129091,1.80,2.00,0.50,2.84,1.90,1.90,1.60,2.84,7505,2022-06-08 00:33:00.358,2022-06-07 17:33:00.358,15,0,0,15.723,34.182590,-118.129089,-0.50,0.00,0.00,3.30,1.10,-176.00,0,1,0,67,100,-7490,2430,15723,3171.50,5,WP,1,0,0,0,0,0,0,1654648380357,3938,3926,3932,3929,0,0,27,,,,,,,0,0,0,-33.00,11.00,-1760.00,0.00,0.00,-1749.00,14,18.00,5.00,28.41,-5.00,0.00,0.00,0,,,100,100,0,2,0,0,0,1,0,,,,,0.0,0.0,0.0,0.0,0.0,0.0,0
34.182564,-118.129091,1.80,2.00,0.40,2.90,1.90,1.90,1.60,2.90,7604,2022-06-08 00:33:00.456,2022-06-07 17:33:00.456,15,0,0,15.723,34.182590,-118.129089,-0.40,0.00,0.00,3.50,1.10,-176.10,0,1,0,67,100,-7490,2430,15723,3171.50,5,WP,1,0,0,0,0,0,0,1654648380456,3938,3926,3932,3929,0,0,27,,,,,,,0,0,0,-35.00,11.00,-1761.00,0.00,0.00,-1749.00,14,18.00,4.00,28.99,-4.00,0.00,0.00,0,,,100,100,0,2,0,0,0,1,0,,,,,0.0,0.0,0.0,0.0,0.0,0.0,0
34.182564,-118.129091,1.80,1.90,0.30,2.94,1.90,1.90,1.60,2.94,7704,2022-06-08 00:33:00.557,2022-06-07 17:33:00.557,15,0,0,15.723,34.182590,-118.129089,-0.30,0.00,0.00,5.00,1.40,-176.00,0,1,0,67,100,-7490,2430,15723,3171.50,5,WP,1,0,0,0,0,0,0,1654648380556,3938,3926,3932,3929,0,0,27,,,,,,,0,0,0,-50.00,14.00,-1760.00,0.00,0.00,-1749.00,14,18.00,3.00,29.39,-3.00,0.00,0.00,0,,,100,100,0,2,0,0,0,1,0,,,,,0.0,0.0,0.0,0.0,0.0,0.0,0
34.182563,-118.129091,1.80,1.90,0.20,2.97,1.90,1.90,1.60,2.97,7805,2022-06-08 00:33:00.658,2022-06-07 17:33:00.658,15,0,0,15.723,34.182590,-118.129089,-0.20,0.00,0.00,4.70,1.40,-176.20,0,1,0,67,100,-7490,2430,15723,3171.50,5,WP,1,0,0,0,0,0,0,1654648380657,3938,3926,3932,3929,0,0,27,,,,,,,0,0,0,-47.00,14.00,-1762.00,0.00,0.00,-1749.00,14,18.00,2.00,29.65,-2.00,0.00,0.00,0,,,100,100,0,2,0,0,0,1,0,,,,,0.0,0.0,0.0,0.0,0.0,0.0,0
34.182563,-118.129091,1.80,2.00,0.10,2.99,1.90,1.90,1.60,2.99,7904,2022-06-08 00:33:00.757,2022-06-07 17:33:00.757,15,0,0,15.723,34.182590,-118.129089,-0.10,0.00,0.00,3.10,0.80,-176.40,0,1,0,67,100,-7490,2430,15723,3171.50,5,WP,1,0,0,0,0,0,0,1654648380756,3938,3926,3932,3929,0,0,27,,,,,,,0,0,0,-31.00,8.00,-1764.00,0.00,0.00,-1749.00,14,18.00,1.00,29.87,-1.00,0.00,0.00,0,,,100,100,0,2,0,0,0,1,0,,,,,0.0,0.0,0.0,0.0,0.0,0.0,0
34.182563,-118.129091,1.80,2.00,0.10,2.99,1.90,1.90,1.60,2.99,8005,2022-06-08 00:33:00.858,2022-06-07 17:33:00.858,15,0,0,15.723,34.182590,-118.129089,-0.10,0.00,0.00,1.90,0.30,-175.00,0,1,0,67,100,-7490,2430,15723,3171.50,5,WP,1,0,0,0,0,0,0,1654648380857,3938,3926,3932,3929,0,0,27,,,,,,,0,0,0,-19.00,3.00,-1750.00,0.00,0.00,-1749.00,14,18.00,1.00,29.89,-1.00,0.00,0.00,0,,,100,100,0,2,0,0,0,1,0,,,,,0.0,0.0,0.0,0.0,0.0,0.0,0
34.182563,-118.129091,1.80,2.00,0.00,3.00,1.90,1.90,1.60,3.00,8105,2022-06-08 00:33:00.958,2022-06-07 17:33:00.958,15,0,0,15.723,34.182590,-118.129089,0.00,0.00,0.00,1.10,0.40,-167.30,0,1,0,67,100,-7490,2430,15723,3171.50,5,WP,1,0,0,0,0,0,0,1654648380957,3938,3926,3932,3929,0,0,27,,,,,,,0,0,0,-11.00,4.00,-1673.00,0.00,0.00,-1748.00,14,18.00,0.00,29.99,0.00,0.00,0.00,0,,,100,100,0,2,0,0,0,1,0,,,,,0.0,0.0,0.0,0.0,0.0,0.0,0
34.182563,-118.129091,1.80,2.00,0.00,3.01,1.90,1.90,1.60,3.01,8206,2022-06-08 00:33:01.058,2022-06-07 17:33:01.058,15,0,0,15.723,34.182590,-118.129089,0.00,0.00,0.00,0.60,0.50,-159.70,0,1,0,67,100,-7490,2430,15723,3171.50,5,WP,1,0,0,0,0,0,0,1654648381058,3938,3926,3932,3929,0,0,27,,,,,,,0,0,0,-6.00,5.00,-1597.00,0.00,0.00,-1711.00,14,18.00,0.00,30.11,0.00,0.00,0.00,0,,,100,100,0,2,0,0,0,1,0,,,,,0.0,0.0,0.0,0.0,0.0,0.0,0
34.182563,-118.129091,1.80,2.00,0.00,3.01,1.90,1.90,1.60,3.01,8306,2022-06-08 00:33:01.158,2022-06-07 17:33:01.158,15,0,0,15.723,34.182590,-118.129089,0.00,0.00,0.00,0.20,0.50,-152.20,0,1,0,67,100,-7490,2430,15723,3171.50,5,WP,1,0,0,0,0,0,0,1654648381158,3938,3926,3932,3929,0,0,27,,,,,,,0,0,0,-2.00,5.00,-1522.00,0.00,0.00,-1630.00,14,18.00,0.00,30.15,0.00,0.00,0.00,0,,,100,100,0,2,0,0,0,1,0,,,,,0.0,0.0,0.0,0.0,0.0,0.0,0
34.182563,-118.129091,1.80,2.00,0.00,3.00,1.90,1.90,1.60,3.01,8406,2022-06-08 00:33:01.258,2022-06-07 17:33:01.258,15,0,0,15.723,34.182590,-118.129089,0.00,0.00,0.00,0.10,0.40,-144.80,0,1,0,67,100,-7490,2430,15723,3171.50,5,WP,1,0,0,0,0,0,0,1654648381258,3938,3926,3932,3929,0,0,27,,,,,,,0,0,0,-1.00,4.00,-1448.00,0.00,0.00,-1546.00,14,18.00,0.00,30.02,0.00,0.00,0.00,0,,,100,100,0,2,0,0,0,1,0,,,,,0.0,0.0,0.0,0.0,0.0,0.0,0
34.182563,-118.129091,1.80,2.00,0.00,3.00,1.90,1.90,1.60,3.01,8506,2022-06-08 00:33:01.358,2022-06-07 17:33:01.359,15,0,0,15.723,34.182590,-118.129089,0.00,0.00,0.00,0.00,0.30,-137.20,0,1,0,67,100,-7490,2430,15723,3171.50,5,WP,1,0,0,0,0,0,0,1654648381358,3938,3926,3932,3929,0,0,27,,,,,,,0,0,0,-0.00,3.00,-1372.00,0.00,0.00,-1464.00,14,18.00,0.00,30.02,0.00,0.00,0.00,0,,,100,100,0,2,0,0,0,1,0,,,,,0.0,0.0,0.0,0.0,0.0,0.0,0
34.182563,-118.129091,1.80,2.00,0.00,3.00,1.90,1.90,1.60,3.01,8607,2022-06-08 00:33:01.459,2022-06-07 17:33:01.459,15,0,0,15.723,34.182590,-118.129089,0.00,0.00,0.00,-0.10,0.00,-129.80,0,1,0,67,100,-7490,2430,15723,3171.50,5,WP,1,0,0,0,0,0,0,1654648381459,3938,3926,3932,3929,0,0,27,,,,,,,0,0,0,1.00,0.00,-1298.00,0.00,0.00,-1385.00,14,18.00,0.00,30.02,0.00,0.00,0.00,0,,,100,100,0,2,0,0,0,1,0,,,,,0.0,0.0,0.0,0.0,0.0,0.0,0
34.182563,-118.129091,1.80,2.00,0.00,3.00,1.90,1.90,1.60,3.01,8687,2022-06-08 00:33:01.540,2022-06-07 17:33:01.540,15,0,0,15.723,34.182590,-118.129089,0.00,0.00,0.00,-0.10,-0.30,-122.30,0,1,0,67,100,-7490,2430,15723,3171.50,5,WP,1,0,0,0,0,0,0,1654648381539,3938,3926,3932,3929,0,0,27,,,,,,,0,0,0,1.00,-3.00,-1223.00,0.00,0.00,-1307.00,14,18.00,0.00,29.99,0.00,0.00,0.00,0,,,100,100,0,2,0,0,0,1,0,,,,,0.0,0.0,0.0,0.0,0.0,0.0,0
34.182563,-118.129091,1.80,2.00,0.00,2.98,1.90,1.90,1.60,3.01,8805,2022-06-08 00:33:01.658,2022-06-07 17:33:01.658,15,0,0,15.723,34.182590,-118.129089,0.00,0.00,0.00,0.00,-0.70,-114.80,0,1,0,67,100,-7490,2430,15723,3171.50,5,WP,1,0,0,0,0,0,0,1654648381657,3938,3926,3932,3929,0,0,27,,,,,,,0,0,0,-0.00,-7.00,-1148.00,0.00,0.00,-1229.00,14,18.00,0.00,29.81,0.00,0.00,0.00,0,,,100,100,0,2,0,0,0,1,0,,,,,0.0,0.0,0.0,0.0,0.0,0.0,0
34.182563,-118.129091,1.80,2.00,0.00,2.97,1.90,1.90,1.60,3.01,8907,2022-06-08 00:33:01.760,2022-06-07 17:33:01.760,15,0,0,15.723,34.182590,-118.129089,0.00,0.00,0.00,0.10,-0.80,-107.30,0,1,0,67,100,-7490,2430,15723,3171.50,5,WP,1,0,0,0,0,0,0,1654648381759,3938,3926,3932,3929,0,0,27,,,,,,,0,0,0,-1.00,-8.00,-1073.00,0.00,0.00,-1153.00,14,18.00,0.00,29.75,0.00,0.00,0.00,0,,,100,100,0,2,0,0,0,1,0,,,,,0.0,0.0,0.0,0.0,0.0,0.0,0
34.182564,-118.129091,1.80,2.00,0.00,2.95,1.90,1.90,1.60,3.01,9006,2022-06-08 00:33:01.859,2022-06-07 17:33:01.859,15,0,0,15.723,34.182590,-118.129089,0.00,0.00,0.00,0.10,-1.00,-100.00,0,1,0,67,100,-7490,2430,15723,3171.50,5,WP,1,0,0,0,0,0,0,1654648381858,3938,3926,3932,3929,0,0,27,,,,,,,0,0,0,-1.00,-10.00,-1000.00,0.00,0.00,-1078.00,14,18.00,0.00,29.55,0.00,0.00,0.00,0,,,100,100,0,2,0,0,0,1,0,,,,,0.0,0.0,0.0,0.0,0.0,0.0,0
34.182564,-118.129091,1.80,1.90,0.00,2.95,1.90,1.90,1.60,3.01,9106,2022-06-08 00:33:01.958,2022-06-07 17:33:01.958,15,0,0,15.723,34.182590,-118.129089,0.00,0.00,0.00,0.20,-1.10,-92.60,0,1,0,67,100,-7490,2430,15723,3171.50,5,WP,1,0,0,0,0,0,0,1654648381958,3938,3926,3932,3929,0,0,27,,,,,,,0,0,0,-2.00,-11.00,-926.00,0.00,0.00,-1003.00,14,18.00,0.00,29.46,0.00,0.00,0.00,0,,,100,100,0,2,0,0,0,1,0,,,,,0.0,0.0,0.0,0.0,0.0,0.0,0
34.182564,-118.129091,1.80,1.90,0.00,2.94,1.90,1.90,1.60,3.01,9207,2022-06-08 00:33:02.060,2022-06-07 17:33:02.060,15,0,0,15.723,34.182590,-118.129089,0.00,0.00,0.00,0.30,-1.20,-85.20,0,1,0,67,100,-7490,2430,15723,3171.50,5,WP,1,0,0,0,0,0,0,1654648382059,3938,3926,3932,3929,0,0,27,,,,,,,0,0,0,-3.00,-12.00,-852.00,0.00,0.00,-928.00,14,18.00,0.00,29.39,0.00,0.00,0.00,0,,,100,100,0,2,0,0,0,1,0,,,,,0.0,0.0,0.0,0.0,0.0,0.0,0
34.182564,-118.129091,1.80,1.90,0.00,2.93,1.90,1.90,1.60,3.01,9307,2022-06-08 00:33:02.160,2022-06-07 17:33:02.160,15,0,0,15.723,34.182590,-118.129089,0.00,0.00,0.00,0.40,-1.20,-77.80,0,1,0,67,100,-7490,2430,15723,3171.50,5,WP,1,0,0,0,0,0,0,1654648382159,3938,3926,3932,3929,0,0,27,,,,,,,0,0,0,-4.00,-12.00,-778.00,0.00,0.00,-853.00,14,18.00,0.00,29.30,0.00,0.00,0.00,0,,,100,100,0,2,0,0,0,1,0,,,,,0.0,0.0,0.0,0.0,0.0,0.0,0
34.182564,-118.129091,1.80,2.00,0.00,2.93,1.90,1.90,1.60,3.01,9407,2022-06-08 00:33:02.260,2022-06-07 17:33:02.260,15,0,0,15.723,34.182590,-118.129089,0.00,0.00,0.00,0.30,-1.00,-70.30,0,1,0,67,100,-7490,2430,15723,3171.50,5,WP,1,0,0,0,0,0,0,1654648382259,3938,3926,3932,3929,0,0,27,,,,,,,0,0,0,-3.00,-10.00,-703.00,0.00,0.00,-778.00,14,18.00,0.00,29.28,0.00,0.00,0.00,0,,,100,100,0,2,0,0,0,1,0,,,,,0.0,0.0,0.0,0.0,0.0,0.0,0
34.182564,-118.129091,1.80,2.00,0.00,2.92,1.90,1.90,1.60,3.01,9507,2022-06-08 00:33:02.360,2022-06-07 17:33:02.360,15,0,0,15.699,34.182590,-118.129089,0.00,0.00,0.00,0.50,-1.00,-62.80,0,1,0,67,100,-8040,2426,15699,3171.50,5,WP,1,0,0,0,0,0,0,1654648382359,3938,3926,3932,3929,0,0,27,,,,,,,0,0,0,-5.00,-10.00,-628.00,0.00,0.00,-778.00,14,18.00,0.00,29.20,0.00,0.00,0.00,0,,,100,100,0,2,0,0,0,1,0,,,,,0.0,0.0,0.0,0.0,0.0,0.0,0
34.182564,-118.129091,1.80,1.90,0.00,2.90,1.90,1.90,1.60,3.01,9607,2022-06-08 00:33:02.459,2022-06-07 17:33:02.459,15,0,0,15.699,34.182590,-118.129089,0.00,0.00,0.00,0.50,-1.00,-55.40,0,1,0,67,100,-8040,2426,15699,3171.50,5,WP,1,0,0,0,0,0,0,1654648382459,3938,3926,3932,3929,0,0,27,,,,,,,0,0,0,-5.00,-10.00,-554.00,0.00,0.00,-628.00,14,18.00,0.00,29.00,0.00,0.00,0.00,0,,,100,100,0,2,0,0,0,1,0,,,,,0.0,0.0,0.0,0.0,0.0,0.0,0
34.182564,-118.129091,1.80,2.00,0.00,2.89,1.90,1.90,1.60,3.01,9707,2022-06-08 00:33:02.560,2022-06-07 17:33:02.560,15,0,0,15.699,34.182590,-118.129089,0.00,0.00,0.00,0.60,-1.10,-48.00,0,1,0,67,100,-8040,2426,15699,3171.50,5,WP,1,0,0,0,0,0,0,1654648382559,3938,3926,3932,3929,0,0,27,,,,,,,0,0,0,-6.00,-11.00,-480.00,0.00,0.00,-554.00,14,18.00,0.00,28.90,0.00,0.00,0.00,0,,,100,100,0,2,0,0,0,1,0,,,,,0.0,0.0,0.0,0.0,0.0,0.0,0
34.182564,-118.129091,1.80,2.00,0.00,2.89,1.90,1.90,1.60,3.01,9807,2022-06-08 00:33:02.660,2022-06-07 17:33:02.660,15,0,0,15.699,34.182590,-118.129089,0.00,0.00,0.00,0.80,-1.20,-40.60,0,1,0,67,100,-8040,2426,15699,3171.50,5,WP,1,0,0,0,0,0,0,1654648382659,3938,3926,3932,3929,0,0,27,,,,,,,0,0,0,-8.00,-12.00,-406.00,0.00,0.00,-479.00,14,18.00,0.00,28.89,0.00,0.00,0.00,0,,,100,100,0,2,0,0,0,1,0,,,,,0.0,0.0,0.0,0.0,0.0,0.0,0
34.182564,-118.129091,1.80,1.90,0.00,2.88,1.90,1.90,1.60,3.01,9907,2022-06-08 00:33:02.760,2022-06-07 17:33:02.760,15,0,0,15.699,34.182590,-118.129089,0.00,0.00,0.00,1.00,-1.10,-33.10,0,1,0,67,100,-8040,2426,15699,3171.50,5,WP,1,0,0,0,0,0,0,1654648382759,3938,3926,3932,3929,0,0,27,,,,,,,0,0,0,-10.00,-11.00,-331.00,0.00,0.00,-405.00,14,18.00,0.00,28.79,0.00,0.00,0.00,0,,,100,100,0,2,0,0,0,1,0,,,,,0.0,0.0,0.0,0.0,0.0,0.0,0
34.182564,-118.129091,1.80,2.00,0.00,2.88,1.90,1.90,1.60,3.01,10007,2022-06-08 00:33:02.860,2022-06-07 17:33:02.860,15,0,0,15.699,34.182590,-118.129089,0.00,0.00,0.00,1.20,-0.90,-26.70,0,1,0,67,100,-8040,2426,15699,3171.50,5,WP,1,0,0,0,0,0,0,1654648382859,3938,3926,3932,3929,0,0,27,,,,,,,0,0,0,-12.00,-9.00,-267.00,0.00,0.00,-332.00,14,18.00,0.00,28.78,0.00,0.00,0.00,0,,,100,100,0,2,0,0,0,1,0,,,,,0.0,0.0,0.0,0.0,0.0,0.0,0
34.182564,-118.129091,1.80,2.00,0.00,2.87,1.90,1.90,1.60,3.01,10108,2022-06-08 00:33:02.960,2022-06-07 17:33:02.960,15,0,0,15.699,34.182590,-118.129089,0.00,0.00,0.00,1.30,-0.90,-21.60,0,1,0,67,100,-8040,2426,15699,3171.50,5,WP,1,0,0,0,0,0,0,1654648382960,3938,3926,3932,3929,0,0,27,,,,,,,0,0,0,-13.00,-9.00,-216.00,0.00,0.00,-269.00,14,18.00,0.00,28.69,0.00,0.00,0.00,0,,,100,100,0,2,0,0,0,1,0,,,,,0.0,0.0,0.0,0.0,0.0,0.0,0
34.182564,-118.129091,1.80,2.00,0.00,2.88,1.90,1.90,1.60,3.01,10207,2022-06-08 00:33:03.060,2022-06-07 17:33:03.060,15,0,0,15.699,34.182590,-118.129089,0.00,0.00,0.00,1.40,-0.90,-17.40,0,1,0,67,100,-8040,2426,15699,3171.50,5,WP,1,0,0,0,0,0,0,1654648383059,3938,3926,3932,3929,0,0,27,,,,,,,0,0,0,-14.00,-9.00,-174.00,0.00,0.00,-218.00,14,18.00,0.00,28.82,0.00,0.00,0.00,0,,,100,100,0,2,0,0,0,1,0,,,,,0.0,0.0,0.0,0.0,0.0,0.0,0
34.182564,-118.129091,1.80,2.00,0.00,2.88,1.90,1.90,1.60,3.01,10307,2022-06-08 00:33:03.160,2022-06-07 17:33:03.160,15,0,0,15.699,34.182590,-118.129089,0.00,0.00,0.00,1.50,-1.00,-14.10,0,1,0,67,100,-8040,2426,15699,3171.50,5,WP,1,0,0,0,0,0,0,1654648383159,3938,3926,3932,3929,0,0,27,,,,,,,0,0,0,-15.00,-10.00,-141.00,0.00,0.00,-177.00,14,18.00,0.00,28.76,0.00,0.00,0.00,0,,,100,100,0,2,0,0,0,1,0,,,,,0.0,0.0,0.0,0.0,0.0,0.0,0
34.182564,-118.129091,1.90,2.00,0.00,2.87,1.90,1.90,1.60,3.01,10407,2022-06-08 00:33:03.259,2022-06-07 17:33:03.259,15,0,0,15.699,34.182590,-118.129089,0.00,0.00,0.00,1.60,-0.90,-11.40,0,1,0,67,100,-8040,2426,15699,3171.50,5,WP,1,0,0,0,0,0,0,1654648383259,3938,3926,3932,3929,0,0,27,,,,,,,0,0,0,-16.00,-9.00,-114.00,0.00,0.00,-143.00,14,19.00,0.00,28.67,0.00,0.00,0.00,0,,,100,100,0,2,0,0,0,1,0,,,,,0.0,0.0,0.0,0.0,0.0,0.0,0
34.182564,-118.129091,1.90,2.00,0.00,2.86,1.90,1.90,1.60,3.01,10507,2022-06-08 00:33:03.360,2022-06-07 17:33:03.360,15,0,0,15.699,34.182590,-118.129089,0.00,0.00,0.00,1.60,-0.80,-9.20,0,1,0,67,100,-8040,2426,15699,3171.50,5,WP,1,0,0,0,0,0,0,1654648383359,3938,3926,3932,3929,0,0,27,,,,,,,0,0,0,-16.00,-8.00,-92.00,0.00,0.00,-116.00,14,19.00,0.00,28.62,0.00,0.00,0.00,0,,,100,100,0,2,0,0,0,1,0,,,,,0.0,0.0,0.0,0.0,0.0,0.0,0
34.182564,-118.129091,1.90,2.00,0.00,2.87,1.90,1.90,1.60,3.01,10607,2022-06-08 00:33:03.460,2022-06-07 17:33:03.460,15,0,0,15.699,34.182590,-118.129089,0.00,0.00,0.00,1.60,-0.80,-7.50,0,1,0,67,100,-8040,2426,15699,3171.50,5,WP,1,0,0,0,0,0,0,1654648383459,3938,3926,3932,3929,0,0,27,,,,,,,0,0,0,-16.00,-8.00,-75.00,0.00,0.00,-95.00,14,19.00,0.00,28.65,0.00,0.00,0.00,0,,,100,100,0,2,0,0,0,1,0,,,,,0.0,0.0,0.0,0.0,0.0,0.0,0
34.182564,-118.129091,1.90,2.00,0.00,2.86,1.90,1.90,1.60,3.01,10707,2022-06-08 00:33:03.560,2022-06-07 17:33:03.560,15,0,0,15.699,34.182590,-118.129089,0.00,0.00,0.00,1.60,-0.90,-6.00,0,1,0,67,100,-8040,2426,15699,3171.50,5,WP,1,0,0,0,0,0,0,1654648383559,3938,3926,3932,3929,0,0,27,,,,,,,0,0,0,-16.00,-9.00,-60.00,0.00,0.00,-77.00,14,19.00,0.00,28.62,0.00,0.00,0.00,0,,,100,100,0,2,0,0,0,1,0,,,,,0.0,0.0,0.0,0.0,0.0,0.0,0
34.182564,-118.129091,1.90,2.00,0.00,2.88,1.90,1.90,1.60,3.01,10807,2022-06-08 00:33:03.660,2022-06-07 17:33:03.660,15,0,0,15.699,34.182590,-118.129089,0.00,0.00,0.00,1.50,-0.80,-4.80,0,1,0,67,100,-8040,2426,15699,3171.50,5,WP,1,0,0,0,0,0,0,1654648383659,3938,3926,3932,3929,0,0,27,,,,,,,0,0,0,-15.00,-8.00,-48.00,0.00,0.00,-63.00,14,19.00,0.00,28.77,0.00,0.00,0.00,0,,,100,100,0,2,0,0,0,1,0,,,,,0.0,0.0,0.0,0.0,0.0,0.0,0
34.182564,-118.129091,1.90,2.00,0.00,2.88,1.90,1.90,1.60,3.01,10907,2022-06-08 00:33:03.760,2022-06-07 17:33:03.760,15,0,0,15.699,34.182590,-118.129089,0.00,0.00,0.00,0.50,-1.40,-3.30,0,1,0,67,100,-8040,2426,15699,3171.50,5,WP,1,0,0,0,0,0,0,1654648383759,3938,3926,3932,3929,0,0,27,,,,,,,0,0,0,-5.00,-14.00,-33.00,0.00,0.00,-51.00,14,19.00,0.00,28.76,0.00,0.00,0.00,0,,,100,100,0,2,0,0,0,1,0,,,,,0.0,0.0,0.0,0.0,0.0,0.0,0
34.182564,-118.129091,1.90,2.00,0.00,2.87,1.90,1.90,1.60,3.01,11007,2022-06-08 00:33:03.860,2022-06-07 17:33:03.860,15,0,0,15.699,34.182590,-118.129089,0.00,0.00,0.00,0.40,-1.40,-0.90,0,1,0,67,100,-8040,2426,15699,3171.50,5,WP,1,0,0,0,0,0,0,1654648383859,3938,3926,3932,3929,0,0,27,,,,,,,0,0,0,-4.00,-14.00,-9.00,0.00,0.00,-38.00,14,19.00,0.00,28.67,0.00,0.00,0.00,0,,,100,100,0,2,0,0,0,1,0,,,,,0.0,0.0,0.0,0.0,0.0,0.0,0
34.182564,-118.129091,1.90,2.00,0.00,2.87,1.90,1.90,1.60,3.01,11107,2022-06-08 00:33:03.960,2022-06-07 17:33:03.960,15,0,0,15.699,34.182590,-118.129089,0.00,0.00,0.00,0.70,-1.10,0.70,0,1,0,67,100,-8040,2426,15699,3171.50,5,WP,1,0,0,0,0,0,0,1654648383959,3938,3926,3932,3929,0,0,27,,,,,,,0,0,0,-7.00,-11.00,7.00,0.00,0.00,-18.00,14,19.00,0.00,28.65,0.00,0.00,0.00,0,,,100,100,0,2,0,0,0,1,0,,,,,0.0,0.0,0.0,0.0,0.0,0.0,0
34.182564,-118.129091,1.90,2.00,0.00,2.87,1.90,1.90,1.60,3.01,11207,2022-06-08 00:33:04.059,2022-06-07 17:33:04.059,15,0,0,15.699,34.182590,-118.129089,0.00,0.00,0.00,0.80,-0.90,1.90,0,1,0,67,100,-8040,2426,15699,3171.50,5,WP,1,0,0,0,0,0,0,1654648384059,3938,3926,3932,3929,0,0,27,,,,,,,0,0,0,-8.00,-9.00,19.00,0.00,0.00,-1.00,14,19.00,0.00,28.68,0.00,0.00,0.00,0,,,100,100,0,2,0,0,0,1,0,,,,,0.0,0.0,0.0,0.0,0.0,0.0,0
34.182564,-118.129091,1.90,2.00,0.00,2.87,1.90,1.90,1.60,3.01,11308,2022-06-08 00:33:04.160,2022-06-07 17:33:04.160,15,0,0,15.699,34.182590,-118.129089,0.00,0.00,0.00,0.90,-0.90,2.70,0,1,0,67,100,-8040,2426,15699,3171.50,5,WP,1,0,0,0,0,0,0,1654648384160,3938,3926,3932,3929,0,0,27,,,,,,,0,0,0,-9.00,-9.00,27.00,0.00,0.00,10.00,14,19.00,0.00,28.66,0.00,0.00,0.00,0,,,100,100,0,2,0,0,0,1,0,,,,,0.0,0.0,0.0,0.0,0.0,0.0,0
34.182564,-118.129091,1.90,2.00,0.00,2.87,1.90,1.90,1.60,3.01,11408,2022-06-08 00:33:04.260,2022-06-07 17:33:04.260,15,0,0,15.699,34.182590,-118.129089,0.00,0.00,0.00,0.90,-0.80,3.30,0,1,0,67,100,-8040,2426,15699,3171.50,5,WP,1,0,0,0,0,0,0,1654648384260,3938,3926,3932,3929,0,0,27,,,,,,,0,0,0,-9.00,-8.00,33.00,0.00,0.00,19.00,14,19.00,0.00,28.67,0.00,0.00,0.00,0,,,100,100,0,2,0,0,0,1,0,,,,,0.0,0.0,0.0,0.0,0.0,0.0,0
34.182564,-118.129091,1.90,2.00,0.00,2.87,1.90,1.90,1.60,3.01,11508,2022-06-08 00:33:04.360,2022-06-07 17:33:04.360,15,0,0,15.686,34.182590,-118.129089,0.00,0.00,0.00,1.00,-0.80,3.70,0,1,0,67,100,-7814,2421,15686,3171.50,5,WP,1,0,0,0,0,0,0,1654648384360,3938,3926,3932,3929,0,0,27,,,,,,,0,0,0,-10.00,-8.00,37.00,0.00,0.00,26.00,14,19.00,0.00,28.65,0.00,0.00,0.00,0,,,100,100,0,2,0,0,0,1,0,,,,,0.0,0.0,0.0,0.0,0.0,0.0,0
34.182564,-118.129091,1.90,2.00,0.00,2.87,1.90,1.90,1.60,3.01,11608,2022-06-08 00:33:04.460,2022-06-07 17:33:04.460,15,0,0,15.686,34.182590,-118.129089,0.00,0.00,0.00,1.00,-0.70,4.00,0,1,0,67,100,-7814,2421,15686,3171.50,5,WP,1,0,0,0,0,0,0,1654648384460,3938,3926,3932,3929,0,0,27,,,,,,,0,0,0,-10.00,-7.00,40.00,0.00,0.00,30.00,14,19.00,0.00,28.69,0.00,0.00,0.00,0,,,100,100,0,2,0,0,0,1,0,,,,,0.0,0.0,0.0,0.0,0.0,0.0,0
34.182564,-118.129091,1.90,2.00,0.00,2.87,1.90,1.90,1.60,3.01,11709,2022-06-08 00:33:04.561,2022-06-07 17:33:04.561,15,0,0,15.686,34.182590,-118.129089,0.00,0.00,0.00,1.00,-0.60,4.20,0,1,0,67,100,-7814,2421,15686,3171.50,5,WP,1,0,0,0,0,0,0,1654648384561,3938,3926,3932,3929,0,0,27,,,,,,,0,0,0,-10.00,-6.00,42.00,0.00,0.00,33.00,14,19.00,0.00,28.67,0.00,0.00,0.00,0,,,100,100,0,2,0,0,0,1,0,,,,,0.0,0.0,0.0,0.0,0.0,0.0,0
34.182564,-118.129091,1.90,2.00,0.00,2.87,1.90,1.90,1.60,3.01,11809,2022-06-08 00:33:04.661,2022-06-07 17:33:04.661,15,0,0,15.686,34.182590,-118.129089,0.00,0.00,0.00,1.00,-0.50,4.30,0,1,0,67,100,-7814,2421,15686,3171.50,5,WP,1,0,0,0,0,0,0,1654648384661,3938,3926,3932,3929,0,0,27,,,,,,,0,0,0,-10.00,-5.00,43.00,0.00,0.00,35.00,14,19.00,0.00,28.71,0.00,0.00,0.00,0,,,100,100,0,2,0,0,0,1,0,,,,,0.0,0.0,0.0,0.0,0.0,0.0,0
34.182564,-118.129091,1.90,2.00,0.00,2.87,1.90,1.90,1.60,3.01,11909,2022-06-08 00:33:04.762,2022-06-07 17:33:04.762,15,0,0,15.686,34.182590,-118.129089,0.00,0.00,0.00,0.90,-0.50,4.40,0,1,0,67,100,-7814,2421,15686,3171.50,5,WP,1,0,0,0,0,0,0,1654648384761,3938,3926,3932,3929,0,0,27,,,,,,,0,0,0,-9.00,-5.00,44.00,0.00,0.00,37.00,14,19.00,0.00,28.70,0.00,0.00,0.00,0,,,100,100,0,2,0,0,0,1,0,,,,,0.0,0.0,0.0,0.0,0.0,0.0,0
34.182564,-118.129091,1.90,2.00,0.00,2.85,1.90,1.90,1.60,3.01,12010,2022-06-08 00:33:04.863,2022-06-07 17:33:04.863,15,0,0,15.686,34.182590,-118.129089,0.00,0.00,0.00,0.90,-0.50,4.60,0,1,0,67,100,-7814,2421,15686,3171.50,5,WP,1,0,0,0,0,0,0,1654648384862,3938,3926,3932,3929,0,0,27,,,,,,,0,0,0,-9.00,-5.00,46.00,0.00,0.00,39.00,14,19.00,0.00,28.55,0.00,0.00,0.00,0,,,100,100,0,2,0,0,0,1,0,,,,,0.0,0.0,0.0,0.0,0.0,0.0,0
34.182564,-118.129091,1.90,2.00,0.00,2.85,1.90,1.90,1.60,3.01,12112,2022-06-08 00:33:04.964,2022-06-07 17:33:04.964,15,0,0,15.686,34.182590,-118.129089,0.00,0.00,0.00,0.90,-0.60,4.70,0,1,0,67,100,-7814,2421,15686,3171.50,5,WP,1,0,0,0,0,0,0,1654648384964,3938,3926,3932,3929,0,0,27,,,,,,,0,0,0,-9.00,-6.00,47.00,0.00,0.00,41.00,14,19.00,0.00,28.53,0.00,0.00,0.00,0,,,100,100,0,2,0,0,0,1,0,,,,,0.0,0.0,0.0,0.0,0.0,0.0,0
34.182564,-118.129091,1.90,2.00,0.00,2.86,1.90,1.90,1.60,3.01,12213,2022-06-08 00:33:05.065,2022-06-07 17:33:05.065,15,0,0,15.686,34.182590,-118.129089,0.00,0.00,0.00,0.90,-0.80,4.80,0,1,0,67,100,-7814,2421,15686,3171.50,5,WP,1,0,0,0,0,0,0,1654648385065,3938,3926,3932,3929,0,0,27,,,,,,,0,0,0,-9.00,-8.00,48.00,0.00,0.00,42.00,14,19.00,0.00,28.57,0.00,0.00,0.00,0,,,100,100,0,2,0,0,0,1,0,,,,,0.0,0.0,0.0,0.0,0.0,0.0,0
34.182564,-118.129091,1.90,2.00,0.00,2.86,1.90,1.90,1.60,3.01,12313,2022-06-08 00:33:05.166,2022-06-07 17:33:05.166,15,0,0,15.686,34.182590,-118.129089,0.00,0.00,0.00,0.90,-0.90,4.90,0,1,0,67,100,-7814,2421,15686,3171.50,5,WP,1,0,0,0,0,0,0,1654648385165,3938,3926,3932,3929,0,0,27,,,,,,,0,0,0,-9.00,-9.00,49.00,0.00,0.00,44.00,14,19.00,0.00,28.56,0.00,0.00,0.00,0,,,100,100,0,2,0,0,0,1,0,,,,,0.0,0.0,0.0,0.0,0.0,0.0,0
34.182565,-118.129091,1.90,2.00,0.00,2.84,1.90,1.90,1.60,3.01,12409,2022-06-08 00:33:05.261,2022-06-07 17:33:05.261,15,0,0,15.686,34.182590,-118.129089,0.00,0.00,0.00,1.00,-0.90,4.90,0,1,0,67,100,-7814,2421,15686,3171.50,5,WP,1,0,0,0,0,0,0,1654648385261,3938,3926,3932,3929,0,0,27,,,,,,,0,0,0,-10.00,-9.00,49.00,0.00,0.00,45.00,14,19.00,0.00,28.43,0.00,0.00,0.00,0,,,100,100,0,2,0,0,0,1,0,,,,,0.0,0.0,0.0,0.0,0.0,0.0,0
34.182565,-118.129091,1.90,2.00,0.00,2.84,1.90,1.90,1.60,3.01,12509,2022-06-08 00:33:05.361,2022-06-07 17:33:05.361,15,0,0,15.686,34.182590,-118.129089,0.00,0.00,0.00,1.00,-0.90,5.00,0,1,0,67,100,-7814,2421,15686,3171.50,5,WP,1,0,0,0,0,0,0,1654648385361,3938,3926,3932,3929,0,0,27,,,,,,,0,0,0,-10.00,-9.00,50.00,0.00,0.00,47.00,14,19.00,0.00,28.40,0.00,0.00,0.00,0,,,100,100,0,2,0,0,0,1,0,,,,,0.0,0.0,0.0,0.0,0.0,0.0,0
34.182565,-118.129091,1.90,2.00,0.00,2.84,1.90,1.90,1.60,3.01,12609,2022-06-08 00:33:05.461,2022-06-07 17:33:05.461,15,0,0,15.686,34.182590,-118.129089,0.00,0.00,0.00,1.10,-0.90,5.00,0,1,0,67,100,-7814,2421,15686,3171.50,5,WP,1,0,0,0,0,0,0,1654648385461,3938,3926,3932,3929,0,0,27,,,,,,,0,0,0,-11.00,-9.00,50.00,0.00,0.00,48.00,14,19.00,0.00,28.44,0.00,0.00,0.00,0,,,100,100,0,2,0,0,0,1,0,,,,,0.0,0.0,0.0,0.0,0.0,0.0,0
34.182565,-118.129091,1.90,2.00,0.00,2.84,1.90,1.90,1.60,3.01,12708,2022-06-08 00:33:05.561,2022-06-07 17:33:05.561,15,0,0,15.686,34.182590,-118.129089,0.00,0.00,0.00,1.10,-0.90,5.10,0,1,0,67,100,-7814,2421,15686,3171.50,5,WP,1,0,0,0,0,0,0,1654648385560,3938,3926,3932,3929,0,0,27,,,,,,,0,0,0,-11.00,-9.00,51.00,0.00,0.00,49.00,14,19.00,0.00,28.42,0.00,0.00,0.00,0,,,100,100,0,2,0,0,0,1,0,,,,,0.0,0.0,0.0,0.0,0.0,0.0,0
34.182565,-118.129091,1.90,2.00,0.00,2.85,1.90,1.90,1.60,3.01,12809,2022-06-08 00:33:05.661,2022-06-07 17:33:05.661,15,0,0,15.686,34.182590,-118.129089,0.00,0.00,0.00,1.10,-0.90,5.10,0,1,0,67,100,-7814,2421,15686,3171.50,5,WP,1,0,0,0,0,0,0,1654648385661,3938,3926,3932,3929,0,0,27,,,,,,,0,0,0,-11.00,-9.00,51.00,0.00,0.00,50.00,14,19.00,0.00,28.46,0.00,0.00,0.00,0,,,100,100,0,2,0,0,0,1,0,,,,,0.0,0.0,0.0,0.0,0.0,0.0,0
34.182565,-118.129091,1.90,2.00,0.00,2.84,1.90,1.90,1.60,3.01,12908,2022-06-08 00:33:05.761,2022-06-07 17:33:05.761,15,0,0,15.686,34.182590,-118.129089,0.00,0.00,0.00,1.20,-0.90,5.20,0,1,0,67,100,-7814,2421,15686,3171.50,5,WP,1,0,0,0,0,0,0,1654648385760,3938,3926,3932,3929,0,0,27,,,,,,,0,0,0,-12.00,-9.00,52.00,0.00,0.00,51.00,14,19.00,0.00,28.44,0.00,0.00,0.00,0,,,100,100,0,2,0,0,0,1,0,,,,,0.0,0.0,0.0,0.0,0.0,0.0,0
34.182565,-118.129091,1.90,2.00,0.00,2.83,1.90,1.90,1.60,3.01,13009,2022-06-08 00:33:05.862,2022-06-07 17:33:05.862,15,0,0,15.686,34.182590,-118.129089,0.00,0.00,0.00,1.20,-0.80,5.20,0,1,0,67,100,-7814,2421,15686,3171.50,5,WP,1,0,0,0,0,0,0,1654648385861,3938,3926,3932,3929,0,0,27,,,,,,,0,0,0,-12.00,-8.00,52.00,0.00,0.00,51.00,14,19.00,0.00,28.30,0.00,0.00,0.00,0,,,100,100,0,2,0,0,0,1,0,,,,,0.0,0.0,0.0,0.0,0.0,0.0,0
34.182565,-118.129091,1.90,2.00,0.00,2.83,1.90,1.90,1.60,3.01,13110,2022-06-08 00:33:05.962,2022-06-07 17:33:05.962,15,0,0,15.686,34.182590,-118.129089,0.00,0.00,0.00,1.20,-0.90,5.20,0,1,0,67,100,-7814,2421,15686,3171.50,5,WP,1,0,0,0,0,0,0,1654648385962,3938,3926,3932,3929,0,0,27,,,,,,,0,0,0,-12.00,-9.00,52.00,0.00,0.00,52.00,14,19.00,0.00,28.26,0.00,0.00,0.00,0,,,100,100,0,2,0,0,0,1,0,,,,,0.0,0.0,0.0,0.0,0.0,0.0,0
34.182565,-118.129091,1.90,2.00,0.00,2.83,1.90,1.90,1.60,3.01,13209,2022-06-08 00:33:06.061,2022-06-07 17:33:06.061,15,0,0,15.686,34.182590,-118.129089,0.00,0.00,0.00,1.30,-0.90,5.20,0,1,0,67,100,-7814,2421,15686,3171.50,5,WP,1,0,0,0,0,0,0,1654648386061,3938,3926,3932,3929,0,0,27,,,,,,,0,0,0,-13.00,-9.00,52.00,0.00,0.00,53.00,14,19.00,0.00,28.31,0.00,0.00,0.00,0,,,100,100,0,2,0,0,0,1,0,,,,,0.0,0.0,0.0,0.0,0.0,0.0,0
34.182565,-118.129091,1.90,2.00,0.00,2.83,1.90,1.90,1.60,3.01,13308,2022-06-08 00:33:06.161,2022-06-07 17:33:06.161,15,0,0,15.686,34.182590,-118.129089,0.00,0.00,0.00,1.20,-1.00,5.10,0,1,0,67,100,-7814,2421,15686,3171.50,5,WP,1,0,0,0,0,0,0,1654648386160,3938,3926,3932,3929,0,0,27,,,,,,,0,0,0,-12.00,-10.00,51.00,0.00,0.00,53.00,14,19.00,0.00,28.28,0.00,0.00,0.00,0,,,100,100,0,2,0,0,0,1,0,,,,,0.0,0.0,0.0,0.0,0.0,0.0,0
34.182565,-118.129091,1.90,2.00,0.00,2.82,1.90,1.90,1.60,3.01,13409,2022-06-08 00:33:06.262,2022-06-07 17:33:06.262,15,0,0,15.686,34.182590,-118.129089,0.00,0.00,0.00,1.20,-1.00,5.10,0,1,0,67,100,-7814,2421,15686,3171.50,5,WP,1,0,0,0,0,0,0,1654648386261,3938,3926,3932,3929,0,0,27,,,,,,,0,0,0,-12.00,-10.00,51.00,0.00,0.00,54.00,14,19.00,0.00,28.15,0.00,0.00,0.00,0,,,100,100,0,2,0,0,0,1,0,,,,,0.0,0.0,0.0,0.0,0.0,0.0,0
34.182565,-118.129091,1.90,2.00,0.00,2.81,1.90,1.90,1.60,3.01,13509,2022-06-08 00:33:06.361,2022-06-07 17:33:06.361,15,0,0,15.672,34.182590,-118.129089,0.00,0.00,0.00,1.20,-1.00,5.10,0,1,0,67,100,-7795,2417,15672,3171.50,5,WP,1,0,0,0,0,0,0,1654648386361,3938,3926,3932,3929,0,0,27,,,,,,,0,0,0,-12.00,-10.00,51.00,0.00,0.00,54.00,14,19.00,0.00,28.11,0.00,0.00,0.00,0,,,100,100,0,2,0,0,0,1,0,,,,,0.0,0.0,0.0,0.0,0.0,0.0,0
34.182565,-118.129091,1.90,2.00,0.00,2.80,1.90,1.90,1.60,3.01,13609,2022-06-08 00:33:06.462,2022-06-07 17:33:06.462,15,0,0,15.672,34.182590,-118.129089,0.00,0.00,0.00,1.30,-0.90,5.10,0,1,0,67,100,-7795,2417,15672,3171.50,5,WP,1,0,0,0,0,0,0,1654648386461,3938,3926,3932,3929,0,0,27,,,,,,,0,0,0,-13.00,-9.00,51.00,0.00,0.00,55.00,14,19.00,0.00,28.01,0.00,0.00,0.00,0,,,100,100,0,2,0,0,0,1,0,,,,,0.0,0.0,0.0,0.0,0.0,0.0,0
