latitude,longitude,altitude(m),ultrasonicHeight(m),speed(mps),distance(m),max_altitude(m),max_ascent(m),max_speed(mps),max_distance(m),time(millisecond),datetime(utc),datetime(local),satellites,pressure(Pa),temperature(F),voltage(v),home_latitude,home_longitude,velocityX(mps),velocityY(mps),velocityZ(mps),pitch(deg),roll(deg),yaw(deg),powerlevel,isflying,istakingphoto,remainPowerPercent,remainLifePercent,currentCurrent,currentElectricity,currentVoltage,batteryTemperature,dischargeCount,flightmode,isMotorsOn,isTakingVideo,Rc_elevator,Rc_aileron,Rc_throttle,Rc_rudder,Rc_gyro,timestamp,Battery_Cell1,Battery_Cell2,Battery_Cell3,Battery_Cell4,Battery_Cell5,Battery_Cell6,Dronetype,AppVersion,Planename,FlyControllerSerialNumber,RemoteSerialNumber,BatterySerialNumber,CENTER_BATTERY.productDate,CENTER_BATTERY.serialNo,CENTER_BATTERY.fullCapacity,CENTER_BATTERY.productDateRaw,pitchRaw,rollRaw,yawRaw,gimbalPitchRaw,gimbalRollRaw,gimbalYawRaw,flyState,altitudeRaw,speedRaw,distanceRaw,velocityXRaw,velocityYRaw,velocityZRaw,data_reuse,App_Tip,App_Warning,downlinkSignalQuality,uplinkSignalQuality,transmissionChannel,rcModeSwitch,rcHome,rcPause,rcTransform,rcJoystickMode,appMode,FlyControllerSerialNumber_legacy,RemoteSerialNumber_legacy,BatterySerialNumber_legacy,Battery2SerialNumber,frontAvoidDist,backAvoidDist,rightAvoidDist,leftAvoidDist,upAvoidDist,downAvoidDist,isBrakingToAvoid
34.182591,-118.129090,0.40,0.40,0.41,0.17,0.40,0.40,0.41,0.17,1,2022-06-06 23:21:55.088,2022-06-06 16:21:55.089,16,0,0,16.715,34.182589,-118.129090,0.10,0.00,-0.40,2.20,-1.60,-21.40,0,1,0,87,100,-4240,2939,16715,3121.50,10,TakeOff,1,0,0,0,0,0,0,1654557715088,4224,4225,4224,4215,0,0,27,Litchi_iOS_2.14.0,Brian-MAVIC 2,163DFCK001S13F,1DUCFB800104PR,0P2AFBV5340045,,0,3416,0,-22.00,-16.00,-214.00,0.00,0.00,-329.00,11,4.00,4.12,1.72,1.00,0.00,-4.00,0,,,100,100,0,2,0,0,0,1,0,(null),(null),(null),(null),0.0,0.0,0.0,0.0,0.0,0.0,0
34.182591,-118.129090,0.40,0.40,0.41,0.19,0.40,0.40,0.41,0.19,100,2022-06-06 23:21:55.187,2022-06-06 16:21:55.187,16,0,0,16.715,34.182589,-118.129090,0.10,0.00,-0.40,2.30,-1.80,-21.40,0,1,0,87,100,-4240,2939,16715,3121.50,10,TakeOff,1,0,0,0,0,0,0,1654557715187,4224,4225,4224,4215,0,0,27,,,,,,,0,0,0,-23.00,-18.00,-214.00,0.00,0.00,-329.00,11,4.00,4.12,1.85,1.00,0.00,-4.00,0,,,100,100,0,2,0,0,0,1,0,,,,,0.0,0.0,0.0,0.0,0.0,0.0,0
34.182591,-118.129090,0.50,0.50,0.40,0.20,0.50,0.50,0.41,0.20,200,2022-06-06 23:21:55.287,2022-06-06 16:21:55.287,16,0,0,16.556,34.182589,-118.129090,0.00,0.00,-0.40,2.00,-1.80,-21.50,0,1,0,86,100,-7285,2936,16556,3121.50,10,TakeOff,1,0,0,0,0,0,0,1654557715287,4224,4225,4224,4215,0,0,27,,,,,,,0,0,0,-20.00,-18.00,-215.00,0.00,0.00,-329.00,11,5.00,4.00,1.98,0.00,0.00,-4.00,0,,,100,100,0,2,0,0,0,1,0,,,,,0.0,0.0,0.0,0.0,0.0,0.0,0
34.182591,-118.129090,0.50,0.50,0.40,0.21,0.50,0.50,0.41,0.21,299,2022-06-06 23:21:55.387,2022-06-06 16:21:55.387,16,0,0,16.556,34.182589,-118.129090,0.00,0.00,-0.40,1.60,-2.30,-21.50,0,1,0,86,100,-7285,2936,16556,3121.50,10,TakeOff,1,0,0,0,0,0,0,1654557715386,4224,4225,4224,4215,0,0,27,,,,,,,0,0,0,-16.00,-23.00,-215.00,0.00,0.00,-329.00,11,5.00,4.00,2.09,0.00,0.00,-4.00,0,,,100,100,0,2,0,0,0,1,0,,,,,0.0,0.0,0.0,0.0,0.0,0.0,0
34.182591,-118.129090,0.60,0.60,0.50,0.21,0.60,0.60,0.50,0.21,400,2022-06-06 23:21:55.487,2022-06-06 16:21:55.487,16,0,0,16.556,34.182589,-118.129090,0.00,0.00,-0.50,1.40,-2.00,-21.50,0,1,0,86,100,-7285,2936,16556,3121.50,10,TakeOff,1,0,0,0,0,0,0,1654557715487,4224,4225,4224,4215,0,0,27,,,,,,,0,0,0,-14.00,-20.00,-215.00,0.00,0.00,-329.00,11,6.00,5.00,2.09,0.00,0.00,-5.00,0,,,100,100,0,2,0,0,0,1,0,,,,,0.0,0.0,0.0,0.0,0.0,0.0,0
34.182591,-118.129090,0.60,0.60,0.50,0.22,0.60,0.60,0.50,0.22,501,2022-06-06 23:21:55.588,2022-06-06 16:21:55.588,16,0,0,16.556,34.182589,-118.129090,0.00,0.00,-0.50,1.60,-1.30,-21.50,0,1,0,86,100,-7285,2936,16556,3121.50,10,TakeOff,1,0,0,0,0,0,0,1654557715588,4224,4225,4224,4215,0,0,27,,,,,,,0,0,0,-16.00,-13.00,-215.00,0.00,0.00,-329.00,11,6.00,5.00,2.18,0.00,0.00,-5.00,0,,,100,100,0,2,0,0,0,1,0,,,,,0.0,0.0,0.0,0.0,0.0,0.0,0
34.182591,-118.129090,0.70,0.70,0.50,0.24,0.70,0.70,0.50,0.24,600,2022-06-06 23:21:55.687,2022-06-06 16:21:55.687,16,0,0,16.556,34.182589,-118.129090,0.00,0.00,-0.50,2.00,-0.90,-21.50,0,1,0,86,100,-7285,2936,16556,3121.50,10,TakeOff,1,0,0,0,0,0,0,1654557715687,4224,4225,4224,4215,0,0,27,,,,,,,0,0,0,-20.00,-9.00,-215.00,0.00,0.00,-329.00,11,7.00,5.00,2.44,0.00,0.00,-5.00,0,,,100,100,0,2,0,0,0,1,0,,,,,0.0,0.0,0.0,0.0,0.0,0.0,0
34.182591,-118.129090,0.70,0.70,0.50,0.26,0.70,0.70,0.50,0.26,701,2022-06-06 23:21:55.789,2022-06-06 16:21:55.789,16,0,0,16.556,34.182589,-118.129090,0.00,0.00,-0.50,2.40,-1.10,-21.50,0,1,0,86,100,-7285,2936,16556,3121.50,10,TakeOff,1,0,0,0,0,0,0,1654557715788,4224,4225,4224,4215,0,0,27,,,,,,,0,0,0,-24.00,-11.00,-215.00,0.00,0.00,-329.00,11,7.00,5.00,2.56,0.00,0.00,-5.00,0,,,100,100,0,2,0,0,0,1,0,,,,,0.0,0.0,0.0,0.0,0.0,0.0,0
34.182591,-118.129090,0.80,0.80,0.40,0.23,0.80,0.80,0.50,0.26,800,2022-06-06 23:21:55.887,2022-06-06 16:21:55.888,16,0,0,16.556,34.182589,-118.129090,0.00,0.00,-0.40,2.60,-1.30,-21.60,0,1,0,86,100,-7285,2936,16556,3121.50,10,TakeOff,1,0,0,0,0,0,0,1654557715887,4224,4225,4224,4215,0,0,27,,,,,,,0,0,0,-26.00,-13.00,-216.00,0.00,0.00,-329.00,11,8.00,4.00,2.34,0.00,0.00,-4.00,0,,,100,100,0,2,0,0,0,1,0,,,,,0.0,0.0,0.0,0.0,0.0,0.0,0
34.182591,-118.129090,0.80,0.80,0.50,0.24,0.80,0.80,0.50,0.26,901,2022-06-06 23:21:55.988,2022-06-06 16:21:55.988,16,0,0,16.556,34.182589,-118.129090,0.00,0.00,-0.50,2.60,-1.00,-21.70,0,1,0,86,100,-7285,2936,16556,3121.50,10,TakeOff,1,0,0,0,0,0,0,1654557715988,4224,4225,4224,4215,0,0,27,,,,,,,0,0,0,-26.00,-10.00,-217.00,0.00,0.00,-329.00,11,8.00,5.00,2.41,0.00,0.00,-5.00,0,,,100,100,0,2,0,0,0,1,0,,,,,0.0,0.0,0.0,0.0,0.0,0.0,0
34.182592,-118.129090,0.90,0.90,0.50,0.29,0.90,0.90,0.50,0.29,1001,2022-06-06 23:21:56.088,2022-06-06 16:21:56.088,16,0,0,16.556,34.182589,-118.129090,0.00,0.00,-0.50,2.80,-0.50,-21.70,0,1,0,86,100,-7285,2936,16556,3121.50,10,TakeOff,1,0,0,0,0,0,0,1654557716088,4224,4225,4224,4215,0,0,27,,,,,,,0,0,0,-28.00,-5.00,-217.00,0.00,0.00,-329.00,11,9.00,5.00,2.88,0.00,0.00,-5.00,0,,,100,100,0,2,0,0,0,1,0,,,,,0.0,0.0,0.0,0.0,0.0,0.0,0
34.182592,-118.129090,0.90,0.90,0.40,0.30,0.90,0.90,0.50,0.30,1101,2022-06-06 23:21:56.188,2022-06-06 16:21:56.188,16,0,0,16.556,34.182589,-118.129090,0.00,0.00,-0.40,2.70,-0.10,-21.70,0,1,0,86,100,-7285,2936,16556,3121.50,10,TakeOff,1,0,0,0,0,0,0,1654557716188,4224,4225,4224,4215,0,0,27,,,,,,,0,0,0,-27.00,-1.00,-217.00,0.00,0.00,-329.00,11,9.00,4.00,2.97,0.00,0.00,-4.00,0,,,100,100,0,2,0,0,0,1,0,,,,,9.9,0.0,0.0,0.0,0.0,0.0,0
34.182592,-118.129090,1.00,1.00,0.40,0.29,1.00,1.00,0.50,0.30,1200,2022-06-06 23:21:56.288,2022-06-06 16:21:56.288,16,0,0,16.556,34.182589,-118.129090,0.00,0.00,-0.40,2.40,-0.70,-21.60,0,1,0,86,100,-7285,2936,16556,3121.50,10,TakeOff,1,0,0,0,0,0,0,1654557716287,4224,4225,4224,4215,0,0,27,,,,,,,0,0,0,-24.00,-7.00,-216.00,0.00,0.00,-329.00,11,10.00,4.00,2.87,0.00,0.00,-4.00,0,,,100,100,0,2,0,0,0,1,0,,,,,9.9,0.0,0.0,0.0,0.0,0.0,0
34.182592,-118.129090,1.00,1.00,0.50,0.29,1.00,1.00,0.50,0.30,1301,2022-06-06 23:21:56.388,2022-06-06 16:21:56.388,16,0,0,16.556,34.182589,-118.129090,0.00,0.00,-0.50,2.30,-1.40,-21.60,0,1,0,86,100,-7285,2936,16556,3121.50,10,TakeOff,1,0,0,0,0,0,0,1654557716388,4224,4225,4224,4215,0,0,27,,,,,,,0,0,0,-23.00,-14.00,-216.00,0.00,0.00,-329.00,11,10.00,5.00,2.94,0.00,0.00,-5.00,0,,,100,100,0,2,0,0,0,1,0,,,,,9.9,0.0,0.0,0.0,0.0,0.0,0
34.182592,-118.129090,1.10,1.10,0.50,0.32,1.10,1.10,0.50,0.32,1401,2022-06-06 23:21:56.489,2022-06-06 16:21:56.489,16,0,0,16.556,34.182589,-118.129090,0.00,0.00,-0.50,2.20,-1.50,-21.60,0,1,0,86,100,-7285,2936,16556,3121.50,10,WP,1,0,0,0,0,0,0,1654557716488,4224,4225,4224,4215,0,0,27,,,,,,,0,0,0,-22.00,-15.00,-216.00,0.00,0.00,-329.00,14,11.00,5.00,3.24,0.00,0.00,-5.00,0,,,100,100,0,2,0,0,0,1,0,,,,,9.9,0.0,0.0,0.0,0.0,0.0,0
34.182592,-118.129090,1.10,1.10,0.40,0.33,1.10,1.10,0.50,0.33,1501,2022-06-06 23:21:56.588,2022-06-06 16:21:56.588,16,0,0,16.556,34.182589,-118.129090,0.00,0.00,-0.40,1.00,-0.80,-21.60,0,1,0,86,100,-7285,2936,16556,3121.50,10,WP,1,0,0,0,0,0,0,1654557716588,4224,4225,4224,4215,0,0,27,,,,,,,0,0,0,-10.00,-8.00,-216.00,0.00,0.00,-329.00,14,11.00,4.00,3.32,0.00,0.00,-4.00,0,,,100,100,0,2,0,0,0,1,0,,,,,12.0,0.0,0.0,0.0,0.0,0.0,0
34.182592,-118.129090,1.10,1.20,0.40,0.35,1.10,1.10,0.50,0.35,1601,2022-06-06 23:21:56.689,2022-06-06 16:21:56.689,16,0,0,16.556,34.182589,-118.129090,0.00,0.00,-0.40,1.50,-1.20,-21.50,0,1,0,86,100,-7285,2936,16556,3121.50,10,WP,1,0,0,0,0,0,0,1654557716688,4224,4225,4224,4215,0,0,27,,,,,,,0,0,0,-15.00,-12.00,-215.00,0.00,0.00,-329.00,14,11.00,4.00,3.51,0.00,0.00,-4.00,0,,,100,100,0,2,0,0,0,1,0,,,,,12.0,0.0,0.0,0.0,0.0,0.0,0
34.182592,-118.129089,1.20,1.20,0.40,0.36,1.20,1.20,0.50,0.36,1700,2022-06-06 23:21:56.788,2022-06-06 16:21:56.788,16,0,0,16.556,34.182589,-118.129090,0.00,0.00,-0.40,2.00,-1.80,-21.50,0,1,0,86,100,-7285,2936,16556,3121.50,10,WP,1,0,0,0,0,0,0,1654557716787,4224,4225,4224,4215,0,0,27,,,,,,,0,0,0,-20.00,-18.00,-215.00,0.00,0.00,-329.00,14,12.00,4.00,3.65,0.00,0.00,-4.00,0,,,100,100,0,2,0,0,0,1,0,,,,,13.7,0.0,0.0,0.0,0.0,0.0,0
34.182592,-118.129090,1.20,1.30,0.41,0.33,1.20,1.20,0.50,0.36,1800,2022-06-06 23:21:56.888,2022-06-06 16:21:56.888,16,0,0,16.556,34.182589,-118.129090,0.10,0.00,-0.40,1.50,-2.50,-21.40,0,1,0,86,100,-7285,2936,16556,3121.50,10,WP,1,0,0,0,0,0,0,1654557716887,4224,4225,4224,4215,0,0,27,,,,,,,0,0,0,-15.00,-25.00,-214.00,0.00,0.00,-329.00,14,12.00,4.12,3.33,1.00,0.00,-4.00,0,,,100,100,0,2,0,0,0,1,0,,,,,13.7,0.0,0.0,0.0,0.0,0.0,0
34.182592,-118.129089,1.30,1.30,0.41,0.34,1.30,1.30,0.50,0.36,1900,2022-06-06 23:21:56.988,2022-06-06 16:21:56.988,16,0,0,16.556,34.182589,-118.129090,0.10,0.00,-0.40,1.80,-2.90,-21.60,0,1,0,86,100,-7285,2936,16556,3121.50,10,WP,1,0,0,0,0,0,0,1654557716987,4224,4225,4224,4215,0,0,27,,,,,,,0,0,0,-18.00,-29.00,-216.00,0.00,0.00,-329.00,14,13.00,4.12,3.45,1.00,0.00,-4.00,0,,,100,100,0,2,0,0,0,1,0,,,,,13.8,0.0,0.0,0.0,0.0,0.0,0
34.182592,-118.129089,1.30,1.40,0.41,0.37,1.30,1.30,0.50,0.37,2002,2022-06-06 23:21:57.089,2022-06-06 16:21:57.090,16,0,0,16.556,34.182589,-118.129090,0.10,0.00,-0.40,2.60,-3.00,-21.60,0,1,0,86,100,-7285,2936,16556,3121.50,10,WP,1,0,0,0,0,0,0,1654557717089,4224,4225,4224,4215,0,0,27,,,,,,,0,0,0,-26.00,-30.00,-216.00,0.00,0.00,-329.00,14,13.00,4.12,3.72,1.00,0.00,-4.00,0,,,100,100,0,2,0,0,0,1,0,,,,,13.8,0.0,0.0,0.0,0.0,0.0,0
34.182592,-118.129089,1.40,1.40,0.41,0.39,1.40,1.40,0.50,0.39,2102,2022-06-06 23:21:57.189,2022-06-06 16:21:57.189,16,0,0,16.556,34.182589,-118.129090,0.10,0.00,-0.40,3.00,-2.90,-21.60,0,1,0,86,100,-7285,2936,16556,3121.50,10,WP,1,0,0,0,0,0,0,1654557717189,4224,4225,4224,4215,0,0,27,,,,,,,0,0,0,-30.00,-29.00,-216.00,0.00,0.00,-329.00,14,14.00,4.12,3.85,1.00,0.00,-4.00,0,,,100,100,0,2,0,0,0,1,0,,,,,0.0,0.0,0.0,0.0,0.0,0.0,0
34.182593,-118.129089,1.40,1.50,0.41,0.40,1.40,1.40,0.50,0.40,2201,2022-06-06 23:21:57.288,2022-06-06 16:21:57.288,16,0,0,16.556,34.182589,-118.129090,0.10,0.00,-0.40,3.20,-2.90,-21.60,0,1,0,86,100,-7285,2936,16556,3121.50,10,WP,1,0,0,0,0,0,0,1654557717288,4224,4225,4224,4215,0,0,27,,,,,,,0,0,0,-32.00,-29.00,-216.00,0.00,0.00,-329.00,14,14.00,4.12,4.01,1.00,0.00,-4.00,0,,,100,100,0,2,0,0,0,1,0,,,,,0.0,0.0,0.0,0.0,0.0,0.0,0
34.182593,-118.129089,1.50,1.50,0.41,0.41,1.50,1.50,0.50,0.41,2302,2022-06-06 23:21:57.389,2022-06-06 16:21:57.389,16,0,0,16.507,34.182589,-118.129090,0.10,0.00,-0.40,3.30,-2.90,-21.70,0,1,0,86,100,-7570,2932,16507,3121.50,10,WP,1,0,0,0,0,0,0,1654557717389,4224,4225,4224,4215,0,0,27,,,,,,,0,0,0,-33.00,-29.00,-217.00,0.00,0.00,-329.00,14,15.00,4.12,4.12,1.00,0.00,-4.00,0,,,100,100,0,2,0,0,0,1,0,,,,,0.0,0.0,0.0,0.0,0.0,0.0,0
34.182593,-118.129089,1.50,1.60,0.40,0.43,1.50,1.50,0.50,0.43,2402,2022-06-06 23:21:57.489,2022-06-06 16:21:57.489,16,0,0,16.507,34.182589,-118.129090,0.00,0.00,-0.40,3.90,-2.80,-21.60,0,1,0,86,100,-7570,2932,16507,3121.50,10,WP,1,0,0,0,0,0,0,1654557717489,4224,4225,4224,4215,0,0,27,,,,,,,0,0,0,-39.00,-28.00,-216.00,0.00,0.00,-329.00,14,15.00,4.00,4.34,0.00,0.00,-4.00,0,,,100,100,0,2,0,0,0,1,0,,,,,0.0,0.0,0.0,0.0,0.0,0.0,0
34.182593,-118.129089,1.60,1.60,0.40,0.44,1.60,1.60,0.50,0.44,2502,2022-06-06 23:21:57.589,2022-06-06 16:21:57.589,16,0,0,16.507,34.182589,-118.129090,0.00,0.00,-0.40,3.90,-3.20,-21.60,0,1,0,86,100,-7570,2932,16507,3121.50,10,WP,1,0,0,0,0,0,0,1654557717589,4224,4225,4224,4215,0,0,27,,,,,,,0,0,0,-39.00,-32.00,-216.00,0.00,0.00,-329.00,14,16.00,4.00,4.43,0.00,0.00,-4.00,0,,,100,100,0,2,0,0,0,1,0,,,,,0.0,0.0,0.0,0.0,0.0,0.0,0
34.182593,-118.129089,1.60,1.70,0.40,0.41,1.60,1.60,0.50,0.44,2602,2022-06-06 23:21:57.690,2022-06-06 16:21:57.690,16,0,0,16.507,34.182589,-118.129090,0.00,0.00,-0.40,3.20,-3.00,-21.50,0,1,0,86,100,-7570,2932,16507,3121.50,10,WP,1,0,0,0,0,0,0,1654557717689,4224,4225,4224,4215,0,0,27,,,,,,,0,0,0,-32.00,-30.00,-215.00,0.00,0.00,-329.00,14,16.00,4.00,4.12,0.00,0.00,-4.00,0,,,100,100,0,2,0,0,0,1,0,,,,,0.0,0.0,0.0,0.0,0.0,0.0,0
34.182593,-118.129089,1.70,1.70,0.40,0.41,1.70,1.70,0.50,0.44,2702,2022-06-06 23:21:57.790,2022-06-06 16:21:57.790,16,0,0,16.507,34.182589,-118.129090,0.00,0.00,-0.40,3.00,-2.90,-21.40,0,1,0,86,100,-7570,2932,16507,3121.50,10,WP,1,0,0,0,0,0,0,1654557717789,4224,4225,4224,4215,0,0,27,,,,,,,0,0,0,-30.00,-29.00,-214.00,0.00,0.00,-329.00,14,17.00,4.00,4.14,0.00,0.00,-4.00,0,,,100,100,0,2,0,0,0,1,0,,,,,0.0,0.0,0.0,0.0,0.0,0.0,0
34.182593,-118.129089,1.70,1.70,0.40,0.43,1.70,1.70,0.50,0.44,2802,2022-06-06 23:21:57.890,2022-06-06 16:21:57.890,16,0,0,16.507,34.182589,-118.129090,0.00,0.00,-0.40,3.10,-3.60,-21.40,0,1,0,86,100,-7570,2932,16507,3121.50,10,WP,1,0,0,0,0,0,0,1654557717889,4224,4225,4224,4215,0,0,27,,,,,,,0,0,0,-31.00,-36.00,-214.00,0.00,0.00,-329.00,14,17.00,4.00,4.31,0.00,0.00,-4.00,0,,,100,100,0,2,0,0,0,1,0,,,,,0.0,0.0,0.0,0.0,0.0,0.0,0
34.182593,-118.129089,1.70,1.80,0.30,0.43,1.70,1.70,0.50,0.44,2902,2022-06-06 23:21:57.990,2022-06-06 16:21:57.990,16,0,0,16.507,34.182589,-118.129090,0.00,0.00,-0.30,3.20,-3.70,-21.40,0,1,0,86,100,-7570,2932,16507,3121.50,10,WP,1,0,0,0,0,0,0,1654557717989,4224,4225,4224,4215,0,0,27,,,,,,,0,0,0,-32.00,-37.00,-214.00,0.00,0.00,-329.00,14,17.00,3.00,4.34,0.00,0.00,-3.00,0,,,100,100,0,2,0,0,0,1,0,,,,,0.0,0.0,0.0,0.0,0.0,0.0,0
34.182593,-118.129089,1.80,1.80,0.30,0.43,1.80,1.80,0.50,0.44,3003,2022-06-06 23:21:58.090,2022-06-06 16:21:58.090,16,0,0,16.507,34.182589,-118.129090,0.00,0.00,-0.30,1.70,-0.10,-21.60,0,1,0,86,100,-7570,2932,16507,3121.50,10,WP,1,0,0,0,0,0,0,1654557718090,4224,4225,4224,4215,0,0,27,,,,,,,0,0,0,-17.00,-1.00,-216.00,0.00,0.00,-329.00,14,18.00,3.00,4.32,0.00,0.00,-3.00,0,,,100,100,0,2,0,0,0,1,0,,,,,0.0,0.0,0.0,0.0,0.0,0.0,0
34.182593,-118.129089,1.80,1.80,0.20,0.43,1.80,1.80,0.50,0.44,3102,2022-06-06 23:21:58.189,2022-06-06 16:21:58.189,16,0,0,16.507,34.182589,-118.129090,0.00,0.00,-0.20,1.70,0.30,-22.10,0,1,0,86,100,-7570,2932,16507,3121.50,10,WP,1,0,0,0,0,0,0,1654557718189,4224,4225,4224,4215,0,0,27,,,,,,,0,0,0,-17.00,3.00,-221.00,0.00,0.00,-329.00,14,18.00,2.00,4.35,0.00,0.00,-2.00,0,,,100,100,0,2,0,0,0,1,0,,,,,0.0,0.0,0.0,0.0,0.0,0.0,0
34.182593,-118.129089,1.80,1.90,0.22,0.47,1.80,1.80,0.50,0.47,3202,2022-06-06 23:21:58.290,2022-06-06 16:21:58.290,16,0,0,16.507,34.182589,-118.129090,0.10,0.00,-0.20,2.40,-0.70,-23.30,0,1,0,86,100,-7570,2932,16507,3121.50,10,WP,1,0,0,0,0,0,0,1654557718289,4224,4225,4224,4215,0,0,27,,,,,,,0,0,0,-24.00,-7.00,-233.00,0.00,0.00,-329.00,14,18.00,2.24,4.67,1.00,0.00,-2.00,0,,,100,100,0,2,0,0,0,1,0,,,,,0.0,0.0,0.0,0.0,0.0,0.0,0
34.182593,-118.129089,1.80,1.90,0.14,0.48,1.80,1.80,0.50,0.48,3303,2022-06-06 23:21:58.390,2022-06-06 16:21:58.390,16,0,0,16.507,34.182589,-118.129090,0.10,0.00,-0.10,3.20,-1.70,-25.00,0,1,0,86,100,-7570,2932,16507,3121.50,10,WP,1,0,0,0,0,0,0,1654557718390,4224,4225,4224,4215,0,0,27,,,,,,,0,0,0,-32.00,-17.00,-250.00,0.00,0.00,-330.00,14,18.00,1.41,4.81,1.00,0.00,-1.00,0,,,100,100,0,2,0,0,0,1,0,,,,,0.0,0.0,0.0,0.0,0.0,0.0,0
34.182593,-118.129089,1.90,1.90,0.14,0.49,1.90,1.90,0.50,0.49,3402,2022-06-06 23:21:58.490,2022-06-06 16:21:58.490,16,0,0,16.507,34.182589,-118.129090,0.10,0.00,-0.10,3.60,-2.10,-27.30,0,1,0,86,100,-7570,2932,16507,3121.50,10,WP,1,0,0,0,0,0,0,1654557718489,4224,4225,4224,4215,0,0,27,,,,,,,0,0,0,-36.00,-21.00,-273.00,0.00,0.00,-336.00,14,19.00,1.41,4.87,1.00,0.00,-1.00,0,,,100,100,0,2,0,0,0,1,0,,,,,0.0,0.0,0.0,0.0,0.0,0.0,0
34.182593,-118.129089,1.90,1.90,0.14,0.50,1.90,1.90,0.50,0.50,3503,2022-06-06 23:21:58.590,2022-06-06 16:21:58.590,16,0,0,16.507,34.182589,-118.129090,0.10,0.00,-0.10,3.70,-2.40,-30.10,0,1,0,86,100,-7570,2932,16507,3121.50,10,WP,1,0,0,0,0,0,0,1654557718590,4224,4225,4224,4215,0,0,27,,,,,,,0,0,0,-37.00,-24.00,-301.00,0.00,0.00,-351.00,14,19.00,1.41,5.03,1.00,0.00,-1.00,0,,,100,100,0,2,0,0,0,1,0,,,,,0.0,0.0,0.0,0.0,0.0,0.0,0
34.182594,-118.129089,1.90,1.90,0.10,0.51,1.90,1.90,0.50,0.51,3602,2022-06-06 23:21:58.690,2022-06-06 16:21:58.690,16,0,0,16.507,34.182589,-118.129090,0.10,0.00,0.00,4.10,-2.40,-33.50,0,1,0,86,100,-7570,2932,16507,3121.50,10,WP,1,0,0,0,0,0,0,1654557718689,4224,4225,4224,4215,0,0,27,,,,,,,0,0,0,-41.00,-24.00,-335.00,0.00,0.00,-377.00,14,19.00,1.00,5.14,1.00,0.00,0.00,0,,,100,100,0,2,0,0,0,1,0,,,,,0.0,0.0,0.0,0.0,0.0,0.0,0
34.182594,-118.129089,1.90,1.90,0.10,0.53,1.90,1.90,0.50,0.53,3703,2022-06-06 23:21:58.791,2022-06-06 16:21:58.791,16,0,0,16.507,34.182589,-118.129090,0.10,0.00,0.00,4.40,-2.80,-37.50,0,1,0,86,100,-7570,2932,16507,3121.50,10,WP,1,0,0,0,0,0,0,1654557718790,4224,4225,4224,4215,0,0,27,,,,,,,0,0,0,-44.00,-28.00,-375.00,0.00,0.00,-412.00,14,19.00,1.00,5.31,1.00,0.00,0.00,0,,,100,100,0,2,0,0,0,1,0,,,,,0.0,0.0,0.0,0.0,0.0,0.0,0
34.182594,-118.129089,1.90,1.90,0.10,0.56,1.90,1.90,0.50,0.56,3803,2022-06-06 23:21:58.891,2022-06-06 16:21:58.891,16,0,0,16.507,34.182589,-118.129090,0.10,0.00,0.00,4.20,-3.50,-42.20,0,1,0,86,100,-7570,2932,16507,3121.50,10,WP,1,0,0,0,0,0,0,1654557718890,4224,4225,4224,4215,0,0,27,,,,,,,0,0,0,-42.00,-35.00,-422.00,0.00,0.00,-453.00,14,19.00,1.00,5.56,1.00,0.00,0.00,0,,,100,100,0,2,0,0,0,1,0,,,,,0.0,0.0,0.0,0.0,0.0,0.0,0
34.182594,-118.129089,1.90,1.90,0.10,0.57,1.90,1.90,0.50,0.57,3903,2022-06-06 23:21:58.990,2022-06-06 16:21:58.991,16,0,0,16.507,34.182589,-118.129090,0.10,0.00,0.00,4.20,-3.90,-47.40,0,1,0,86,100,-7570,2932,16507,3121.50,10,WP,1,0,0,0,0,0,0,1654557718990,4224,4225,4224,4215,0,0,27,,,,,,,0,0,0,-42.00,-39.00,-474.00,0.00,0.00,-501.00,14,19.00,1.00,5.73,1.00,0.00,0.00,0,,,100,100,0,2,0,0,0,1,0,,,,,0.0,0.0,0.0,0.0,0.0,0.0,0
34.182594,-118.129089,1.90,1.90,0.10,0.59,1.90,1.90,0.50,0.59,4003,2022-06-06 23:21:59.091,2022-06-06 16:21:59.091,16,0,0,16.507,34.182589,-118.129090,0.10,0.00,0.00,3.80,-4.10,-53.10,0,1,0,86,100,-7570,2932,16507,3121.50,10,WP,1,0,0,0,0,0,0,1654557719090,4224,4225,4224,4215,0,0,27,,,,,,,0,0,0,-38.00,-41.00,-531.00,0.00,0.00,-555.00,14,19.00,1.00,5.94,1.00,0.00,0.00,0,,,100,100,0,2,0,0,0,1,0,,,,,0.0,0.0,0.0,0.0,0.0,0.0,0
34.182594,-118.129089,1.90,1.90,0.10,0.61,1.90,1.90,0.50,0.61,4103,2022-06-06 23:21:59.190,2022-06-06 16:21:59.190,16,0,0,16.507,34.182589,-118.129090,0.10,0.00,0.00,3.40,-4.40,-59.40,0,1,0,86,100,-7570,2932,16507,3121.50,10,WP,1,0,0,0,0,0,0,1654557719190,4224,4225,4224,4215,0,0,27,,,,,,,0,0,0,-34.00,-44.00,-594.00,0.00,0.00,-615.00,14,19.00,1.00,6.09,1.00,0.00,0.00,0,,,100,100,0,2,0,0,0,1,0,,,,,0.0,0.0,0.0,0.0,0.0,0.0,0
34.182594,-118.129089,1.90,1.90,0.10,0.61,1.90,1.90,0.50,0.61,4204,2022-06-06 23:21:59.291,2022-06-06 16:21:59.291,16,0,0,16.493,34.182589,-118.129090,0.10,0.00,0.00,2.90,-4.80,-66.20,0,1,0,86,100,-7429,2928,16493,3121.50,10,WP,1,0,0,0,0,0,0,1654557719291,4224,4225,4224,4215,0,0,27,,,,,,,0,0,0,-29.00,-48.00,-662.00,0.00,0.00,-679.00,14,19.00,1.00,6.08,1.00,0.00,0.00,0,,,100,100,0,2,0,0,0,1,0,,,,,0.0,0.0,0.0,0.0,0.0,0.0,0
34.182594,-118.129089,1.90,1.90,0.00,0.62,1.90,1.90,0.50,0.62,4303,2022-06-06 23:21:59.391,2022-06-06 16:21:59.391,16,0,0,16.493,34.182589,-118.129090,0.00,0.00,0.00,2.10,-5.00,-73.20,0,1,0,86,100,-7429,2928,16493,3121.50,10,WP,1,0,0,0,0,0,0,1654557719390,4224,4225,4224,4215,0,0,27,,,,,,,0,0,0,-21.00,-50.00,-732.00,0.00,0.00,-749.00,14,19.00,0.00,6.18,0.00,0.00,0.00,0,,,100,100,0,2,0,0,0,1,0,,,,,0.0,0.0,0.0,0.0,0.0,0.0,0
34.182595,-118.129089,1.90,1.90,0.00,0.63,1.90,1.90,0.50,0.63,4404,2022-06-06 23:21:59.491,2022-06-06 16:21:59.491,16,0,0,16.493,34.182589,-118.129090,0.00,0.00,0.00,1.60,-5.00,-80.40,0,1,0,86,100,-7429,2928,16493,3121.50,10,WP,1,0,0,0,0,0,0,1654557719491,4224,4225,4224,4215,0,0,27,,,,,,,0,0,0,-16.00,-50.00,-804.00,0.00,0.00,-822.00,14,19.00,0.00,6.27,0.00,0.00,0.00,0,,,100,100,0,2,0,0,0,1,0,,,,,0.0,0.0,0.0,0.0,0.0,0.0,0
34.182595,-118.129089,1.90,1.90,0.00,0.63,1.90,1.90,0.50,0.63,4504,2022-06-06 23:21:59.592,2022-06-06 16:21:59.592,16,0,0,16.493,34.182589,-118.129090,0.00,0.00,0.00,1.50,-4.70,-87.90,0,1,0,86,100,-7429,2928,16493,3121.50,10,WP,1,0,0,0,0,0,0,1654557719591,4224,4225,4224,4215,0,0,27,,,,,,,0,0,0,-15.00,-47.00,-879.00,0.00,0.00,-896.00,14,19.00,0.00,6.34,0.00,0.00,0.00,0,,,100,100,0,2,0,0,0,1,0,,,,,0.0,0.0,0.0,0.0,0.0,0.0,0
34.182595,-118.129089,1.90,2.00,0.00,0.63,1.90,1.90,0.50,0.63,4604,2022-06-06 23:21:59.692,2022-06-06 16:21:59.692,16,0,0,16.493,34.182589,-118.129090,0.00,0.00,0.00,0.90,-5.00,-95.30,0,1,0,86,100,-7429,2928,16493,3121.50,10,WP,1,0,0,0,0,0,0,1654557719691,4224,4225,4224,4215,0,0,27,,,,,,,0,0,0,-9.00,-50.00,-953.00,0.00,0.00,-972.00,14,19.00,0.00,6.33,0.00,0.00,0.00,0,,,100,100,0,2,0,0,0,1,0,,,,,0.0,0.0,0.0,0.0,0.0,0.0,0
34.182595,-118.129089,1.90,2.00,0.00,0.64,1.90,1.90,0.50,0.64,4704,2022-06-06 23:21:59.791,2022-06-06 16:21:59.791,16,0,0,16.493,34.182589,-118.129090,0.00,0.00,0.00,0.20,-4.90,-102.60,0,1,0,86,100,-7429,2928,16493,3121.50,10,WP,1,0,0,0,0,0,0,1654557719791,4224,4225,4224,4215,0,0,27,,,,,,,0,0,0,-2.00,-49.00,-1026.00,0.00,0.00,-1046.00,14,19.00,0.00,6.37,0.00,0.00,0.00,0,,,100,100,0,2,0,0,0,1,0,,,,,0.0,0.0,0.0,0.0,0.0,0.0,0
34.182595,-118.129089,1.90,2.00,0.00,0.63,1.90,1.90,0.50,0.64,4804,2022-06-06 23:21:59.891,2022-06-06 16:21:59.891,16,0,0,16.493,34.182589,-118.129090,0.00,0.00,0.00,-0.40,-4.60,-110.10,0,1,0,86,100,-7429,2928,16493,3121.50,10,WP,1,0,0,0,0,0,0,1654557719891,4224,4225,4224,4215,0,0,27,,,,,,,0,0,0,4.00,-46.00,-1101.00,0.00,0.00,-1121.00,14,19.00,0.00,6.31,0.00,0.00,0.00,0,,,100,100,0,2,0,0,0,1,0,,,,,0.0,0.0,0.0,0.0,0.0,0.0,0
34.182595,-118.129089,1.90,2.00,0.00,0.63,1.90,1.90,0.50,0.64,4904,2022-06-06 23:21:59.991,2022-06-06 16:21:59.991,16,0,0,16.493,34.182589,-118.129090,0.00,0.00,0.00,-1.10,-3.80,-117.60,0,1,0,86,100,-7429,2928,16493,3121.50,10,WP,1,0,0,0,0,0,0,1654557719991,4224,4225,4224,4215,0,0,27,,,,,,,0,0,0,11.00,-38.00,-1176.00,0.00,0.00,-1196.00,14,19.00,0.00,6.33,0.00,0.00,0.00,0,,,100,100,0,2,0,0,0,1,0,,,,,0.0,0.0,0.0,0.0,0.0,0.0,0
34.182594,-118.129089,1.90,2.00,0.00,0.62,1.90,1.90,0.50,0.64,5004,2022-06-06 23:22:00.091,2022-06-06 16:22:00.091,16,0,0,16.493,34.182589,-118.129090,0.00,0.00,0.00,-1.70,-3.40,-125.10,0,1,0,86,100,-7429,2928,16493,3121.50,10,WP,1,0,0,0,0,0,0,1654557720091,4224,4225,4224,4215,0,0,27,,,,,,,0,0,0,17.00,-34.00,-1251.00,0.00,0.00,-1273.00,14,19.00,0.00,6.24,0.00,0.00,0.00,0,,,100,100,0,2,0,0,0,1,0,,,,,0.0,0.0,0.0,0.0,0.0,0.0,0
34.182594,-118.129089,1.90,2.00,0.00,0.63,1.90,1.90,0.50,0.64,5104,2022-06-06 23:22:00.191,2022-06-06 16:22:00.191,16,0,0,16.493,34.182589,-118.129090,0.00,0.00,0.00,-2.30,-3.10,-132.60,0,1,0,86,100,-7429,2928,16493,3121.50,10,WP,1,0,0,0,0,0,0,1654557720191,4224,4225,4224,4215,0,0,27,,,,,,,0,0,0,23.00,-31.00,-1326.00,0.00,0.00,-1348.00,14,19.00,0.00,6.25,0.00,0.00,0.00,0,,,100,100,0,2,0,0,0,1,0,,,,,0.0,0.0,0.0,0.0,0.0,0.0,0
34.182595,-118.129088,1.90,2.00,0.00,0.64,1.90,1.90,0.50,0.64,5203,2022-06-06 23:22:00.291,2022-06-06 16:22:00.291,16,0,0,16.493,34.182589,-118.129090,0.00,0.00,0.00,-2.50,-2.70,-140.20,0,1,0,86,100,-7429,2928,16493,3121.50,10,WP,1,0,0,0,0,0,0,1654557720290,4224,4225,4224,4215,0,0,27,,,,,,,0,0,0,25.00,-27.00,-1402.00,0.00,0.00,-1425.00,14,19.00,0.00,6.40,0.00,0.00,0.00,0,,,100,100,0,2,0,0,0,1,0,,,,,0.0,0.0,0.0,0.0,0.0,0.0,0
34.182595,-118.129088,1.90,2.00,0.00,0.64,1.90,1.90,0.50,0.64,5304,2022-06-06 23:22:00.392,2022-06-06 16:22:00.392,16,0,0,16.493,34.182589,-118.129090,0.00,0.00,0.00,-3.00,-2.30,-147.70,0,1,0,86,100,-7429,2928,16493,3121.50,10,WP,1,0,0,0,0,0,0,1654557720391,4224,4225,4224,4215,0,0,27,,,,,,,0,0,0,30.00,-23.00,-1477.00,0.00,0.00,-1500.00,14,19.00,0.00,6.41,0.00,0.00,0.00,0,,,100,100,0,2,0,0,0,1,0,,,,,0.0,0.0,0.0,0.0,0.0,0.0,0
34.182595,-118.129088,1.90,2.00,0.00,0.66,1.90,1.90,0.50,0.66,5403,2022-06-06 23:22:00.491,2022-06-06 16:22:00.491,16,0,0,16.493,34.182589,-118.129090,0.00,0.00,0.00,-3.60,-1.40,-155.20,0,1,0,86,100,-7429,2928,16493,3121.50,10,WP,1,0,0,0,0,0,0,1654557720490,4224,4225,4224,4215,0,0,27,,,,,,,0,0,0,36.00,-14.00,-1552.00,0.00,0.00,-1577.00,14,19.00,0.00,6.59,0.00,0.00,0.00,0,,,100,100,0,2,0,0,0,1,0,,,,,0.0,0.0,0.0,0.0,0.0,0.0,0
34.182595,-118.129088,1.90,2.00,0.00,0.66,1.90,1.90,0.50,0.66,5505,2022-06-06 23:22:00.592,2022-06-06 16:22:00.592,16,0,0,16.493,34.182589,-118.129090,0.00,0.00,0.00,-3.90,-1.00,-162.70,0,1,0,86,100,-7429,2928,16493,3121.50,10,WP,1,0,0,0,0,0,0,1654557720592,4224,4225,4224,4215,0,0,27,,,,,,,0,0,0,39.00,-10.00,-1627.00,0.00,0.00,-1653.00,14,19.00,0.00,6.61,0.00,0.00,0.00,0,,,100,100,0,2,0,0,0,1,0,,,,,0.0,0.0,0.0,0.0,0.0,0.0,0
34.182595,-118.129088,1.90,2.00,0.00,0.67,1.90,1.90,0.50,0.67,5604,2022-06-06 23:22:00.691,2022-06-06 16:22:00.691,16,0,0,16.493,34.182589,-118.129090,0.00,0.00,0.00,-4.10,-0.70,-168.50,0,1,0,86,100,-7429,2928,16493,3121.50,10,WP,1,0,0,0,0,0,0,1654557720691,4224,4225,4224,4215,0,0,27,,,,,,,0,0,0,41.00,-7.00,-1685.00,0.00,0.00,-1726.00,14,19.00,0.00,6.66,0.00,0.00,0.00,0,,,100,100,0,2,0,0,0,1,0,,,,,0.0,0.0,0.0,0.0,0.0,0.0,0
34.182595,-118.129088,1.90,2.00,0.00,0.67,1.90,1.90,0.50,0.67,5704,2022-06-06 23:22:00.791,2022-06-06 16:22:00.791,15,0,0,16.493,34.182589,-118.129090,0.00,0.00,0.00,-4.20,-0.70,-172.50,0,1,0,86,100,-7429,2928,16493,3121.50,10,WP,1,0,0,0,0,0,0,1654557720791,4224,4225,4224,4215,0,0,27,,,,,,,0,0,0,42.00,-7.00,-1725.00,0.00,0.00,-1784.00,14,19.00,0.00,6.67,0.00,0.00,0.00,0,,,100,100,0,2,0,0,0,1,0,,,,,0.0,0.0,0.0,0.0,0.0,0.0,0
34.182595,-118.129088,1.90,2.00,0.00,0.67,1.90,1.90,0.50,0.67,5804,2022-06-06 23:22:00.892,2022-06-06 16:22:00.892,15,0,0,16.493,34.182589,-118.129090,0.00,0.00,0.00,-4.20,0.00,-174.80,0,1,0,86,100,-7429,2928,16493,3121.50,10,WP,1,0,0,0,0,0,0,1654557720891,4224,4225,4224,4215,0,0,27,,,,,,,0,0,0,42.00,0.00,-1748.00,0.00,0.00,1775.00,14,19.00,0.00,6.74,0.00,0.00,0.00,0,,,100,100,0,2,0,0,0,1,0,,,,,0.0,0.0,0.0,0.0,0.0,0.0,0
34.182595,-118.129087,1.90,2.00,0.00,0.67,1.90,1.90,0.50,0.67,5904,2022-06-06 23:22:00.992,2022-06-06 16:22:00.992,15,0,0,16.493,34.182589,-118.129090,0.00,0.00,0.00,-4.00,0.70,-176.30,0,1,0,86,100,-7429,2928,16493,3121.50,10,WP,1,0,0,0,0,0,0,1654557720991,4224,4225,4224,4215,0,0,27,,,,,,,0,0,0,40.00,7.00,-1763.00,0.00,0.00,1749.00,14,19.00,0.00,6.72,0.00,0.00,0.00,0,,,100,100,0,2,0,0,0,1,0,,,,,0.0,0.0,0.0,0.0,0.0,0.0,0
34.182595,-118.129087,1.90,2.00,0.00,0.68,1.90,1.90,0.50,0.68,6005,2022-06-06 23:22:01.092,2022-06-06 16:22:01.092,15,0,0,16.493,34.182589,-118.129090,0.00,0.00,0.00,-4.00,1.10,-177.00,0,1,0,86,100,-7429,2928,16493,3121.50,10,WP,1,0,0,0,0,0,0,1654557721092,4224,4225,4224,4215,0,0,27,,,,,,,0,0,0,40.00,11.00,-1770.00,0.00,0.00,1733.00,14,19.00,0.00,6.79,0.00,0.00,0.00,0,,,100,100,0,2,0,0,0,1,0,,,,,0.0,0.0,0.0,0.0,0.0,0.0,0
34.182595,-118.129087,1.90,2.00,0.00,0.67,1.90,1.90,0.50,0.68,6105,2022-06-06 23:22:01.192,2022-06-06 16:22:01.192,16,0,0,16.493,34.182589,-118.129090,0.00,0.00,0.00,-4.00,1.10,-177.30,0,1,0,86,100,-7429,2928,16493,3121.50,10,WP,1,0,0,0,0,0,0,1654557721192,4224,4225,4224,4215,0,0,27,,,,,,,0,0,0,40.00,11.00,-1773.00,0.00,0.00,1723.00,14,19.00,0.00,6.75,0.00,0.00,0.00,0,,,100,100,0,2,0,0,0,1,0,,,,,0.0,0.0,0.0,0.0,0.0,0.0,0
34.182595,-118.129087,1.90,2.00,0.00,0.69,1.90,1.90,0.50,0.69,6205,2022-06-06 23:22:01.293,2022-06-06 16:22:01.293,16,0,0,16.481,34.182589,-118.129090,0.00,0.00,0.00,-4.10,1.50,-176.80,0,1,0,86,100,-7070,2924,16481,3121.50,10,WP,1,0,0,0,0,0,0,1654557721292,4224,4225,4224,4215,0,0,27,,,,,,,0,0,0,41.00,15.00,-1768.00,0.00,0.00,1719.00,14,19.00,0.00,6.90,0.00,0.00,0.00,0,,,100,100,0,2,0,0,0,1,0,,,,,0.0,0.0,0.0,0.0,0.0,0.0,0
34.182595,-118.129087,1.90,2.00,0.00,0.69,1.90,1.90,0.50,0.69,6304,2022-06-06 23:22:01.392,2022-06-06 16:22:01.392,15,0,0,16.481,34.182589,-118.129090,0.00,0.00,0.00,-4.10,1.60,-176.00,0,1,0,86,100,-7070,2924,16481,3121.50,10,WP,1,0,0,0,0,0,0,1654557721391,4224,4225,4224,4215,0,0,27,,,,,,,0,0,0,41.00,16.00,-1760.00,0.00,0.00,1717.00,14,19.00,0.00,6.86,0.00,0.00,0.00,0,,,100,100,0,2,0,0,0,1,0,,,,,0.0,0.0,0.0,0.0,0.0,0.0,0
34.182595,-118.129087,1.90,2.00,0.00,0.71,1.90,1.90,0.50,0.71,6405,2022-06-06 23:22:01.493,2022-06-06 16:22:01.493,15,0,0,16.481,34.182589,-118.129090,0.00,0.00,0.00,-4.20,1.30,-175.60,0,1,0,86,100,-7070,2924,16481,3121.50,10,WP,1,0,0,0,0,0,0,1654557721492,4224,4225,4224,4215,0,0,27,,,,,,,0,0,0,42.00,13.00,-1756.00,0.00,0.00,1719.00,14,19.00,0.00,7.13,0.00,0.00,0.00,0,,,100,100,0,2,0,0,0,1,0,,,,,0.0,0.0,0.0,0.0,0.0,0.0,0
34.182595,-118.129087,1.90,2.00,0.00,0.71,1.90,1.90,0.50,0.71,6505,2022-06-06 23:22:01.592,2022-06-06 16:22:01.592,16,0,0,16.481,34.182589,-118.129090,0.00,0.00,0.00,-4.90,0.60,-175.70,0,1,0,86,100,-7070,2924,16481,3121.50,10,WP,1,0,0,0,0,0,0,1654557721592,4224,4225,4224,4215,0,0,27,,,,,,,0,0,0,49.00,6.00,-1757.00,0.00,0.00,1722.00,14,19.00,0.00,7.09,0.00,0.00,0.00,0,,,100,100,0,2,0,0,0,1,0,,,,,0.0,0.0,0.0,0.0,0.0,0.0,0
34.182595,-118.129087,1.90,2.00,0.00,0.73,1.90,1.90,0.50,0.73,6606,2022-06-06 23:22:01.693,2022-06-06 16:22:01.693,16,0,0,16.481,34.182589,-118.129090,0.00,0.00,0.00,-9.60,0.30,-175.80,0,1,0,86,100,-7070,2924,16481,3121.50,10,WP,1,0,0,0,0,0,0,1654557721693,4224,4225,4224,4215,0,0,27,,,,,,,0,0,0,96.00,3.00,-1758.00,0.00,0.00,1724.00,14,19.00,0.00,7.26,0.00,0.00,0.00,0,,,100,100,0,2,0,0,0,1,0,,,,,0.0,0.0,0.0,0.0,0.0,0.0,0
34.182595,-118.129087,1.90,2.00,0.10,0.71,1.90,1.90,0.50,0.73,6705,2022-06-06 23:22:01.792,2022-06-06 16:22:01.792,16,0,0,16.481,34.182589,-118.129090,-0.10,0.00,0.00,-13.40,0.00,-175.70,0,1,0,86,100,-7070,2924,16481,3121.50,10,WP,1,0,0,0,0,0,0,1654557721792,4224,4225,4224,4215,0,0,27,,,,,,,0,0,0,134.00,0.00,-1757.00,0.00,0.00,1725.00,14,19.00,1.00,7.15,-1.00,0.00,0.00,0,,,100,100,0,2,0,0,0,1,0,,,,,0.0,0.0,0.0,0.0,0.0,0.0,0
34.182595,-118.129087,1.90,2.00,0.30,0.71,1.90,1.90,0.50,0.73,6805,2022-06-06 23:22:01.893,2022-06-06 16:22:01.893,16,0,0,16.481,34.182589,-118.129090,-0.30,0.00,0.00,-16.50,-0.40,-175.60,0,1,0,86,100,-7070,2924,16481,3121.50,10,WP,1,0,0,0,0,0,0,1654557721892,4224,4225,4224,4215,0,0,27,,,,,,,0,0,0,165.00,-4.00,-1756.00,0.00,0.00,1725.00,14,19.00,3.00,7.08,-3.00,0.00,0.00,0,,,100,100,0,2,0,0,0,1,0,,,,,0.0,0.0,0.0,0.0,0.0,0.0,0
34.182594,-118.129087,1.90,2.00,0.50,0.66,1.90,1.90,0.50,0.73,6905,2022-06-06 23:22:01.993,2022-06-06 16:22:01.993,16,0,0,16.481,34.182589,-118.129090,-0.50,0.00,0.00,-17.70,0.00,-175.70,0,1,0,86,100,-7070,2924,16481,3121.50,10,WP,1,0,0,0,0,0,0,1654557721992,4224,4225,4224,4215,0,0,27,,,,,,,0,0,0,177.00,0.00,-1757.00,0.00,0.00,1725.00,14,19.00,5.00,6.65,-5.00,0.00,0.00,0,,,100,100,0,2,0,0,0,1,0,,,,,0.0,0.0,0.0,0.0,0.0,0.0,0
34.182594,-118.129087,1.90,2.00,0.71,0.62,1.90,1.90,0.71,0.73,7006,2022-06-06 23:22:02.093,2022-06-06 16:22:02.093,16,0,0,16.481,34.182589,-118.129090,-0.70,-0.10,0.00,-18.00,0.00,-175.70,0,1,0,86,100,-7070,2924,16481,3121.50,10,WP,1,0,0,0,0,0,0,1654557722093,4224,4225,4224,4215,0,0,27,,,,,,,0,0,0,180.00,0.00,-1757.00,0.00,0.00,1726.00,14,19.00,7.07,6.20,-7.00,-1.00,0.00,0,,,100,100,0,2,0,0,0,1,0,,,,,0.0,0.0,0.0,0.0,0.0,0.0,0
34.182593,-118.129087,1.90,2.00,1.00,0.54,1.90,1.90,1.00,0.73,7105,2022-06-06 23:22:02.193,2022-06-06 16:22:02.193,15,0,0,16.481,34.182589,-118.129090,-1.00,-0.10,0.00,-17.50,0.00,-175.60,0,1,0,86,100,-7070,2924,16481,3121.50,10,WP,1,0,0,0,0,0,0,1654557722192,4224,4225,4224,4215,0,0,27,,,,,,,0,0,0,175.00,0.00,-1756.00,0.00,0.00,1726.00,14,19.00,10.05,5.36,-10.00,-1.00,0.00,0,,,100,100,0,2,0,0,0,1,0,,,,,0.0,0.0,0.0,0.0,0.0,0.0,0
34.182593,-118.129087,1.90,2.00,1.20,0.47,1.90,1.90,1.20,0.73,7156,2022-06-06 23:22:02.243,2022-06-06 16:22:02.243,15,0,0,16.481,34.182589,-118.129090,-1.20,-0.10,0.00,-16.70,0.40,-175.60,0,1,0,86,100,-7070,2924,16481,3121.50,10,WP,1,0,0,0,0,0,0,1654557722243,4224,4225,4224,4215,0,0,27,,,,,,,0,0,0,167.00,4.00,-1756.00,0.00,0.00,1726.00,14,19.00,12.04,4.69,-12.00,-1.00,0.00,0,,,100,100,0,2,0,0,0,1,0,,,,,0.0,0.0,0.0,0.0,0.0,0.0,0
34.182591,-118.129088,1.90,2.00,1.41,0.36,1.90,1.90,1.41,0.73,7306,2022-06-06 23:22:02.393,2022-06-06 16:22:02.393,15,0,0,16.481,34.182589,-118.129090,-1.40,-0.20,0.00,-14.30,0.80,-175.50,0,1,0,86,100,-7070,2924,16481,3121.50,10,WP,1,0,0,0,0,0,0,1654557722393,4224,4225,4224,4215,0,0,27,,,,,,,0,0,0,143.00,8.00,-1755.00,0.00,0.00,1726.00,14,19.00,14.14,3.55,-14.00,-2.00,0.00,0,,,100,100,0,2,0,0,0,1,0,,,,,0.0,0.0,0.0,0.0,0.0,0.0,0
34.182590,-118.129088,1.90,2.00,1.61,0.22,1.90,1.90,1.61,0.73,7405,2022-06-06 23:22:02.493,2022-06-06 16:22:02.493,15,0,0,16.481,34.182589,-118.129090,-1.60,-0.20,0.00,-11.50,-0.30,-175.60,0,1,0,86,100,-7070,2924,16481,3121.50,10,WP,1,0,0,0,0,0,0,1654557722492,4224,4225,4224,4215,0,0,27,,,,,,,0,0,0,115.00,-3.00,-1756.00,0.00,0.00,1726.00,14,19.00,16.12,2.25,-16.00,-2.00,0.00,0,,,100,100,0,2,0,0,0,1,0,,,,,0.0,0.0,0.0,0.0,0.0,0.0,0
34.182589,-118.129088,1.90,2.00,1.71,0.16,1.90,1.90,1.71,0.73,7506,2022-06-06 23:22:02.593,2022-06-06 16:22:02.593,16,0,0,16.481,34.182589,-118.129090,-1.70,-0.20,0.00,-7.70,-0.90,-175.20,0,1,0,86,100,-7070,2924,16481,3121.50,10,WP,1,0,0,0,0,0,0,1654557722593,4224,4225,4224,4215,0,0,27,,,,,,,0,0,0,77.00,-9.00,-1752.00,0.00,0.00,1726.00,14,19.00,17.12,1.56,-17.00,-2.00,0.00,0,,,100,100,0,2,0,0,0,1,0,,,,,0.0,0.0,0.0,0.0,0.0,0.0,0
34.182588,-118.129090,1.90,2.00,1.81,0.15,1.90,1.90,1.81,0.73,7605,2022-06-06 23:22:02.693,2022-06-06 16:22:02.693,16,0,0,16.481,34.182589,-118.129090,-1.80,-0.20,0.00,-5.20,-3.30,-175.40,0,1,0,86,100,-7070,2924,16481,3121.50,10,WP,1,0,0,0,0,0,0,1654557722692,4120,4109,4101,4104,0,0,27,,,,,,,0,0,0,52.00,-33.00,-1754.00,0.00,0.00,1726.00,14,19.00,18.11,1.55,-18.00,-2.00,0.00,0,,,100,100,0,2,0,0,0,1,0,,,,,0.0,0.0,0.0,0.0,0.0,0.0,0
34.182586,-118.129090,1.90,2.00,1.71,0.33,1.90,1.90,1.81,0.73,7705,2022-06-06 23:22:02.793,2022-06-06 16:22:02.793,16,0,0,16.481,34.182589,-118.129090,-1.70,-0.20,-0.10,-2.70,-3.20,-175.10,0,1,0,86,100,-7070,2924,16481,3121.50,10,WP,1,0,0,0,0,0,0,1654557722792,4120,4109,4101,4104,0,0,27,,,,,,,0,0,0,27.00,-32.00,-1751.00,0.00,0.00,1726.00,14,19.00,17.15,3.25,-17.00,-2.00,-1.00,0,,,100,100,0,2,0,0,0,1,0,,,,,0.0,0.0,0.0,0.0,0.0,0.0,0
34.182585,-118.129092,2.00,2.00,1.70,0.47,2.00,2.00,1.81,0.73,7806,2022-06-06 23:22:02.894,2022-06-06 16:22:02.894,16,0,0,16.481,34.182589,-118.129090,-1.70,-0.10,0.00,-1.80,-4.60,-175.40,0,1,0,86,100,-7070,2924,16481,3121.50,10,WP,1,0,0,0,0,0,0,1654557722893,4120,4109,4101,4104,0,0,27,,,,,,,0,0,0,18.00,-46.00,-1754.00,0.00,0.00,1726.00,14,20.00,17.03,4.67,-17.00,-1.00,0.00,0,,,100,100,0,2,0,0,0,1,0,,,,,0.0,0.0,0.0,0.0,0.0,0.0,0
34.182584,-118.129092,2.00,2.00,1.70,0.63,2.00,2.00,1.81,0.73,7905,2022-06-06 23:22:02.993,2022-06-06 16:22:02.993,15,0,0,16.481,34.182589,-118.129090,-1.70,-0.10,0.00,-0.80,-4.40,-175.20,0,1,0,86,100,-7070,2924,16481,3121.50,10,WP,1,0,0,0,0,0,0,1654557722992,4120,4109,4101,4104,0,0,27,,,,,,,0,0,0,8.00,-44.00,-1752.00,0.00,0.00,1726.00,14,20.00,17.03,6.30,-17.00,-1.00,0.00,0,,,100,100,0,2,0,0,0,1,0,,,,,0.0,0.0,0.0,0.0,0.0,0.0,0
34.182582,-118.129093,2.00,2.00,1.70,0.79,2.00,2.00,1.81,0.79,8006,2022-06-06 23:22:03.094,2022-06-06 16:22:03.094,15,0,0,16.481,34.182589,-118.129090,-1.70,-0.10,0.00,-0.30,-6.30,-175.50,0,1,0,86,100,-7070,2924,16481,3121.50,10,WP,1,0,0,0,0,0,0,1654557723093,4120,4109,4101,4104,0,0,27,,,,,,,0,0,0,3.00,-63.00,-1755.00,0.00,0.00,1726.00,14,20.00,17.03,7.87,-17.00,-1.00,0.00,0,,,100,100,0,2,0,0,0,1,0,,,,,0.0,0.0,0.0,0.0,0.0,0.0,0
34.182581,-118.129094,2.00,2.00,1.60,0.93,2.00,2.00,1.81,0.93,8058,2022-06-06 23:22:03.145,2022-06-06 16:22:03.145,15,0,0,16.481,34.182589,-118.129090,-1.60,0.00,0.00,-0.20,-5.70,-175.20,0,1,0,86,100,-7070,2924,16481,3121.50,10,WP,1,0,0,0,0,0,0,1654557723145,4120,4109,4101,4104,0,0,27,,,,,,,0,0,0,2.00,-57.00,-1752.00,0.00,0.00,1726.00,14,20.00,16.00,9.32,-16.00,0.00,0.00,0,,,100,100,0,2,0,0,0,1,0,,,,,0.0,0.0,0.0,0.0,0.0,0.0,0
34.182580,-118.129095,2.00,2.00,1.50,1.11,2.00,2.00,1.81,1.11,8206,2022-06-06 23:22:03.294,2022-06-06 16:22:03.294,15,0,0,16.433,34.182589,-118.129090,-1.50,0.00,0.00,-0.30,-6.10,-175.40,0,1,0,86,100,-7688,2922,16433,3121.50,10,WP,1,0,0,0,0,0,0,1654557723293,4120,4109,4101,4104,0,0,27,,,,,,,0,0,0,3.00,-61.00,-1754.00,0.00,0.00,1727.00,14,20.00,15.00,11.10,-15.00,0.00,0.00,0,,,100,100,0,2,0,0,0,1,0,,,,,0.0,0.0,0.0,0.0,0.0,0.0,0
34.182579,-118.129095,2.00,2.00,1.50,1.24,2.00,2.00,1.81,1.24,8307,2022-06-06 23:22:03.394,2022-06-06 16:22:03.394,15,0,0,16.433,34.182589,-118.129090,-1.50,0.00,0.00,-1.00,-5.40,-175.10,0,1,0,86,100,-7688,2922,16433,3121.50,10,WP,1,0,0,0,0,0,0,1654557723394,4120,4109,4101,4104,0,0,27,,,,,,,0,0,0,10.00,-54.00,-1751.00,0.00,0.00,1727.00,14,20.00,15.00,12.40,-15.00,0.00,0.00,0,,,100,100,0,2,0,0,0,1,0,,,,,0.0,0.0,0.0,0.0,0.0,0.0,0
34.182577,-118.129096,2.00,2.00,1.40,1.40,2.00,2.00,1.81,1.40,8405,2022-06-06 23:22:03.493,2022-06-06 16:22:03.493,15,0,0,16.433,34.182589,-118.129090,-1.40,0.10,0.00,-0.70,-5.60,-175.30,0,1,0,86,100,-7688,2922,16433,3121.50,10,WP,1,0,0,0,0,0,0,1654557723492,4120,4109,4101,4104,0,0,27,,,,,,,0,0,0,7.00,-56.00,-1753.00,0.00,0.00,1727.00,14,20.00,14.04,13.96,-14.00,1.00,0.00,0,,,100,100,0,2,0,0,0,1,0,,,,,0.0,0.0,0.0,0.0,0.0,0.0,0
34.182576,-118.129096,2.00,2.00,1.41,1.51,2.00,2.00,1.81,1.51,8506,2022-06-06 23:22:03.593,2022-06-06 16:22:03.593,15,0,0,16.433,34.182589,-118.129090,-1.40,0.20,0.00,-0.50,-5.10,-175.20,0,1,0,86,100,-7688,2922,16433,3121.50,10,WP,1,0,0,0,0,0,0,1654557723593,4120,4109,4101,4104,0,0,27,,,,,,,0,0,0,5.00,-51.00,-1752.00,0.00,0.00,1727.00,14,20.00,14.14,15.13,-14.00,2.00,0.00,0,,,100,100,0,2,0,0,0,1,0,,,,,0.0,0.0,0.0,0.0,0.0,0.0,0
34.182575,-118.129096,1.90,2.00,1.33,1.69,2.00,2.00,1.81,1.69,8607,2022-06-06 23:22:03.694,2022-06-06 16:22:03.694,15,0,0,16.433,34.182589,-118.129090,-1.30,0.30,0.00,0.50,-5.10,-175.50,0,1,0,86,100,-7688,2922,16433,3121.50,10,WP,1,0,0,0,0,0,0,1654557723694,4120,4109,4101,4104,0,0,27,,,,,,,0,0,0,-5.00,-51.00,-1755.00,0.00,0.00,1727.00,14,19.00,13.34,16.93,-13.00,3.00,0.00,0,,,100,100,0,2,0,0,0,1,0,,,,,0.0,0.0,0.0,0.0,0.0,0.0,0
34.182574,-118.129096,1.90,2.00,1.24,1.80,2.00,2.00,1.81,1.80,8707,2022-06-06 23:22:03.794,2022-06-06 16:22:03.794,15,0,0,16.433,34.182589,-118.129090,-1.20,0.30,0.00,0.30,-4.70,-175.40,0,1,0,86,100,-7688,2922,16433,3121.50,10,WP,1,0,0,0,0,0,0,1654557723794,4120,4109,4101,4104,0,0,27,,,,,,,0,0,0,-3.00,-47.00,-1754.00,0.00,0.00,1727.00,14,19.00,12.37,17.98,-12.00,3.00,0.00,0,,,100,100,0,2,0,0,0,1,0,,,,,0.0,0.0,0.0,0.0,0.0,0.0,0
34.182572,-118.129096,1.90,2.00,1.17,1.92,2.00,2.00,1.81,1.92,8807,2022-06-06 23:22:03.895,2022-06-06 16:22:03.895,15,0,0,16.433,34.182589,-118.129090,-1.10,0.40,0.00,0.30,-3.90,-175.60,0,1,0,86,100,-7688,2922,16433,3121.50,10,WP,1,0,0,0,0,0,0,1654557723894,4120,4109,4101,4104,0,0,27,,,,,,,0,0,0,-3.00,-39.00,-1756.00,0.00,0.00,1727.00,14,19.00,11.70,19.18,-11.00,4.00,0.00,0,,,100,100,0,2,0,0,0,1,0,,,,,0.0,0.0,0.0,0.0,0.0,0.0,0
34.182572,-118.129096,1.90,2.00,1.08,2.01,2.00,2.00,1.81,2.01,8906,2022-06-06 23:22:03.994,2022-06-06 16:22:03.994,15,0,0,16.433,34.182589,-118.129090,-1.00,0.40,0.00,-0.10,-3.10,-175.50,0,1,0,86,100,-7688,2922,16433,3121.50,10,WP,1,0,0,0,0,0,0,1654557723993,4120,4109,4101,4104,0,0,27,,,,,,,0,0,0,1.00,-31.00,-1755.00,0.00,0.00,1727.00,14,19.00,10.77,20.08,-10.00,4.00,0.00,0,,,100,100,0,2,0,0,0,1,0,,,,,0.0,0.0,0.0,0.0,0.0,0.0,0
34.182570,-118.129095,1.90,2.00,1.12,2.13,2.00,2.00,1.81,2.13,9006,2022-06-06 23:22:04.094,2022-06-06 16:22:04.094,15,0,0,16.433,34.182589,-118.129090,-1.00,0.50,0.00,0.40,-0.70,-175.60,0,1,0,86,100,-7688,2922,16433,3121.50,10,WP,1,0,0,0,0,0,0,1654557724093,4120,4109,4101,4104,0,0,27,,,,,,,0,0,0,-4.00,-7.00,-1756.00,0.00,0.00,1727.00,14,19.00,11.18,21.28,-10.00,5.00,0.00,0,,,100,100,0,2,0,0,0,1,0,,,,,0.0,0.0,0.0,0.0,0.0,0.0,0
34.182570,-118.129095,1.90,2.00,1.03,2.21,2.00,2.00,1.81,2.21,9107,2022-06-06 23:22:04.194,2022-06-06 16:22:04.195,15,0,0,16.433,34.182589,-118.129090,-0.90,0.50,0.00,0.10,0.00,-175.50,0,1,0,86,100,-7688,2922,16433,3121.50,10,WP,1,0,0,0,0,0,0,1654557724194,4120,4109,4101,4104,0,0,27,,,,,,,0,0,0,-1.00,0.00,-1755.00,0.00,0.00,1727.00,14,19.00,10.30,22.09,-9.00,5.00,0.00,0,,,100,100,0,2,0,0,0,1,0,,,,,0.0,0.0,0.0,0.0,0.0,0.0,0
34.182568,-118.129095,1.90,2.00,0.94,2.33,2.00,2.00,1.81,2.33,9206,2022-06-06 23:22:04.294,2022-06-06 16:22:04.294,15,0,0,16.433,34.182589,-118.129090,-0.80,0.50,0.00,0.70,1.00,-175.50,0,1,0,86,100,-7688,2922,16433,3121.50,10,WP,1,0,0,0,0,0,0,1654557724293,4120,4109,4101,4104,0,0,27,,,,,,,0,0,0,-7.00,10.00,-1755.00,0.00,0.00,1727.00,14,19.00,9.43,23.33,-8.00,5.00,0.00,0,,,100,100,0,2,0,0,0,1,0,,,,,0.0,0.0,0.0,0.0,0.0,0.0,0
34.182568,-118.129095,1.90,2.00,0.94,2.41,2.00,2.00,1.81,2.41,9307,2022-06-06 23:22:04.394,2022-06-06 16:22:04.394,15,0,0,16.433,34.182589,-118.129090,-0.80,0.50,0.00,0.50,1.00,-175.50,0,1,0,86,100,-7688,2922,16433,3121.50,10,WP,1,0,0,0,0,0,0,1654557724394,4120,4109,4101,4104,0,0,27,,,,,,,0,0,0,-5.00,10.00,-1755.00,0.00,0.00,1727.00,14,19.00,9.43,24.08,-8.00,5.00,0.00,0,,,100,100,0,2,0,0,0,1,0,,,,,0.0,0.0,0.0,0.0,0.0,0.0,0
34.182567,-118.129094,1.90,2.00,0.86,2.50,2.00,2.00,1.81,2.50,9407,2022-06-06 23:22:04.494,2022-06-06 16:22:04.494,15,0,0,16.433,34.182589,-118.129090,-0.70,0.50,0.00,0.80,1.80,-175.50,0,1,0,86,100,-7688,2922,16433,3121.50,10,WP,1,0,0,0,0,0,0,1654557724494,4120,4109,4101,4104,0,0,27,,,,,,,0,0,0,-8.00,18.00,-1755.00,0.00,0.00,1727.00,14,19.00,8.60,25.02,-7.00,5.00,0.00,0,,,100,100,0,2,0,0,0,1,0,,,,,0.0,0.0,0.0,0.0,0.0,0.0,0
34.182566,-118.129094,1.90,2.00,0.72,2.57,2.00,2.00,1.81,2.57,9507,2022-06-06 23:22:04.594,2022-06-06 16:22:04.594,15,0,0,16.433,34.182589,-118.129090,-0.60,0.40,0.00,0.70,2.10,-175.30,0,1,0,86,100,-7688,2922,16433,3121.50,10,WP,1,0,0,0,0,0,0,1654557724594,4120,4109,4101,4104,0,0,27,,,,,,,0,0,0,-7.00,21.00,-1753.00,0.00,0.00,1727.00,14,19.00,7.21,25.66,-6.00,4.00,0.00,0,,,100,100,0,2,0,0,0,1,0,,,,,0.0,0.0,0.0,0.0,0.0,0.0,0
34.182565,-118.129093,1.90,2.00,0.64,2.65,2.00,2.00,1.81,2.65,9607,2022-06-06 23:22:04.694,2022-06-06 16:22:04.694,15,0,0,16.433,34.182589,-118.129090,-0.50,0.40,0.00,1.40,3.40,-175.50,0,1,0,86,100,-7688,2922,16433,3121.50,10,WP,1,0,0,0,0,0,0,1654557724694,4120,4109,4101,4104,0,0,27,,,,,,,0,0,0,-14.00,34.00,-1755.00,0.00,0.00,1727.00,14,19.00,6.40,26.45,-5.00,4.00,0.00,0,,,100,100,0,2,0,0,0,1,0,,,,,0.0,0.0,0.0,0.0,0.0,0.0,0
34.182565,-118.129093,1.90,2.00,0.50,2.70,2.00,2.00,1.81,2.70,9707,2022-06-06 23:22:04.794,2022-06-06 16:22:04.794,15,0,0,16.433,34.182589,-118.129090,-0.40,0.30,0.00,1.00,2.30,-175.50,0,1,0,86,100,-7688,2922,16433,3121.50,10,WP,1,0,0,0,0,0,0,1654557724794,4120,4109,4101,4104,0,0,27,,,,,,,0,0,0,-10.00,23.00,-1755.00,0.00,0.00,1727.00,14,19.00,5.00,26.97,-4.00,3.00,0.00,0,,,100,100,0,2,0,0,0,1,0,,,,,0.0,0.0,0.0,0.0,0.0,0.0,0
34.182564,-118.129092,1.90,2.00,0.42,2.76,2.00,2.00,1.81,2.76,9807,2022-06-06 23:22:04.895,2022-06-06 16:22:04.895,15,0,0,16.433,34.182589,-118.129090,-0.30,0.30,0.00,1.00,3.10,-175.70,0,1,0,86,100,-7688,2922,16433,3121.50,10,WP,1,0,0,0,0,0,0,1654557724894,4120,4109,4101,4104,0,0,27,,,,,,,0,0,0,-10.00,31.00,-1757.00,0.00,0.00,1727.00,14,19.00,4.24,27.56,-3.00,3.00,0.00,0,,,100,100,0,2,0,0,0,1,0,,,,,0.0,0.0,0.0,0.0,0.0,0.0,0
34.182564,-118.129092,1.90,2.00,0.36,2.79,2.00,2.00,1.81,2.79,9907,2022-06-06 23:22:04.995,2022-06-06 16:22:04.995,15,0,0,16.433,34.182589,-118.129090,-0.20,0.30,0.00,0.30,2.70,-175.50,0,1,0,86,100,-7688,2922,16433,3121.50,10,WP,1,0,0,0,0,0,0,1654557724994,4120,4109,4101,4104,0,0,27,,,,,,,0,0,0,-3.00,27.00,-1755.00,0.00,0.00,1727.00,14,19.00,3.61,27.93,-2.00,3.00,0.00,0,,,100,100,0,2,0,0,0,1,0,,,,,0.0,0.0,0.0,0.0,0.0,0.0,0
34.182564,-118.129091,1.90,2.00,0.22,2.82,2.00,2.00,1.81,2.82,9957,2022-06-06 23:22:05.045,2022-06-06 16:22:05.045,15,0,0,16.433,34.182589,-118.129090,-0.10,0.20,0.00,1.30,4.70,-175.30,0,1,0,86,100,-7688,2922,16433,3121.50,10,WP,1,0,0,0,0,0,0,1654557725044,4120,4109,4101,4104,0,0,27,,,,,,,0,0,0,-13.00,47.00,-1753.00,0.00,0.00,1727.00,14,19.00,2.24,28.24,-1.00,2.00,0.00,0,,,100,100,0,2,0,0,0,1,0,,,,,0.0,0.0,0.0,0.0,0.0,0.0,0
34.182563,-118.129092,1.90,2.00,0.22,2.85,2.00,2.00,1.81,2.85,10108,2022-06-06 23:22:05.195,2022-06-06 16:22:05.195,16,0,0,16.433,34.182589,-118.129090,-0.10,0.20,0.00,0.00,3.80,-175.20,0,1,0,86,100,-7688,2922,16433,3121.50,10,WP,1,0,0,0,0,0,0,1654557725195,4120,4109,4101,4104,0,0,27,,,,,,,0,0,0,-0.00,38.00,-1752.00,0.00,0.00,1727.00,14,19.00,2.24,28.47,-1.00,2.00,0.00,0,,,100,100,0,2,0,0,0,1,0,,,,,0.0,0.0,0.0,0.0,0.0,0.0,0
34.182563,-118.129091,1.90,2.00,0.10,2.87,2.00,2.00,1.81,2.87,10157,2022-06-06 23:22:05.245,2022-06-06 16:22:05.245,16,0,0,16.433,34.182589,-118.129090,0.00,0.10,0.00,-1.00,2.60,-175.00,0,1,0,86,100,-7688,2922,16433,3121.50,10,WP,1,0,0,0,0,0,0,1654557725244,4120,4109,4101,4104,0,0,27,,,,,,,0,0,0,10.00,26.00,-1750.00,0.00,0.00,1728.00,14,19.00,1.00,28.70,0.00,1.00,0.00,0,,,100,100,0,2,0,0,0,1,0,,,,,0.0,0.0,0.0,0.0,0.0,0.0,0
34.182563,-118.129091,1.90,2.00,0.10,2.88,2.00,2.00,1.81,2.88,10308,2022-06-06 23:22:05.396,2022-06-06 16:22:05.396,16,0,0,16.447,34.182589,-118.129090,0.00,0.10,0.00,-1.80,1.70,-170.50,0,1,0,86,100,-7160,2918,16447,3121.50,10,WP,1,0,0,0,0,0,0,1654557725395,4120,4109,4101,4104,0,0,27,,,,,,,0,0,0,18.00,17.00,-1705.00,0.00,0.00,1728.00,14,19.00,1.00,28.84,0.00,1.00,0.00,0,,,100,100,0,2,0,0,0,1,0,,,,,0.0,0.0,0.0,0.0,0.0,0.0,0
34.182563,-118.129090,1.90,2.00,0.10,2.86,2.00,2.00,1.81,2.88,10407,2022-06-06 23:22:05.495,2022-06-06 16:22:05.495,16,0,0,16.447,34.182589,-118.129090,0.00,0.10,0.00,-2.50,1.50,-163.00,0,1,0,86,100,-7160,2918,16447,3121.50,10,WP,1,0,0,0,0,0,0,1654557725494,4120,4109,4101,4104,0,0,27,,,,,,,0,0,0,25.00,15.00,-1630.00,0.00,0.00,1740.00,14,19.00,1.00,28.58,0.00,1.00,0.00,0,,,100,100,0,2,0,0,0,1,0,,,,,0.0,0.0,0.0,0.0,0.0,0.0,0
34.182563,-118.129090,1.90,2.00,0.00,2.86,2.00,2.00,1.81,2.88,10508,2022-06-06 23:22:05.595,2022-06-06 16:22:05.595,16,0,0,16.447,34.182589,-118.129090,0.00,0.00,0.00,-3.40,1.10,-155.50,0,1,0,86,100,-7160,2918,16447,3121.50,10,WP,1,0,0,0,0,0,0,1654557725595,4120,4109,4101,4104,0,0,27,,,,,,,0,0,0,34.00,11.00,-1555.00,0.00,0.00,-1797.00,14,19.00,0.00,28.64,0.00,0.00,0.00,0,,,100,100,0,2,0,0,0,1,0,,,,,0.0,0.0,0.0,0.0,0.0,0.0,0
34.182563,-118.129090,1.90,2.00,0.00,2.85,2.00,2.00,1.81,2.88,10609,2022-06-06 23:22:05.696,2022-06-06 16:22:05.696,16,0,0,16.447,34.182589,-118.129090,0.00,0.00,0.00,-3.60,0.40,-148.00,0,1,0,86,100,-7160,2918,16447,3121.50,10,WP,1,0,0,0,0,0,0,1654557725696,4120,4109,4101,4104,0,0,27,,,,,,,0,0,0,36.00,4.00,-1480.00,0.00,0.00,-1712.00,14,19.00,0.00,28.50,0.00,0.00,0.00,0,,,100,100,0,2,0,0,0,1,0,,,,,0.0,0.0,0.0,0.0,0.0,0.0,0
34.182563,-118.129090,1.90,2.00,0.10,2.85,2.00,2.00,1.81,2.88,10708,2022-06-06 23:22:05.796,2022-06-06 16:22:05.796,16,0,0,16.447,34.182589,-118.129090,0.10,0.00,0.00,-3.50,-0.60,-140.60,0,1,0,86,100,-7160,2918,16447,3121.50,10,WP,1,0,0,0,0,0,0,1654557725795,4120,4109,4101,4104,0,0,27,,,,,,,0,0,0,35.00,-6.00,-1406.00,0.00,0.00,-1629.00,14,19.00,1.00,28.50,1.00,0.00,0.00,0,,,100,100,0,2,0,0,0,1,0,,,,,0.0,0.0,0.0,0.0,0.0,0.0,0
34.182564,-118.129090,1.90,1.90,0.10,2.81,2.00,2.00,1.81,2.88,10808,2022-06-06 23:22:05.896,2022-06-06 16:22:05.896,16,0,0,16.447,34.182589,-118.129090,0.10,0.00,0.00,-2.70,-2.40,-133.40,0,1,0,86,100,-7160,2918,16447,3121.50,10,WP,1,0,0,0,0,0,0,1654557725895,4120,4109,4101,4104,0,0,27,,,,,,,0,0,0,27.00,-24.00,-1334.00,0.00,0.00,-1550.00,14,19.00,1.00,28.08,1.00,0.00,0.00,0,,,100,100,0,2,0,0,0,1,0,,,,,0.0,0.0,0.0,0.0,0.0,0.0,0
34.182564,-118.129090,1.90,1.90,0.10,2.80,2.00,2.00,1.81,2.88,10909,2022-06-06 23:22:05.997,2022-06-06 16:22:05.997,16,0,0,16.447,34.182589,-118.129090,0.10,0.00,0.00,-2.10,-3.50,-126.00,0,1,0,86,100,-7160,2918,16447,3121.50,10,WP,1,0,0,0,0,0,0,1654557725996,4120,4109,4101,4104,0,0,27,,,,,,,0,0,0,21.00,-35.00,-1260.00,0.00,0.00,-1473.00,14,19.00,1.00,28.04,1.00,0.00,0.00,0,,,100,100,0,2,0,0,0,1,0,,,,,0.0,0.0,0.0,0.0,0.0,0.0,0
34.182564,-118.129089,1.90,2.00,0.10,2.75,2.00,2.00,1.81,2.88,11044,2022-06-06 23:22:06.131,2022-06-06 16:22:06.131,16,0,0,16.447,34.182589,-118.129090,0.10,0.00,0.00,-1.60,-4.10,-118.70,0,1,0,86,100,-7160,2918,16447,3121.50,10,WP,1,0,0,0,0,0,0,1654557726131,4120,4109,4101,4104,0,0,27,,,,,,,0,0,0,16.00,-41.00,-1187.00,0.00,0.00,-1397.00,14,19.00,1.00,27.54,1.00,0.00,0.00,0,,,100,100,0,2,0,0,0,1,0,,,,,0.0,0.0,0.0,0.0,0.0,0.0,0
34.182564,-118.129090,1.90,1.90,0.10,2.75,2.00,2.00,1.81,2.88,11108,2022-06-06 23:22:06.196,2022-06-06 16:22:06.196,16,0,0,16.447,34.182589,-118.129090,0.10,0.00,0.00,-1.20,-4.20,-111.20,0,1,0,86,100,-7160,2918,16447,3121.50,10,WP,1,0,0,0,0,0,0,1654557726195,4120,4109,4101,4104,0,0,27,,,,,,,0,0,0,12.00,-42.00,-1112.00,0.00,0.00,-1321.00,14,19.00,1.00,27.48,1.00,0.00,0.00,0,,,100,100,0,2,0,0,0,1,0,,,,,0.0,0.0,0.0,0.0,0.0,0.0,0
34.182565,-118.129089,1.90,1.90,0.10,2.71,2.00,2.00,1.81,2.88,11209,2022-06-06 23:22:06.297,2022-06-06 16:22:06.297,16,0,0,16.447,34.182589,-118.129090,0.10,0.00,0.00,-0.60,-4.30,-103.70,0,1,0,86,100,-7160,2918,16447,3121.50,10,WP,1,0,0,0,0,0,0,1654557726296,4120,4109,4101,4104,0,0,27,,,,,,,0,0,0,6.00,-43.00,-1037.00,0.00,0.00,-1246.00,14,19.00,1.00,27.06,1.00,0.00,0.00,0,,,100,100,0,2,0,0,0,1,0,,,,,0.0,0.0,0.0,0.0,0.0,0.0,0
34.182565,-118.129089,1.90,1.90,0.10,2.70,2.00,2.00,1.81,2.88,11309,2022-06-06 23:22:06.397,2022-06-06 16:22:06.397,16,0,0,16.447,34.182589,-118.129090,0.10,0.00,0.00,-0.20,-4.30,-96.10,0,1,0,86,100,-7160,2918,16447,3121.50,10,WP,1,0,0,0,0,0,0,1654557726396,4120,4109,4101,4104,0,0,27,,,,,,,0,0,0,2.00,-43.00,-961.00,0.00,0.00,-1169.00,14,19.00,1.00,26.98,1.00,0.00,0.00,0,,,100,100,0,2,0,0,0,1,0,,,,,0.0,0.0,0.0,0.0,0.0,0.0,0
34.182565,-118.129089,1.90,1.90,0.00,2.65,2.00,2.00,1.81,2.88,11408,2022-06-06 23:22:06.496,2022-06-06 16:22:06.496,16,0,0,16.447,34.182589,-118.129090,0.00,0.00,0.00,0.00,-4.40,-88.60,0,1,0,86,100,-7160,2918,16447,3121.50,10,WP,1,0,0,0,0,0,0,1654557726495,4120,4109,4101,4104,0,0,27,,,,,,,0,0,0,-0.00,-44.00,-886.00,0.00,0.00,-1093.00,14,19.00,0.00,26.49,0.00,0.00,0.00,0,,,100,100,0,2,0,0,0,1,0,,,,,0.0,0.0,0.0,0.0,0.0,0.0,0
34.182565,-118.129089,1.90,1.90,0.00,2.64,2.00,2.00,1.81,2.88,11459,2022-06-06 23:22:06.547,2022-06-06 16:22:06.547,16,0,0,16.447,34.182589,-118.129090,0.00,0.00,0.00,0.80,-4.60,-81.30,0,1,0,86,100,-7160,2918,16447,3121.50,10,WP,1,0,0,0,0,0,0,1654557726546,4120,4109,4101,4104,0,0,27,,,,,,,0,0,0,-8.00,-46.00,-813.00,0.00,0.00,-1017.00,14,19.00,0.00,26.39,0.00,0.00,0.00,0,,,100,100,0,2,0,0,0,1,0,,,,,0.0,0.0,0.0,0.0,0.0,0.0,0
34.182566,-118.129089,1.90,1.90,0.00,2.59,2.00,2.00,1.81,2.88,11559,2022-06-06 23:22:06.647,2022-06-06 16:22:06.647,16,0,0,16.447,34.182589,-118.129090,0.00,0.00,0.00,1.70,-4.30,-73.90,0,1,0,86,100,-7160,2918,16447,3121.50,10,WP,1,0,0,0,0,0,0,1654557726646,4120,4109,4101,4104,0,0,27,,,,,,,0,0,0,-17.00,-43.00,-739.00,0.00,0.00,-942.00,14,19.00,0.00,25.94,0.00,0.00,0.00,0,,,100,100,0,2,0,0,0,1,0,,,,,0.0,0.0,0.0,0.0,0.0,0.0,0
34.182566,-118.129089,1.90,1.90,0.00,2.58,2.00,2.00,1.81,2.88,11660,2022-06-06 23:22:06.747,2022-06-06 16:22:06.747,16,0,0,16.447,34.182589,-118.129090,0.00,0.00,0.00,2.20,-3.90,-66.40,0,1,0,86,100,-7160,2918,16447,3121.50,10,WP,1,0,0,0,0,0,0,1654557726747,4120,4109,4101,4104,0,0,27,,,,,,,0,0,0,-22.00,-39.00,-664.00,0.00,0.00,-867.00,14,19.00,0.00,25.81,0.00,0.00,0.00,0,,,100,100,0,2,0,0,0,1,0,,,,,0.0,0.0,0.0,0.0,0.0,0.0,0
34.182566,-118.129089,1.90,1.90,0.00,2.56,2.00,2.00,1.81,2.88,11760,2022-06-06 23:22:06.847,2022-06-06 16:22:06.847,16,0,0,16.447,34.182589,-118.129090,0.00,0.00,0.00,2.70,-3.40,-59.00,0,1,0,86,100,-7160,2918,16447,3121.50,10,WP,1,0,0,0,0,0,0,1654557726847,4120,4109,4101,4104,0,0,27,,,,,,,0,0,0,-27.00,-34.00,-590.00,0.00,0.00,-793.00,14,19.00,0.00,25.60,0.00,0.00,0.00,0,,,100,100,0,2,0,0,0,1,0,,,,,0.0,0.0,0.0,0.0,0.0,0.0,0
34.182566,-118.129089,1.90,1.90,0.00,2.55,2.00,2.00,1.81,2.88,11860,2022-06-06 23:22:06.947,2022-06-06 16:22:06.947,16,0,0,16.447,34.182589,-118.129090,0.00,0.00,0.00,3.20,-3.20,-51.60,0,1,0,86,100,-7160,2918,16447,3121.50,10,WP,1,0,0,0,0,0,0,1654557726947,4120,4109,4101,4104,0,0,27,,,,,,,0,0,0,-32.00,-32.00,-516.00,0.00,0.00,-718.00,14,19.00,0.00,25.46,0.00,0.00,0.00,0,,,100,100,0,2,0,0,0,1,0,,,,,0.0,0.0,0.0,0.0,0.0,0.0,0
34.182566,-118.129089,1.90,1.90,0.00,2.54,2.00,2.00,1.81,2.88,12009,2022-06-06 23:22:07.097,2022-06-06 16:22:07.097,16,0,0,16.447,34.182589,-118.129090,0.00,0.00,0.00,3.80,-2.90,-44.10,0,1,0,86,100,-7160,2918,16447,3121.50,10,WP,1,0,0,0,0,0,0,1654557727096,4120,4109,4101,4104,0,0,27,,,,,,,0,0,0,-38.00,-29.00,-441.00,0.00,0.00,-643.00,14,19.00,0.00,25.40,0.00,0.00,0.00,0,,,100,100,0,2,0,0,0,1,0,,,,,0.0,0.0,0.0,0.0,0.0,0.0,0
34.182566,-118.129089,1.90,1.90,0.00,2.53,2.00,2.00,1.81,2.88,12110,2022-06-06 23:22:07.197,2022-06-06 16:22:07.197,16,0,0,16.447,34.182589,-118.129090,0.00,0.00,0.00,4.20,-2.60,-36.70,0,1,0,86,100,-7160,2918,16447,3121.50,10,WP,1,0,0,0,0,0,0,1654557727197,4120,4109,4101,4104,0,0,27,,,,,,,0,0,0,-42.00,-26.00,-367.00,0.00,0.00,-568.00,14,19.00,0.00,25.25,0.00,0.00,0.00,0,,,100,100,0,2,0,0,0,1,0,,,,,0.0,0.0,0.0,0.0,0.0,0.0,0
34.182566,-118.129089,1.90,1.90,0.00,2.53,2.00,2.00,1.81,2.88,12160,2022-06-06 23:22:07.247,2022-06-06 16:22:07.247,16,0,0,16.445,34.182589,-118.129090,0.00,0.00,0.00,4.20,-2.10,-29.60,0,1,0,86,100,-7328,2912,16445,3121.50,10,WP,1,0,0,0,0,0,0,1654557727247,4120,4109,4101,4104,0,0,27,,,,,,,0,0,0,-42.00,-21.00,-296.00,0.00,0.00,-494.00,14,19.00,0.00,25.34,0.00,0.00,0.00,0,,,100,100,0,2,0,0,0,1,0,,,,,0.0,0.0,0.0,0.0,0.0,0.0,0
34.182566,-118.129088,1.90,1.90,0.00,2.52,2.00,2.00,1.81,2.88,12309,2022-06-06 23:22:07.396,2022-06-06 16:22:07.396,16,0,0,16.445,34.182589,-118.129090,0.00,0.00,0.00,4.30,-2.20,-23.90,0,1,0,86,100,-7328,2912,16445,3121.50,10,WP,1,0,0,0,0,0,0,1654557727396,4120,4109,4101,4104,0,0,27,,,,,,,0,0,0,-43.00,-22.00,-239.00,0.00,0.00,-425.00,14,19.00,0.00,25.22,0.00,0.00,0.00,0,,,100,100,0,2,0,0,0,1,0,,,,,0.0,0.0,0.0,0.0,0.0,0.0,0
34.182566,-118.129088,1.90,1.90,0.00,2.53,2.00,2.00,1.81,2.88,12411,2022-06-06 23:22:07.499,2022-06-06 16:22:07.499,16,0,0,16.445,34.182589,-118.129090,0.00,0.00,0.00,4.40,-2.20,-19.30,0,1,0,86,100,-7328,2912,16445,3121.50,10,WP,1,0,0,0,0,0,0,1654557727498,4120,4109,4101,4104,0,0,27,,,,,,,0,0,0,-44.00,-22.00,-193.00,0.00,0.00,-367.00,14,19.00,0.00,25.31,0.00,0.00,0.00,0,,,100,100,0,2,0,0,0,1,0,,,,,0.0,0.0,0.0,0.0,0.0,0.0,0
34.182566,-118.129088,1.90,1.90,0.00,2.52,2.00,2.00,1.81,2.88,12510,2022-06-06 23:22:07.598,2022-06-06 16:22:07.598,16,0,0,16.445,34.182589,-118.129090,0.00,0.00,0.00,4.50,-2.20,-15.60,0,1,0,86,100,-7328,2912,16445,3121.50,10,WP,1,0,0,0,0,0,0,1654557727597,4120,4109,4101,4104,0,0,27,,,,,,,0,0,0,-45.00,-22.00,-156.00,0.00,0.00,-321.00,14,19.00,0.00,25.21,0.00,0.00,0.00,0,,,100,100,0,2,0,0,0,1,0,,,,,0.0,0.0,0.0,0.0,0.0,0.0,0
34.182566,-118.129088,1.90,1.90,0.00,2.56,2.00,2.00,1.81,2.88,12610,2022-06-06 23:22:07.698,2022-06-06 16:22:07.698,16,0,0,16.445,34.182589,-118.129090,0.00,0.00,0.00,4.50,-2.50,-12.50,0,1,0,86,100,-7328,2912,16445,3121.50,10,WP,1,0,0,0,0,0,0,1654557727697,4120,4109,4101,4104,0,0,27,,,,,,,0,0,0,-45.00,-25.00,-125.00,0.00,0.00,-283.00,14,19.00,0.00,25.56,0.00,0.00,0.00,0,,,100,100,0,2,0,0,0,1,0,,,,,0.0,0.0,0.0,0.0,0.0,0.0,0
34.182566,-118.129088,1.90,1.90,0.00,2.55,2.00,2.00,1.81,2.88,12661,2022-06-06 23:22:07.748,2022-06-06 16:22:07.749,16,0,0,16.445,34.182589,-118.129090,0.00,0.00,0.00,4.30,-2.60,-10.00,0,1,0,86,100,-7328,2912,16445,3121.50,10,WP,1,0,0,0,0,0,0,1654557727748,4120,4109,4101,4104,0,0,27,,,,,,,0,0,0,-43.00,-26.00,-100.00,0.00,0.00,-253.00,14,19.00,0.00,25.51,0.00,0.00,0.00,0,,,100,100,0,2,0,0,0,1,0,,,,,0.0,0.0,0.0,0.0,0.0,0.0,0
34.182566,-118.129088,1.90,1.90,0.00,2.57,2.00,2.00,1.81,2.88,12760,2022-06-06 23:22:07.847,2022-06-06 16:22:07.847,16,0,0,16.445,34.182589,-118.129090,0.00,0.00,0.00,4.20,-2.40,-7.90,0,1,0,86,100,-7328,2912,16445,3121.50,10,WP,1,0,0,0,0,0,0,1654557727847,4120,4109,4101,4104,0,0,27,,,,,,,0,0,0,-42.00,-24.00,-79.00,0.00,0.00,-227.00,14,19.00,0.00,25.75,0.00,0.00,0.00,0,,,100,100,0,2,0,0,0,1,0,,,,,0.0,0.0,0.0,0.0,0.0,0.0,0
34.182566,-118.129088,1.90,1.90,0.00,2.57,2.00,2.00,1.81,2.88,12910,2022-06-06 23:22:07.998,2022-06-06 16:22:07.998,16,0,0,16.445,34.182589,-118.129090,0.00,0.00,0.00,4.30,-2.30,-6.10,0,1,0,86,100,-7328,2912,16445,3121.50,10,WP,1,0,0,0,0,0,0,1654557727997,4120,4109,4101,4104,0,0,27,,,,,,,0,0,0,-43.00,-23.00,-61.00,0.00,0.00,-206.00,14,19.00,0.00,25.72,0.00,0.00,0.00,0,,,100,100,0,2,0,0,0,1,0,,,,,0.0,0.0,0.0,0.0,0.0,0.0,0
34.182566,-118.129088,1.90,1.90,0.00,2.60,2.00,2.00,1.81,2.88,13010,2022-06-06 23:22:08.098,2022-06-06 16:22:08.098,16,0,0,16.445,34.182589,-118.129090,0.00,0.00,0.00,4.40,-2.20,-4.60,0,1,0,86,100,-7328,2912,16445,3121.50,10,WP,1,0,0,0,0,0,0,1654557728097,4120,4109,4101,4104,0,0,27,,,,,,,0,0,0,-44.00,-22.00,-46.00,0.00,0.00,-188.00,14,19.00,0.00,26.02,0.00,0.00,0.00,0,,,100,100,0,2,0,0,0,1,0,,,,,0.0,0.0,0.0,0.0,0.0,0.0,0
34.182566,-118.129087,1.90,1.90,0.00,2.60,2.00,2.00,1.81,2.88,13110,2022-06-06 23:22:08.197,2022-06-06 16:22:08.197,16,0,0,16.445,34.182589,-118.129090,0.00,0.00,0.00,2.50,-1.10,-4.30,0,1,0,86,100,-7328,2912,16445,3121.50,10,WP,1,0,0,0,0,0,0,1654557728197,4120,4109,4101,4104,0,0,27,,,,,,,0,0,0,-25.00,-11.00,-43.00,0.00,0.00,-174.00,14,19.00,0.00,26.01,0.00,0.00,0.00,0,,,100,100,0,2,0,0,0,1,0,,,,,0.0,0.0,0.0,0.0,0.0,0.0,0
34.182565,-118.129087,1.90,1.90,0.00,2.65,2.00,2.00,1.81,2.88,13210,2022-06-06 23:22:08.297,2022-06-06 16:22:08.297,16,0,0,16.445,34.182589,-118.129090,0.00,0.00,0.00,2.60,-1.10,-4.20,0,1,0,86,100,-7328,2912,16445,3121.50,10,WP,1,0,0,0,0,0,0,1654557728297,4120,4109,4101,4104,0,0,27,,,,,,,0,0,0,-26.00,-11.00,-42.00,0.00,0.00,-166.00,14,19.00,0.00,26.54,0.00,0.00,0.00,0,,,100,100,0,2,0,0,0,1,0,,,,,0.0,0.0,0.0,0.0,0.0,0.0,0
34.182565,-118.129087,1.90,1.90,0.00,2.65,2.00,2.00,1.81,2.88,13310,2022-06-06 23:22:08.398,2022-06-06 16:22:08.398,17,0,0,16.445,34.182589,-118.129090,0.00,0.00,0.00,3.40,-1.50,-4.10,0,1,0,86,100,-7328,2912,16445,3121.50,10,WP,1,0,0,0,0,0,0,1654557728397,4120,4109,4101,4104,0,0,27,,,,,,,0,0,0,-34.00,-15.00,-41.00,0.00,0.00,-163.00,14,19.00,0.00,26.53,0.00,0.00,0.00,0,,,100,100,0,2,0,0,0,1,0,,,,,0.0,0.0,0.0,0.0,0.0,0.0,0
34.182565,-118.129087,1.90,1.90,0.10,2.67,2.00,2.00,1.81,2.88,13410,2022-06-06 23:22:08.498,2022-06-06 16:22:08.498,17,0,0,16.445,34.182589,-118.129090,0.00,0.10,0.00,3.90,-1.80,-4.10,0,1,0,86,100,-7328,2912,16445,3121.50,10,WP,1,0,0,0,0,0,0,1654557728497,4120,4109,4101,4104,0,0,27,,,,,,,0,0,0,-39.00,-18.00,-41.00,0.00,0.00,-162.00,14,19.00,1.00,26.73,0.00,1.00,0.00,0,,,100,100,0,2,0,0,0,1,0,,,,,0.0,0.0,0.0,0.0,0.0,0.0,0
34.182565,-118.129087,1.90,1.90,0.10,2.67,2.00,2.00,1.81,2.88,13511,2022-06-06 23:22:08.598,2022-06-06 16:22:08.598,17,0,0,16.445,34.182589,-118.129090,0.00,0.10,0.00,4.30,-2.20,-4.20,0,1,0,86,100,-7328,2912,16445,3121.50,10,WP,1,0,0,0,0,0,0,1654557728598,4120,4109,4101,4104,0,0,27,,,,,,,0,0,0,-43.00,-22.00,-42.00,0.00,0.00,-161.00,14,19.00,1.00,26.71,0.00,1.00,0.00,0,,,100,100,0,2,0,0,0,1,0,,,,,0.0,0.0,0.0,0.0,0.0,0.0,0
