latitude,longitude,altitude(m),ultrasonicHeight(m),speed(mps),distance(m),max_altitude(m),max_ascent(m),max_speed(mps),max_distance(m),time(millisecond),datetime(utc),datetime(local),satellites,pressure(Pa),temperature(F),voltage(v),home_latitude,home_longitude,velocityX(mps),velocityY(mps),velocityZ(mps),pitch(deg),roll(deg),yaw(deg),powerlevel,isflying,istakingphoto,remainPowerPercent,remainLifePercent,currentCurrent,currentElectricity,currentVoltage,batteryTemperature,dischargeCount,flightmode,isMotorsOn,isTakingVideo,Rc_elevator,Rc_aileron,Rc_throttle,Rc_rudder,Rc_gyro,timestamp,Battery_Cell1,Battery_Cell2,Battery_Cell3,Battery_Cell4,Battery_Cell5,Battery_Cell6,Dronetype,AppVersion,Planename,FlyControllerSerialNumber,RemoteSerialNumber,BatterySerialNumber,CENTER_BATTERY.productDate,CENTER_BATTERY.serialNo,CENTER_BATTERY.fullCapacity,CENTER_BATTERY.productDateRaw,pitchRaw,rollRaw,yawRaw,gimbalPitchRaw,gimbalRollRaw,gimbalYawRaw,flyState,altitudeRaw,speedRaw,distanceRaw,velocityXRaw,velocityYRaw,velocityZRaw,data_reuse,App_Tip,App_Warning,downlinkSignalQuality,uplinkSignalQuality,transmissionChannel,rcModeSwitch,rcHome,rcPause,rcTransform,rcJoystickMode,appMode,FlyControllerSerialNumber_legacy,RemoteSerialNumber_legacy,BatterySerialNumber_legacy,Battery2SerialNumber,frontAvoidDist,backAvoidDist,rightAvoidDist,leftAvoidDist,upAvoidDist,downAvoidDist,isBrakingToAvoid
34.182597,-118.129088,0.30,0.30,0.40,0.09,0.30,0.30,0.40,0.09,0,2022-06-08 00:28:57.665,2022-06-07 17:28:57.665,15,0,0,16.371,34.182596,-118.129088,0.00,0.00,-0.40,1.40,-1.10,-31.30,0,1,0,80,100,-4513,2878,16371,3131.50,5,TakeOff,1,0,0,0,0,0,0,1654648137664,4138,4126,4135,4133,0,0,27,Litchi_iOS_2.14.0,Brian-MAVIC 2,163DFCK001S13F,1DUCFB800104PR,0P2AG3L53400KG,,0,3630,0,-14.00,-11.00,-313.00,0.00,0.00,-299.00,11,3.00,4.00,0.86,0.00,0.00,-4.00,0,,,100,100,0,2,0,0,0,1,0,(null),(null),(null),(null),0.0,0.0,0.0,0.0,0.0,0.0,0
34.182597,-118.129088,0.30,0.40,0.40,0.09,0.30,0.30,0.40,0.09,99,2022-06-08 00:28:57.764,2022-06-07 17:28:57.764,15,0,0,16.371,34.182596,-118.129088,0.00,0.00,-0.40,1.30,-1.00,-31.20,0,1,0,80,100,-4513,2878,16371,3131.50,5,TakeOff,1,0,0,0,0,0,0,1654648137763,4138,4126,4135,4133,0,0,27,,,,,,,0,0,0,-13.00,-10.00,-312.00,0.00,0.00,-299.00,11,3.00,4.00,0.88,0.00,0.00,-4.00,0,,,100,100,0,2,0,0,0,1,0,,,,,0.0,0.0,0.0,0.0,0.0,0.0,0
34.182598,-118.129088,0.40,0.40,0.40,0.12,0.40,0.40,0.40,0.12,197,2022-06-08 00:28:57.862,2022-06-07 17:28:57.862,15,0,0,16.371,34.182596,-118.129088,0.00,0.00,-0.40,1.20,-0.90,-31.20,0,1,0,80,100,-4513,2878,16371,3131.50,5,TakeOff,1,0,0,0,0,0,0,1654648137861,4138,4126,4135,4133,0,0,27,,,,,,,0,0,0,-12.00,-9.00,-312.00,0.00,0.00,-299.00,11,4.00,4.00,1.16,0.00,0.00,-4.00,0,,,100,100,0,2,0,0,0,1,0,,,,,0.0,0.0,0.0,0.0,0.0,0.0,0
34.182598,-118.129088,0.40,0.50,0.40,0.12,0.40,0.40,0.40,0.12,299,2022-06-08 00:28:57.963,2022-06-07 17:28:57.963,15,0,0,16.371,34.182596,-118.129088,0.00,0.00,-0.40,1.20,-0.80,-31.10,0,1,0,80,100,-4513,2878,16371,3131.50,5,TakeOff,1,0,0,0,0,0,0,1654648137963,4138,4126,4135,4133,0,0,27,,,,,,,0,0,0,-12.00,-8.00,-311.00,0.00,0.00,-299.00,11,4.00,4.00,1.17,0.00,0.00,-4.00,0,,,100,100,0,2,0,0,0,1,0,,,,,0.0,0.0,0.0,0.0,0.0,0.0,0
34.182597,-118.129088,0.50,0.50,0.40,0.10,0.50,0.50,0.40,0.12,399,2022-06-08 00:28:58.064,2022-06-07 17:28:58.064,15,0,0,16.371,34.182596,-118.129088,0.00,0.00,-0.40,1.00,-0.60,-31.10,0,1,0,80,100,-4513,2878,16371,3131.50,5,TakeOff,1,0,0,0,0,0,0,1654648138063,4138,4126,4135,4133,0,0,27,,,,,,,0,0,0,-10.00,-6.00,-311.00,0.00,0.00,-299.00,11,5.00,4.00,0.98,0.00,0.00,-4.00,0,,,100,100,0,2,0,0,0,1,0,,,,,0.0,0.0,0.0,0.0,0.0,0.0,0
34.182597,-118.129088,0.50,0.60,0.50,0.09,0.50,0.50,0.50,0.12,498,2022-06-08 00:28:58.163,2022-06-07 17:28:58.163,15,0,0,16.371,34.182596,-118.129088,0.00,0.00,-0.50,0.80,-0.50,-31.10,0,1,0,80,100,-4513,2878,16371,3131.50,5,TakeOff,1,0,0,0,0,0,0,1654648138162,4138,4126,4135,4133,0,0,27,,,,,,,0,0,0,-8.00,-5.00,-311.00,0.00,0.00,-299.00,11,5.00,5.00,0.95,0.00,0.00,-5.00,0,,,100,100,0,2,0,0,0,1,0,,,,,0.0,0.0,0.0,0.0,0.0,0.0,0
34.182597,-118.129088,0.60,0.70,0.50,0.09,0.60,0.60,0.50,0.12,599,2022-06-08 00:28:58.263,2022-06-07 17:28:58.263,15,0,0,16.371,34.182596,-118.129088,0.00,0.00,-0.50,0.50,-0.40,-31.10,0,1,0,80,100,-4513,2878,16371,3131.50,5,TakeOff,1,0,0,0,0,0,0,1654648138263,4138,4126,4135,4133,0,0,27,,,,,,,0,0,0,-5.00,-4.00,-311.00,0.00,0.00,-300.00,11,6.00,5.00,0.87,0.00,0.00,-5.00,0,,,100,100,0,2,0,0,0,1,0,,,,,0.0,0.0,0.0,0.0,0.0,0.0,0
34.182597,-118.129088,0.60,0.70,0.50,0.08,0.60,0.60,0.50,0.12,697,2022-06-08 00:28:58.362,2022-06-07 17:28:58.362,15,0,0,16.209,34.182596,-118.129088,0.00,0.00,-0.50,0.30,-0.50,-31.10,0,1,0,80,100,-7895,2875,16209,3131.50,5,TakeOff,1,0,0,0,0,0,0,1654648138361,4138,4126,4135,4133,0,0,27,,,,,,,0,0,0,-3.00,-5.00,-311.00,0.00,0.00,-300.00,11,6.00,5.00,0.83,0.00,0.00,-5.00,0,,,100,100,0,2,0,0,0,1,0,,,,,0.0,0.0,0.0,0.0,0.0,0.0,0
34.182597,-118.129088,0.70,0.80,0.50,0.11,0.70,0.70,0.50,0.12,799,2022-06-08 00:28:58.464,2022-06-07 17:28:58.464,15,0,0,16.209,34.182596,-118.129088,0.00,0.00,-0.50,0.20,-0.80,-31.00,0,1,0,80,100,-7895,2875,16209,3131.50,5,TakeOff,1,0,0,0,0,0,0,1654648138463,4138,4126,4135,4133,0,0,27,,,,,,,0,0,0,-2.00,-8.00,-310.00,0.00,0.00,-300.00,11,7.00,5.00,1.07,0.00,0.00,-5.00,0,,,100,100,0,2,0,0,0,1,0,,,,,0.0,0.0,0.0,0.0,0.0,0.0,0
34.182597,-118.129088,0.70,0.80,0.50,0.11,0.70,0.70,0.50,0.12,899,2022-06-08 00:28:58.563,2022-06-07 17:28:58.563,15,0,0,16.209,34.182596,-118.129088,0.00,0.00,-0.50,0.20,-1.10,-31.00,0,1,0,80,100,-7895,2875,16209,3131.50,5,TakeOff,1,0,0,0,0,0,0,1654648138563,4138,4126,4135,4133,0,0,27,,,,,,,0,0,0,-2.00,-11.00,-310.00,0.00,0.00,-300.00,11,7.00,5.00,1.08,0.00,0.00,-5.00,0,,,100,100,0,2,0,0,0,1,0,,,,,0.0,0.0,0.0,0.0,0.0,0.0,0
34.182597,-118.129088,0.80,0.90,0.50,0.08,0.80,0.80,0.50,0.12,999,2022-06-08 00:28:58.663,2022-06-07 17:28:58.663,15,0,0,16.209,34.182596,-118.129088,0.00,0.00,-0.50,0.30,-1.20,-31.00,0,1,0,80,100,-7895,2875,16209,3131.50,5,TakeOff,1,0,0,0,0,0,0,1654648138663,4138,4126,4135,4133,0,0,27,,,,,,,0,0,0,-3.00,-12.00,-310.00,0.00,0.00,-300.00,11,8.00,5.00,0.77,0.00,0.00,-5.00,0,,,100,100,0,2,0,0,0,1,0,,,,,0.0,0.0,0.0,0.0,0.0,0.0,0
34.182597,-118.129088,0.80,0.90,0.50,0.08,0.80,0.80,0.50,0.12,1100,2022-06-08 00:28:58.764,2022-06-07 17:28:58.765,15,0,0,16.209,34.182596,-118.129088,0.00,0.00,-0.50,0.30,-1.10,-31.00,0,1,0,80,100,-7895,2875,16209,3131.50,5,TakeOff,1,0,0,0,0,0,0,1654648138764,4138,4126,4135,4133,0,0,27,,,,,,,0,0,0,-3.00,-11.00,-310.00,0.00,0.00,-300.00,11,8.00,5.00,0.75,0.00,0.00,-5.00,0,,,100,100,0,2,0,0,0,1,0,,,,,0.0,0.0,0.0,0.0,0.0,0.0,0
34.182597,-118.129088,0.90,1.00,0.50,0.07,0.90,0.90,0.50,0.12,1200,2022-06-08 00:28:58.864,2022-06-07 17:28:58.864,15,0,0,16.209,34.182596,-118.129088,0.00,0.00,-0.50,0.20,-1.10,-31.00,0,1,0,80,100,-7895,2875,16209,3131.50,5,TakeOff,1,0,0,0,0,0,0,1654648138864,4138,4126,4135,4133,0,0,27,,,,,,,0,0,0,-2.00,-11.00,-310.00,0.00,0.00,-300.00,11,9.00,5.00,0.69,0.00,0.00,-5.00,0,,,100,100,0,2,0,0,0,1,0,,,,,0.0,0.0,0.0,0.0,0.0,0.0,0
34.182597,-118.129088,0.90,1.00,0.50,0.07,0.90,0.90,0.50,0.12,1300,2022-06-08 00:28:58.965,2022-06-07 17:28:58.965,15,0,0,16.209,34.182596,-118.129088,0.00,0.00,-0.50,0.10,-1.10,-31.00,0,1,0,80,100,-7895,2875,16209,3131.50,5,TakeOff,1,0,0,0,0,0,0,1654648138964,4138,4126,4135,4133,0,0,27,,,,,,,0,0,0,-1.00,-11.00,-310.00,0.00,0.00,-300.00,11,9.00,5.00,0.68,0.00,0.00,-5.00,0,,,100,100,0,2,0,0,0,1,0,,,,,0.0,0.0,0.0,0.0,0.0,0.0,0
34.182597,-118.129087,1.00,1.10,0.50,0.10,1.00,1.00,0.50,0.12,1400,2022-06-08 00:28:59.064,2022-06-07 17:28:59.064,15,0,0,16.209,34.182596,-118.129088,0.00,0.00,-0.50,0.00,-1.30,-31.00,0,1,0,80,100,-7895,2875,16209,3131.50,5,TakeOff,1,0,0,0,0,0,0,1654648139064,4138,4126,4135,4133,0,0,27,,,,,,,0,0,0,-0.00,-13.00,-310.00,0.00,0.00,-300.00,11,10.00,5.00,0.98,0.00,0.00,-5.00,0,,,100,100,0,2,0,0,0,1,0,,,,,0.0,0.0,0.0,0.0,0.0,0.0,0
34.182597,-118.129087,1.00,1.10,0.40,0.10,1.00,1.00,0.50,0.12,1500,2022-06-08 00:28:59.164,2022-06-07 17:28:59.164,15,0,0,16.209,34.182596,-118.129088,0.00,0.00,-0.40,-0.10,-0.70,-31.10,0,1,0,80,100,-7895,2875,16209,3131.50,5,WP,1,0,0,0,0,0,0,1654648139164,4138,4126,4135,4133,0,0,27,,,,,,,0,0,0,1.00,-7.00,-311.00,0.00,0.00,-300.00,14,10.00,4.00,1.00,0.00,0.00,-4.00,0,,,100,100,0,2,0,0,0,1,0,,,,,0.0,0.0,0.0,0.0,0.0,0.0,0
34.182597,-118.129087,1.10,1.20,0.40,0.08,1.10,1.10,0.50,0.12,1600,2022-06-08 00:28:59.264,2022-06-07 17:28:59.264,15,0,0,16.209,34.182596,-118.129088,0.00,0.00,-0.40,0.00,-0.70,-31.70,0,1,0,80,100,-7895,2875,16209,3131.50,5,WP,1,0,0,0,0,0,0,1654648139264,4138,4126,4135,4133,0,0,27,,,,,,,0,0,0,-0.00,-7.00,-317.00,0.00,0.00,-300.00,14,11.00,4.00,0.83,0.00,0.00,-4.00,0,,,100,100,0,2,0,0,0,1,0,,,,,0.0,0.0,0.0,0.0,0.0,0.0,0
34.182597,-118.129087,1.10,1.20,0.50,0.08,1.10,1.10,0.50,0.12,1700,2022-06-08 00:28:59.365,2022-06-07 17:28:59.365,15,0,0,16.209,34.182596,-118.129088,0.00,0.00,-0.50,0.00,-0.70,-32.90,0,1,0,80,100,-7895,2875,16209,3131.50,5,WP,1,0,0,0,0,0,0,1654648139364,4138,4126,4135,4133,0,0,27,,,,,,,0,0,0,-0.00,-7.00,-329.00,0.00,0.00,-300.00,14,11.00,5.00,0.85,0.00,0.00,-5.00,0,,,100,100,0,2,0,0,0,1,0,,,,,0.0,0.0,0.0,0.0,0.0,0.0,0
34.182597,-118.129087,1.20,1.30,0.50,0.08,1.20,1.20,0.50,0.12,1800,2022-06-08 00:28:59.464,2022-06-07 17:28:59.464,15,0,0,16.209,34.182596,-118.129088,0.00,0.00,-0.50,0.00,-0.70,-34.70,0,1,0,80,100,-7895,2875,16209,3131.50,5,WP,1,0,0,0,0,0,0,1654648139464,4138,4126,4135,4133,0,0,27,,,,,,,0,0,0,-0.00,-7.00,-347.00,0.00,0.00,-301.00,14,12.00,5.00,0.81,0.00,0.00,-5.00,0,,,100,100,0,2,0,0,0,1,0,,,,,0.0,0.0,0.0,0.0,0.0,0.0,0
34.182597,-118.129087,1.20,1.30,0.40,0.08,1.20,1.20,0.50,0.12,1900,2022-06-08 00:28:59.565,2022-06-07 17:28:59.565,15,0,0,16.209,34.182596,-118.129088,0.00,0.00,-0.40,0.10,-0.60,-37.00,0,1,0,80,100,-7895,2875,16209,3131.50,5,WP,1,0,0,0,0,0,0,1654648139564,4138,4126,4135,4133,0,0,27,,,,,,,0,0,0,-1.00,-6.00,-370.00,0.00,0.00,-304.00,14,12.00,4.00,0.84,0.00,0.00,-4.00,0,,,100,100,0,2,0,0,0,1,0,,,,,0.0,0.0,0.0,0.0,0.0,0.0,0
34.182597,-118.129088,1.30,1.40,0.40,0.08,1.30,1.30,0.50,0.12,2000,2022-06-08 00:28:59.664,2022-06-07 17:28:59.664,15,0,0,16.209,34.182596,-118.129088,0.00,0.00,-0.40,0.10,-0.60,-39.90,0,1,0,80,100,-7895,2875,16209,3131.50,5,WP,1,0,0,0,0,0,0,1654648139664,4138,4126,4135,4133,0,0,27,,,,,,,0,0,0,-1.00,-6.00,-399.00,0.00,0.00,-314.00,14,13.00,4.00,0.76,0.00,0.00,-4.00,0,,,100,100,0,2,0,0,0,1,0,,,,,0.0,0.0,0.0,0.0,0.0,0.0,0
34.182597,-118.129087,1.30,1.40,0.40,0.08,1.30,1.30,0.50,0.12,2100,2022-06-08 00:28:59.765,2022-06-07 17:28:59.765,15,0,0,16.209,34.182596,-118.129088,0.00,0.00,-0.40,0.00,-0.70,-43.40,0,1,0,80,100,-7895,2875,16209,3131.50,5,WP,1,0,0,0,0,0,0,1654648139764,4138,4126,4135,4133,0,0,27,,,,,,,0,0,0,-0.00,-7.00,-434.00,0.00,0.00,-336.00,14,13.00,4.00,0.78,0.00,0.00,-4.00,0,,,100,100,0,2,0,0,0,1,0,,,,,0.0,0.0,0.0,0.0,0.0,0.0,0
34.182597,-118.129087,1.40,1.50,0.40,0.10,1.40,1.40,0.50,0.12,2200,2022-06-08 00:28:59.865,2022-06-07 17:28:59.865,15,0,0,16.209,34.182596,-118.129088,0.00,0.00,-0.40,-0.30,-0.80,-47.40,0,1,0,80,100,-7895,2875,16209,3131.50,5,WP,1,0,0,0,0,0,0,1654648139864,4138,4126,4135,4133,0,0,27,,,,,,,0,0,0,3.00,-8.00,-474.00,0.00,0.00,-371.00,14,14.00,4.00,1.02,0.00,0.00,-4.00,0,,,100,100,0,2,0,0,0,1,0,,,,,0.0,0.0,0.0,0.0,0.0,0.0,0
34.182597,-118.129087,1.40,1.50,0.40,0.11,1.40,1.40,0.50,0.12,2301,2022-06-08 00:28:59.965,2022-06-07 17:28:59.965,15,0,0,16.209,34.182596,-118.129088,0.00,0.00,-0.40,-0.40,-1.00,-51.90,0,1,0,80,100,-7895,2875,16209,3131.50,5,WP,1,0,0,0,0,0,0,1654648139965,4138,4126,4135,4133,0,0,27,,,,,,,0,0,0,4.00,-10.00,-519.00,0.00,0.00,-416.00,14,14.00,4.00,1.08,0.00,0.00,-4.00,0,,,100,100,0,2,0,0,0,1,0,,,,,0.0,0.0,0.0,0.0,0.0,0.0,0
34.182597,-118.129087,1.50,1.60,0.40,0.08,1.50,1.50,0.50,0.12,2400,2022-06-08 00:29:00.065,2022-06-07 17:29:00.065,15,0,0,16.209,34.182596,-118.129088,0.00,0.00,-0.40,-0.30,-1.30,-57.20,0,1,0,80,100,-7895,2875,16209,3131.50,5,WP,1,0,0,0,0,0,0,1654648140064,4138,4126,4135,4133,0,0,27,,,,,,,0,0,0,3.00,-13.00,-572.00,0.00,0.00,-468.00,14,15.00,4.00,0.76,0.00,0.00,-4.00,0,,,100,100,0,2,0,0,0,1,0,,,,,0.0,0.0,0.0,0.0,0.0,0.0,0
34.182597,-118.129087,1.50,1.60,0.40,0.08,1.50,1.50,0.50,0.12,2501,2022-06-08 00:29:00.166,2022-06-07 17:29:00.166,15,0,0,16.209,34.182596,-118.129088,0.00,0.00,-0.40,-0.30,-1.30,-63.00,0,1,0,80,100,-7895,2875,16209,3131.50,5,WP,1,0,0,0,0,0,0,1654648140165,4138,4126,4135,4133,0,0,27,,,,,,,0,0,0,3.00,-13.00,-630.00,0.00,0.00,-526.00,14,15.00,4.00,0.77,0.00,0.00,-4.00,0,,,100,100,0,2,0,0,0,1,0,,,,,0.0,0.0,0.0,0.0,0.0,0.0,0
34.182597,-118.129087,1.60,1.70,0.40,0.09,1.60,1.60,0.50,0.12,2601,2022-06-08 00:29:00.265,2022-06-07 17:29:00.265,15,0,0,16.209,34.182596,-118.129088,0.00,0.00,-0.40,-0.30,-1.30,-69.40,0,1,0,80,100,-7895,2875,16209,3131.50,5,WP,1,0,0,0,0,0,0,1654648140265,4062,4043,4050,4063,0,0,27,,,,,,,0,0,0,3.00,-13.00,-694.00,0.00,0.00,-588.00,14,16.00,4.00,0.91,0.00,0.00,-4.00,0,,,100,100,0,2,0,0,0,1,0,,,,,0.0,0.0,0.0,0.0,0.0,0.0,0
34.182597,-118.129087,1.60,1.70,0.30,0.09,1.60,1.60,0.50,0.12,2700,2022-06-08 00:29:00.365,2022-06-07 17:29:00.365,15,0,0,16.207,34.182596,-118.129088,0.00,0.00,-0.30,-0.30,-1.00,-76.30,0,1,0,80,100,-7730,2872,16207,3131.50,5,WP,1,0,0,0,0,0,0,1654648140364,4062,4043,4050,4063,0,0,27,,,,,,,0,0,0,3.00,-10.00,-763.00,0.00,0.00,-655.00,14,16.00,3.00,0.91,0.00,0.00,-3.00,0,,,100,100,0,2,0,0,0,1,0,,,,,0.0,0.0,0.0,0.0,0.0,0.0,0
34.182597,-118.129087,1.60,1.70,0.30,0.07,1.60,1.60,0.50,0.12,2802,2022-06-08 00:29:00.467,2022-06-07 17:29:00.467,15,0,0,16.207,34.182596,-118.129088,0.00,0.00,-0.30,-0.20,-0.80,-83.80,0,1,0,80,100,-7730,2872,16207,3131.50,5,WP,1,0,0,0,0,0,0,1654648140466,4062,4043,4050,4063,0,0,27,,,,,,,0,0,0,2.00,-8.00,-838.00,0.00,0.00,-728.00,14,16.00,3.00,0.70,0.00,0.00,-3.00,0,,,100,100,0,2,0,0,0,1,0,,,,,0.0,0.0,0.0,0.0,0.0,0.0,0
34.182597,-118.129087,1.70,1.80,0.20,0.07,1.70,1.70,0.50,0.12,2901,2022-06-08 00:29:00.566,2022-06-07 17:29:00.566,15,0,0,16.207,34.182596,-118.129088,0.00,0.00,-0.20,-0.20,-0.60,-91.30,0,1,0,80,100,-7730,2872,16207,3131.50,5,WP,1,0,0,0,0,0,0,1654648140565,4062,4043,4050,4063,0,0,27,,,,,,,0,0,0,2.00,-6.00,-913.00,0.00,0.00,-805.00,14,17.00,2.00,0.68,0.00,0.00,-2.00,0,,,100,100,0,2,0,0,0,1,0,,,,,0.0,0.0,0.0,0.0,0.0,0.0,0
34.182597,-118.129087,1.70,1.80,0.20,0.08,1.70,1.70,0.50,0.12,3002,2022-06-08 00:29:00.666,2022-06-07 17:29:00.666,15,0,0,16.207,34.182596,-118.129088,0.00,0.00,-0.20,-0.40,-0.50,-98.80,0,1,0,80,100,-7730,2872,16207,3131.50,5,WP,1,0,0,0,0,0,0,1654648140666,4062,4043,4050,4063,0,0,27,,,,,,,0,0,0,4.00,-5.00,-988.00,0.00,0.00,-883.00,14,17.00,2.00,0.76,0.00,0.00,-2.00,0,,,100,100,0,2,0,0,0,1,0,,,,,0.0,0.0,0.0,0.0,0.0,0.0,0
34.182597,-118.129087,1.70,1.80,0.20,0.07,1.70,1.70,0.50,0.12,3086,2022-06-08 00:29:00.751,2022-06-07 17:29:00.751,15,0,0,16.207,34.182596,-118.129088,0.00,0.00,-0.20,-0.50,-0.30,-106.30,0,1,0,80,100,-7730,2872,16207,3131.50,5,WP,1,0,0,0,0,0,0,1654648140750,4062,4043,4050,4063,0,0,27,,,,,,,0,0,0,5.00,-3.00,-1063.00,0.00,0.00,-960.00,14,17.00,2.00,0.74,0.00,0.00,-2.00,0,,,100,100,0,2,0,0,0,1,0,,,,,0.0,0.0,0.0,0.0,0.0,0.0,0
34.182597,-118.129087,1.70,1.90,0.20,0.08,1.70,1.70,0.50,0.12,3202,2022-06-08 00:29:00.867,2022-06-07 17:29:00.867,15,0,0,16.207,34.182596,-118.129088,0.00,0.00,-0.20,-0.50,0.00,-113.80,0,1,0,80,100,-7730,2872,16207,3131.50,5,WP,1,0,0,0,0,0,0,1654648140866,4062,4043,4050,4063,0,0,27,,,,,,,0,0,0,5.00,0.00,-1138.00,0.00,0.00,-1036.00,14,17.00,2.00,0.81,0.00,0.00,-2.00,0,,,100,100,0,2,0,0,0,1,0,,,,,0.0,0.0,0.0,0.0,0.0,0.0,0
34.182597,-118.129087,1.80,1.90,0.10,0.08,1.80,1.80,0.50,0.12,3304,2022-06-08 00:29:00.969,2022-06-07 17:29:00.969,15,0,0,16.207,34.182596,-118.129088,0.00,0.00,-0.10,-0.40,0.00,-121.30,0,1,0,80,100,-7730,2872,16207,3131.50,5,WP,1,0,0,0,0,0,0,1654648140968,4062,4043,4050,4063,0,0,27,,,,,,,0,0,0,4.00,0.00,-1213.00,0.00,0.00,-1112.00,14,18.00,1.00,0.79,0.00,0.00,-1.00,0,,,100,100,0,2,0,0,0,1,0,,,,,0.0,0.0,0.0,0.0,0.0,0.0,0
34.182597,-118.129087,1.80,1.90,0.10,0.08,1.80,1.80,0.50,0.12,3405,2022-06-08 00:29:01.070,2022-06-07 17:29:01.070,15,0,0,16.207,34.182596,-118.129088,0.00,0.00,-0.10,-0.40,0.00,-128.80,0,1,0,80,100,-7730,2872,16207,3131.50,5,WP,1,0,0,0,0,0,0,1654648141069,4062,4043,4050,4063,0,0,27,,,,,,,0,0,0,4.00,0.00,-1288.00,0.00,0.00,-1187.00,14,18.00,1.00,0.84,0.00,0.00,-1.00,0,,,100,100,0,2,0,0,0,1,0,,,,,0.0,0.0,0.0,0.0,0.0,0.0,0
34.182597,-118.129087,1.80,1.90,0.00,0.08,1.80,1.80,0.50,0.12,3512,2022-06-08 00:29:01.176,2022-06-07 17:29:01.176,15,0,0,16.207,34.182596,-118.129088,0.00,0.00,0.00,-0.20,0.10,-136.30,0,1,0,80,100,-7730,2872,16207,3131.50,5,WP,1,0,0,0,0,0,0,1654648141176,4062,4043,4050,4063,0,0,27,,,,,,,0,0,0,2.00,1.00,-1363.00,0.00,0.00,-1263.00,14,18.00,0.00,0.82,0.00,0.00,0.00,0,,,100,100,0,2,0,0,0,1,0,,,,,0.0,0.0,0.0,0.0,0.0,0.0,0
34.182597,-118.129087,1.80,1.90,0.00,0.09,1.80,1.80,0.50,0.12,3606,2022-06-08 00:29:01.270,2022-06-07 17:29:01.270,15,0,0,16.207,34.182596,-118.129088,0.00,0.00,0.00,-0.20,0.30,-143.80,0,1,0,80,100,-7730,2872,16207,3131.50,5,WP,1,0,0,0,0,0,0,1654648141270,4062,4043,4050,4063,0,0,27,,,,,,,0,0,0,2.00,3.00,-1438.00,0.00,0.00,-1339.00,14,18.00,0.00,0.90,0.00,0.00,0.00,0,,,100,100,0,2,0,0,0,1,0,,,,,0.0,0.0,0.0,0.0,0.0,0.0,0
34.182597,-118.129087,1.80,1.90,0.00,0.09,1.80,1.80,0.50,0.12,3703,2022-06-08 00:29:01.367,2022-06-07 17:29:01.367,15,0,0,16.207,34.182596,-118.129088,0.00,0.00,0.00,-0.20,0.30,-151.20,0,1,0,80,100,-7730,2872,16207,3131.50,5,WP,1,0,0,0,0,0,0,1654648141367,4062,4043,4050,4063,0,0,27,,,,,,,0,0,0,2.00,3.00,-1512.00,0.00,0.00,-1414.00,14,18.00,0.00,0.89,0.00,0.00,0.00,0,,,100,100,0,2,0,0,0,1,0,,,,,0.0,0.0,0.0,0.0,0.0,0.0,0
34.182597,-118.129087,1.80,1.90,0.00,0.09,1.80,1.80,0.50,0.12,3803,2022-06-08 00:29:01.468,2022-06-07 17:29:01.468,15,0,0,16.207,34.182596,-118.129088,0.00,0.00,0.00,-0.30,0.50,-158.60,0,1,0,80,100,-7730,2872,16207,3131.50,5,WP,1,0,0,0,0,0,0,1654648141467,4062,4043,4050,4063,0,0,27,,,,,,,0,0,0,3.00,5.00,-1586.00,0.00,0.00,-1488.00,14,18.00,0.00,0.87,0.00,0.00,0.00,0,,,100,100,0,2,0,0,0,1,0,,,,,0.0,0.0,0.0,0.0,0.0,0.0,0
34.182597,-118.129087,1.80,1.90,0.00,0.09,1.80,1.80,0.50,0.12,3903,2022-06-08 00:29:01.567,2022-06-07 17:29:01.567,15,0,0,16.207,34.182596,-118.129088,0.00,0.00,0.00,-0.40,0.60,-164.50,0,1,0,80,100,-7730,2872,16207,3131.50,5,WP,1,0,0,0,0,0,0,1654648141567,4062,4043,4050,4063,0,0,27,,,,,,,0,0,0,4.00,6.00,-1645.00,0.00,0.00,-1560.00,14,18.00,0.00,0.85,0.00,0.00,0.00,0,,,100,100,0,2,0,0,0,1,0,,,,,0.0,0.0,0.0,0.0,0.0,0.0,0
34.182597,-118.129087,1.80,1.90,0.00,0.10,1.80,1.80,0.50,0.12,4002,2022-06-08 00:29:01.666,2022-06-07 17:29:01.666,15,0,0,16.207,34.182596,-118.129088,0.00,0.00,0.00,-0.20,0.50,-168.60,0,1,0,80,100,-7730,2872,16207,3131.50,5,WP,1,0,0,0,0,0,0,1654648141666,4062,4043,4050,4063,0,0,27,,,,,,,0,0,0,2.00,5.00,-1686.00,0.00,0.00,-1621.00,14,18.00,0.00,1.00,0.00,0.00,0.00,0,,,100,100,0,2,0,0,0,1,0,,,,,0.0,0.0,0.0,0.0,0.0,0.0,0
34.182597,-118.129087,1.80,1.90,0.00,0.10,1.80,1.80,0.50,0.12,4101,2022-06-08 00:29:01.766,2022-06-07 17:29:01.766,15,0,0,16.207,34.182596,-118.129088,0.00,0.00,0.00,0.00,0.50,-171.30,0,1,0,80,100,-7730,2872,16207,3131.50,5,WP,1,0,0,0,0,0,0,1654648141765,4062,4043,4050,4063,0,0,27,,,,,,,0,0,0,-0.00,5.00,-1713.00,0.00,0.00,-1663.00,14,18.00,0.00,0.99,0.00,0.00,0.00,0,,,100,100,0,2,0,0,0,1,0,,,,,0.0,0.0,0.0,0.0,0.0,0.0,0
34.182597,-118.129087,1.80,1.90,0.00,0.10,1.80,1.80,0.50,0.12,4202,2022-06-08 00:29:01.866,2022-06-07 17:29:01.866,15,0,0,16.207,34.182596,-118.129088,0.00,0.00,0.00,0.20,0.50,-172.90,0,1,0,80,100,-7730,2872,16207,3131.50,5,WP,1,0,0,0,0,0,0,1654648141866,4062,4043,4050,4063,0,0,27,,,,,,,0,0,0,-2.00,5.00,-1729.00,0.00,0.00,-1690.00,14,18.00,0.00,0.96,0.00,0.00,0.00,0,,,100,100,0,2,0,0,0,1,0,,,,,0.0,0.0,0.0,0.0,0.0,0.0,0
34.182597,-118.129087,1.80,2.00,0.00,0.10,1.80,1.80,0.50,0.12,4302,2022-06-08 00:29:01.966,2022-06-07 17:29:01.966,15,0,0,16.207,34.182596,-118.129088,0.00,0.00,0.00,0.20,0.40,-173.90,0,1,0,80,100,-7730,2872,16207,3131.50,5,WP,1,0,0,0,0,0,0,1654648141966,4062,4043,4050,4063,0,0,27,,,,,,,0,0,0,-2.00,4.00,-1739.00,0.00,0.00,-1708.00,14,18.00,0.00,0.95,0.00,0.00,0.00,0,,,100,100,0,2,0,0,0,1,0,,,,,0.0,0.0,0.0,0.0,0.0,0.0,0
34.182597,-118.129087,1.80,2.00,0.00,0.11,1.80,1.80,0.50,0.12,4402,2022-06-08 00:29:02.067,2022-06-07 17:29:02.067,15,0,0,16.207,34.182596,-118.129088,0.00,0.00,0.00,0.20,0.10,-174.30,0,1,0,80,100,-7730,2872,16207,3131.50,5,WP,1,0,0,0,0,0,0,1654648142066,4062,4043,4050,4063,0,0,27,,,,,,,0,0,0,-2.00,1.00,-1743.00,0.00,0.00,-1719.00,14,18.00,0.00,1.13,0.00,0.00,0.00,0,,,100,100,0,2,0,0,0,1,0,,,,,0.0,0.0,0.0,0.0,0.0,0.0,0
34.182597,-118.129087,1.80,2.00,0.00,0.11,1.80,1.80,0.50,0.12,4502,2022-06-08 00:29:02.166,2022-06-07 17:29:02.166,15,0,0,16.207,34.182596,-118.129088,0.00,0.00,0.00,-2.20,0.50,-174.30,0,1,0,80,100,-7730,2872,16207,3131.50,5,WP,1,0,0,0,0,0,0,1654648142166,4062,4043,4050,4063,0,0,27,,,,,,,0,0,0,22.00,5.00,-1743.00,0.00,0.00,-1725.00,14,18.00,0.00,1.14,0.00,0.00,0.00,0,,,100,100,0,2,0,0,0,1,0,,,,,0.0,0.0,0.0,0.0,0.0,0.0,0
34.182597,-118.129087,1.80,2.00,0.00,0.11,1.80,1.80,0.50,0.12,4602,2022-06-08 00:29:02.267,2022-06-07 17:29:02.267,15,0,0,16.207,34.182596,-118.129088,0.00,0.00,0.00,-6.40,0.40,-174.30,0,1,0,80,100,-7730,2872,16207,3131.50,5,WP,1,0,0,0,0,0,0,1654648142266,4062,4043,4050,4063,0,0,27,,,,,,,0,0,0,64.00,4.00,-1743.00,0.00,0.00,-1727.00,14,18.00,0.00,1.09,0.00,0.00,0.00,0,,,100,100,0,2,0,0,0,1,0,,,,,0.0,0.0,0.0,0.0,0.0,0.0,0
34.182597,-118.129087,1.80,2.00,0.10,0.11,1.80,1.80,0.50,0.12,4702,2022-06-08 00:29:02.367,2022-06-07 17:29:02.367,15,0,0,16.193,34.182596,-118.129088,-0.10,0.00,0.00,-9.90,0.50,-174.30,0,1,0,80,100,-7196,2868,16193,3131.50,5,WP,1,0,0,0,0,0,0,1654648142366,4062,4043,4050,4063,0,0,27,,,,,,,0,0,0,99.00,5.00,-1743.00,0.00,0.00,-1728.00,14,18.00,1.00,1.07,-1.00,0.00,0.00,0,,,100,100,0,2,0,0,0,1,0,,,,,0.0,0.0,0.0,0.0,0.0,0.0,0
34.182596,-118.129087,1.80,2.00,0.30,0.12,1.80,1.80,0.50,0.12,4802,2022-06-08 00:29:02.467,2022-06-07 17:29:02.467,15,0,0,16.193,34.182596,-118.129088,-0.30,0.00,0.00,-12.30,0.80,-174.30,0,1,0,80,100,-7196,2868,16193,3131.50,5,WP,1,0,0,0,0,0,0,1654648142466,4062,4043,4050,4063,0,0,27,,,,,,,0,0,0,123.00,8.00,-1743.00,0.00,0.00,-1729.00,14,18.00,3.00,1.20,-3.00,0.00,0.00,0,,,100,100,0,2,0,0,0,1,0,,,,,0.0,0.0,0.0,0.0,0.0,0.0,0
34.182596,-118.129087,1.90,2.00,0.50,0.14,1.90,1.90,0.50,0.14,4904,2022-06-08 00:29:02.568,2022-06-07 17:29:02.568,15,0,0,16.193,34.182596,-118.129088,-0.50,0.00,0.00,-13.80,0.80,-174.30,0,1,0,80,100,-7196,2868,16193,3131.50,5,WP,1,0,0,0,0,0,0,1654648142568,4062,4043,4050,4063,0,0,27,,,,,,,0,0,0,138.00,8.00,-1743.00,0.00,0.00,-1729.00,14,19.00,5.00,1.40,-5.00,0.00,0.00,0,,,100,100,0,2,0,0,0,1,0,,,,,0.0,0.0,0.0,0.0,0.0,0.0,0
34.182595,-118.129087,1.90,2.00,0.70,0.17,1.90,1.90,0.70,0.17,5003,2022-06-08 00:29:02.667,2022-06-07 17:29:02.667,15,0,0,16.193,34.182596,-118.129088,-0.70,0.00,0.00,-14.40,0.70,-174.30,0,1,0,80,100,-7196,2868,16193,3131.50,5,WP,1,0,0,0,0,0,0,1654648142667,4062,4043,4050,4063,0,0,27,,,,,,,0,0,0,144.00,7.00,-1743.00,0.00,0.00,-1730.00,14,19.00,7.00,1.70,-7.00,0.00,0.00,0,,,100,100,0,2,0,0,0,1,0,,,,,0.0,0.0,0.0,0.0,0.0,0.0,0
34.182594,-118.129087,1.90,2.00,1.00,0.25,1.90,1.90,1.00,0.25,5103,2022-06-08 00:29:02.768,2022-06-07 17:29:02.768,15,0,0,16.193,34.182596,-118.129088,-1.00,-0.10,0.00,-14.30,0.60,-174.30,0,1,0,80,100,-7196,2868,16193,3131.50,5,WP,1,0,0,0,0,0,0,1654648142767,4062,4043,4050,4063,0,0,27,,,,,,,0,0,0,143.00,6.00,-1743.00,0.00,0.00,-1730.00,14,19.00,10.05,2.47,-10.00,-1.00,0.00,0,,,100,100,0,2,0,0,0,1,0,,,,,0.0,0.0,0.0,0.0,0.0,0.0,0
34.182594,-118.129087,1.90,2.00,1.20,0.32,1.90,1.90,1.20,0.32,5206,2022-06-08 00:29:02.870,2022-06-07 17:29:02.870,15,0,0,16.193,34.182596,-118.129088,-1.20,-0.10,0.00,-14.50,0.50,-174.40,0,1,0,80,100,-7196,2868,16193,3131.50,5,WP,1,0,0,0,0,0,0,1654648142870,4062,4043,4050,4063,0,0,27,,,,,,,0,0,0,145.00,5.00,-1744.00,0.00,0.00,-1730.00,14,19.00,12.04,3.22,-12.00,-1.00,0.00,0,,,100,100,0,2,0,0,0,1,0,,,,,0.0,0.0,0.0,0.0,0.0,0.0,0
34.182592,-118.129087,1.90,2.00,1.40,0.45,1.90,1.90,1.40,0.45,5301,2022-06-08 00:29:02.965,2022-06-07 17:29:02.965,15,0,0,16.193,34.182596,-118.129088,-1.40,-0.10,0.00,-13.40,0.60,-174.40,0,1,0,80,100,-7196,2868,16193,3131.50,5,WP,1,0,0,0,0,0,0,1654648142965,4062,4043,4050,4063,0,0,27,,,,,,,0,0,0,134.00,6.00,-1744.00,0.00,0.00,-1730.00,14,19.00,14.04,4.51,-14.00,-1.00,0.00,0,,,100,100,0,2,0,0,0,1,0,,,,,0.0,0.0,0.0,0.0,0.0,0.0,0
34.182591,-118.129087,1.90,2.00,1.60,0.60,1.90,1.90,1.60,0.60,5401,2022-06-08 00:29:03.065,2022-06-07 17:29:03.065,15,0,0,16.193,34.182596,-118.129088,-1.60,-0.10,0.00,-10.30,0.60,-174.30,0,1,0,80,100,-7196,2868,16193,3131.50,5,WP,1,0,0,0,0,0,0,1654648143065,4062,4043,4050,4063,0,0,27,,,,,,,0,0,0,103.00,6.00,-1743.00,0.00,0.00,-1730.00,14,19.00,16.03,5.97,-16.00,-1.00,0.00,0,,,100,100,0,2,0,0,0,1,0,,,,,0.0,0.0,0.0,0.0,0.0,0.0,0
34.182590,-118.129088,1.90,2.00,1.70,0.77,1.90,1.90,1.70,0.77,5500,2022-06-08 00:29:03.165,2022-06-07 17:29:03.165,15,0,0,16.193,34.182596,-118.129088,-1.70,-0.10,0.00,-6.30,1.10,-174.20,0,1,0,80,100,-7196,2868,16193,3131.50,5,WP,1,0,0,0,0,0,0,1654648143164,4062,4043,4050,4063,0,0,27,,,,,,,0,0,0,63.00,11.00,-1742.00,0.00,0.00,-1730.00,14,19.00,17.03,7.66,-17.00,-1.00,0.00,0,,,100,100,0,2,0,0,0,1,0,,,,,0.0,0.0,0.0,0.0,0.0,0.0,0
34.182588,-118.129088,1.90,2.00,1.80,0.93,1.90,1.90,1.80,0.93,5601,2022-06-08 00:29:03.265,2022-06-07 17:29:03.265,15,0,0,16.193,34.182596,-118.129088,-1.80,-0.10,0.00,-3.30,1.30,-174.10,0,1,0,80,100,-7196,2868,16193,3131.50,5,WP,1,0,0,0,0,0,0,1654648143265,4062,4043,4050,4063,0,0,27,,,,,,,0,0,0,33.00,13.00,-1741.00,0.00,0.00,-1730.00,14,19.00,18.03,9.33,-18.00,-1.00,0.00,0,,,100,100,0,2,0,0,0,1,0,,,,,0.0,0.0,0.0,0.0,0.0,0.0,0
34.182586,-118.129088,1.90,2.00,1.80,1.11,1.90,1.90,1.80,1.11,5702,2022-06-08 00:29:03.366,2022-06-07 17:29:03.366,15,0,0,16.193,34.182596,-118.129088,-1.80,-0.10,0.00,-1.00,1.60,-173.90,0,1,0,80,100,-7196,2868,16193,3131.50,5,WP,1,0,0,0,0,0,0,1654648143366,4062,4043,4050,4063,0,0,27,,,,,,,0,0,0,10.00,16.00,-1739.00,0.00,0.00,-1730.00,14,19.00,18.03,11.14,-18.00,-1.00,0.00,0,,,100,100,0,2,0,0,0,1,0,,,,,0.0,0.0,0.0,0.0,0.0,0.0,0
34.182585,-118.129089,1.90,2.00,1.80,1.28,1.90,1.90,1.80,1.28,5803,2022-06-08 00:29:03.467,2022-06-07 17:29:03.467,15,0,0,16.193,34.182596,-118.129088,-1.80,-0.10,0.00,0.10,0.70,-174.00,0,1,0,80,100,-7196,2868,16193,3131.50,5,WP,1,0,0,0,0,0,0,1654648143467,4062,4043,4050,4063,0,0,27,,,,,,,0,0,0,-1.00,7.00,-1740.00,0.00,0.00,-1730.00,14,19.00,18.03,12.77,-18.00,-1.00,0.00,0,,,100,100,0,2,0,0,0,1,0,,,,,0.0,0.0,0.0,0.0,0.0,0.0,0
34.182583,-118.129089,1.90,2.00,1.70,1.45,1.90,1.90,1.80,1.45,5901,2022-06-08 00:29:03.565,2022-06-07 17:29:03.565,15,0,0,16.193,34.182596,-118.129088,-1.70,-0.10,0.00,0.90,0.60,-174.00,0,1,0,80,100,-7196,2868,16193,3131.50,5,WP,1,0,0,0,0,0,0,1654648143565,4062,4043,4050,4063,0,0,27,,,,,,,0,0,0,-9.00,6.00,-1740.00,0.00,0.00,-1730.00,14,19.00,17.03,14.54,-17.00,-1.00,0.00,0,,,100,100,0,2,0,0,0,1,0,,,,,0.0,0.0,0.0,0.0,0.0,0.0,0
34.182582,-118.129089,1.90,2.00,1.70,1.64,1.90,1.90,1.80,1.64,6002,2022-06-08 00:29:03.666,2022-06-07 17:29:03.666,15,0,0,16.193,34.182596,-118.129088,-1.70,-0.10,0.00,1.50,0.70,-174.10,0,1,0,80,100,-7196,2868,16193,3131.50,5,WP,1,0,0,0,0,0,0,1654648143666,4062,4043,4050,4063,0,0,27,,,,,,,0,0,0,-15.00,7.00,-1741.00,0.00,0.00,-1730.00,14,19.00,17.03,16.36,-17.00,-1.00,0.00,0,,,100,100,0,2,0,0,0,1,0,,,,,0.0,0.0,0.0,0.0,0.0,0.0,0
34.182580,-118.129089,1.90,2.00,1.60,1.80,1.90,1.90,1.80,1.80,6103,2022-06-08 00:29:03.768,2022-06-07 17:29:03.768,15,0,0,16.193,34.182596,-118.129088,-1.60,-0.10,0.00,1.80,1.00,-173.90,0,1,0,80,100,-7196,2868,16193,3131.50,5,WP,1,0,0,0,0,0,0,1654648143767,4062,4043,4050,4063,0,0,27,,,,,,,0,0,0,-18.00,10.00,-1739.00,0.00,0.00,-1730.00,14,19.00,16.03,18.03,-16.00,-1.00,0.00,0,,,100,100,0,2,0,0,0,1,0,,,,,0.0,0.0,0.0,0.0,0.0,0.0,0
34.182579,-118.129090,1.90,2.00,1.60,1.98,1.90,1.90,1.80,1.98,6202,2022-06-08 00:29:03.867,2022-06-07 17:29:03.867,15,0,0,16.193,34.182596,-118.129088,-1.60,-0.10,0.00,2.50,0.70,-174.00,0,1,0,80,100,-7196,2868,16193,3131.50,5,WP,1,0,0,0,0,0,0,1654648143866,4062,4043,4050,4063,0,0,27,,,,,,,0,0,0,-25.00,7.00,-1740.00,0.00,0.00,-1730.00,14,19.00,16.03,19.77,-16.00,-1.00,0.00,0,,,100,100,0,2,0,0,0,1,0,,,,,0.0,0.0,0.0,0.0,0.0,0.0,0
34.182577,-118.129090,1.90,2.00,1.50,2.13,1.90,1.90,1.80,2.13,6303,2022-06-08 00:29:03.967,2022-06-07 17:29:03.967,15,0,0,16.193,34.182596,-118.129088,-1.50,0.00,0.00,3.10,0.90,-174.00,0,1,0,80,100,-7196,2868,16193,3131.50,5,WP,1,0,0,0,0,0,0,1654648143967,4062,4043,4050,4063,0,0,27,,,,,,,0,0,0,-31.00,9.00,-1740.00,0.00,0.00,-1730.00,14,19.00,15.00,21.31,-15.00,0.00,0.00,0,,,100,100,0,2,0,0,0,1,0,,,,,0.0,0.0,0.0,0.0,0.0,0.0,0
34.182576,-118.129090,1.80,2.00,1.40,2.27,1.90,1.90,1.80,2.27,6403,2022-06-08 00:29:04.068,2022-06-07 17:29:04.068,15,0,0,16.193,34.182596,-118.129088,-1.40,0.00,0.00,3.50,0.70,-174.10,0,1,0,80,100,-7196,2868,16193,3131.50,5,WP,1,0,0,0,0,0,0,1654648144067,4062,4043,4050,4063,0,0,27,,,,,,,0,0,0,-35.00,7.00,-1741.00,0.00,0.00,-1730.00,14,18.00,14.00,22.74,-14.00,0.00,0.00,0,,,100,100,0,2,0,0,0,1,0,,,,,0.0,0.0,0.0,0.0,0.0,0.0,0
34.182575,-118.129090,1.80,2.00,1.30,2.41,1.90,1.90,1.80,2.41,6503,2022-06-08 00:29:04.167,2022-06-07 17:29:04.167,15,0,0,16.193,34.182596,-118.129088,-1.30,0.00,0.00,3.60,0.70,-174.10,0,1,0,80,100,-7196,2868,16193,3131.50,5,WP,1,0,0,0,0,0,0,1654648144167,4062,4043,4050,4063,0,0,27,,,,,,,0,0,0,-36.00,7.00,-1741.00,0.00,0.00,-1730.00,14,18.00,13.00,24.10,-13.00,0.00,0.00,0,,,100,100,0,2,0,0,0,1,0,,,,,0.0,0.0,0.0,0.0,0.0,0.0,0
34.182574,-118.129090,1.80,2.00,1.20,2.55,1.90,1.90,1.80,2.55,6603,2022-06-08 00:29:04.267,2022-06-07 17:29:04.267,15,0,0,16.165,34.182596,-118.129088,-1.20,0.00,0.00,3.70,0.90,-174.10,0,1,0,79,100,-7538,2864,16165,3131.50,5,WP,1,0,0,0,0,0,0,1654648144267,4062,4043,4050,4063,0,0,27,,,,,,,0,0,0,-37.00,9.00,-1741.00,0.00,0.00,-1731.00,14,18.00,12.00,25.53,-12.00,0.00,0.00,0,,,100,100,0,2,0,0,0,1,0,,,,,0.0,0.0,0.0,0.0,0.0,0.0,0
34.182572,-118.129090,1.80,2.00,1.10,2.67,1.90,1.90,1.80,2.67,6704,2022-06-08 00:29:04.369,2022-06-07 17:29:04.369,15,0,0,16.165,34.182596,-118.129088,-1.10,0.00,0.00,3.30,1.30,-174.10,0,1,0,79,100,-7538,2864,16165,3131.50,5,WP,1,0,0,0,0,0,0,1654648144368,4062,4043,4050,4063,0,0,27,,,,,,,0,0,0,-33.00,13.00,-1741.00,0.00,0.00,-1731.00,14,18.00,11.00,26.72,-11.00,0.00,0.00,0,,,100,100,0,2,0,0,0,1,0,,,,,0.0,0.0,0.0,0.0,0.0,0.0,0
34.182571,-118.129091,1.80,2.00,1.00,2.79,1.90,1.90,1.80,2.79,6801,2022-06-08 00:29:04.466,2022-06-07 17:29:04.466,15,0,0,16.165,34.182596,-118.129088,-1.00,0.00,0.00,2.90,1.50,-174.20,0,1,0,79,100,-7538,2864,16165,3131.50,5,WP,1,0,0,0,0,0,0,1654648144465,4062,4043,4050,4063,0,0,27,,,,,,,0,0,0,-29.00,15.00,-1742.00,0.00,0.00,-1731.00,14,18.00,10.00,27.88,-10.00,0.00,0.00,0,,,100,100,0,2,0,0,0,1,0,,,,,0.0,0.0,0.0,0.0,0.0,0.0,0
34.182571,-118.129091,1.80,2.00,0.90,2.89,1.90,1.90,1.80,2.89,6916,2022-06-08 00:29:04.580,2022-06-07 17:29:04.580,15,0,0,16.165,34.182596,-118.129088,-0.90,0.00,0.00,2.40,1.60,-174.10,0,1,0,79,100,-7538,2864,16165,3131.50,5,WP,1,0,0,0,0,0,0,1654648144580,4062,4043,4050,4063,0,0,27,,,,,,,0,0,0,-24.00,16.00,-1741.00,0.00,0.00,-1731.00,14,18.00,9.00,28.91,-9.00,0.00,0.00,0,,,100,100,0,2,0,0,0,1,0,,,,,0.0,0.0,0.0,0.0,0.0,0.0,0
34.182570,-118.129090,1.80,2.00,0.90,2.98,1.90,1.90,1.80,2.98,7001,2022-06-08 00:29:04.665,2022-06-07 17:29:04.665,15,0,0,16.165,34.182596,-118.129088,-0.90,0.00,0.00,1.80,2.10,-174.10,0,1,0,79,100,-7538,2864,16165,3131.50,5,WP,1,0,0,0,0,0,0,1654648144665,4062,4043,4050,4063,0,0,27,,,,,,,0,0,0,-18.00,21.00,-1741.00,0.00,0.00,-1731.00,14,18.00,9.00,29.78,-9.00,0.00,0.00,0,,,100,100,0,2,0,0,0,1,0,,,,,0.0,0.0,0.0,0.0,0.0,0.0,0
34.182569,-118.129091,1.80,2.00,0.80,3.07,1.90,1.90,1.80,3.07,7102,2022-06-08 00:29:04.767,2022-06-07 17:29:04.767,15,0,0,16.165,34.182596,-118.129088,-0.80,0.00,0.00,1.40,2.10,-174.20,0,1,0,79,100,-7538,2864,16165,3131.50,5,WP,1,0,0,0,0,0,0,1654648144766,4062,4043,4050,4063,0,0,27,,,,,,,0,0,0,-14.00,21.00,-1742.00,0.00,0.00,-1731.00,14,18.00,8.00,30.65,-8.00,0.00,0.00,0,,,100,100,0,2,0,0,0,1,0,,,,,0.0,0.0,0.0,0.0,0.0,0.0,0
34.182568,-118.129091,1.80,2.00,0.70,3.16,1.90,1.90,1.80,3.16,7201,2022-06-08 00:29:04.866,2022-06-07 17:29:04.866,15,0,0,16.165,34.182596,-118.129088,-0.70,0.00,0.00,1.50,2.20,-174.20,0,1,0,79,100,-7538,2864,16165,3131.50,5,WP,1,0,0,0,0,0,0,1654648144865,4062,4043,4050,4063,0,0,27,,,,,,,0,0,0,-15.00,22.00,-1742.00,0.00,0.00,-1731.00,14,18.00,7.00,31.63,-7.00,0.00,0.00,0,,,100,100,0,2,0,0,0,1,0,,,,,0.0,0.0,0.0,0.0,0.0,0.0,0
34.182567,-118.129091,1.80,2.00,0.70,3.24,1.90,1.90,1.80,3.24,7320,2022-06-08 00:29:04.985,2022-06-07 17:29:04.985,15,0,0,16.165,34.182596,-118.129088,-0.70,0.00,0.00,1.50,2.40,-174.20,0,1,0,79,100,-7538,2864,16165,3131.50,5,WP,1,0,0,0,0,0,0,1654648144984,4062,4043,4050,4063,0,0,27,,,,,,,0,0,0,-15.00,24.00,-1742.00,0.00,0.00,-1731.00,14,18.00,7.00,32.42,-7.00,0.00,0.00,0,,,100,100,0,2,0,0,0,1,0,,,,,0.0,0.0,0.0,0.0,0.0,0.0,0
34.182567,-118.129090,1.80,2.00,0.60,3.31,1.90,1.90,1.80,3.31,7402,2022-06-08 00:29:05.066,2022-06-07 17:29:05.066,15,0,0,16.165,34.182596,-118.129088,-0.60,0.00,0.00,1.50,2.80,-174.30,0,1,0,79,100,-7538,2864,16165,3131.50,5,WP,1,0,0,0,0,0,0,1654648145066,4062,4043,4050,4063,0,0,27,,,,,,,0,0,0,-15.00,28.00,-1743.00,0.00,0.00,-1731.00,14,18.00,6.00,33.07,-6.00,0.00,0.00,0,,,100,100,0,2,0,0,0,1,0,,,,,0.0,0.0,0.0,0.0,0.0,0.0,0
34.182566,-118.129090,1.80,2.00,0.60,3.37,1.90,1.90,1.80,3.37,7501,2022-06-08 00:29:05.166,2022-06-07 17:29:05.166,15,0,0,16.165,34.182596,-118.129088,-0.60,0.00,0.00,2.10,2.70,-174.30,0,1,0,79,100,-7538,2864,16165,3131.50,5,WP,1,0,0,0,0,0,0,1654648145165,4062,4043,4050,4063,0,0,27,,,,,,,0,0,0,-21.00,27.00,-1743.00,0.00,0.00,-1731.00,14,18.00,6.00,33.75,-6.00,0.00,0.00,0,,,100,100,0,2,0,0,0,1,0,,,,,0.0,0.0,0.0,0.0,0.0,0.0,0
34.182565,-118.129090,1.80,2.00,0.50,3.45,1.90,1.90,1.80,3.45,7603,2022-06-08 00:29:05.267,2022-06-07 17:29:05.267,15,0,0,16.165,34.182596,-118.129088,-0.50,0.00,0.00,2.80,2.90,-174.30,0,1,0,79,100,-7538,2864,16165,3131.50,5,WP,1,0,0,0,0,0,0,1654648145267,4062,4043,4050,4063,0,0,27,,,,,,,0,0,0,-28.00,29.00,-1743.00,0.00,0.00,-1731.00,14,18.00,5.00,34.51,-5.00,0.00,0.00,0,,,100,100,0,2,0,0,0,1,0,,,,,0.0,0.0,0.0,0.0,0.0,0.0,0
34.182565,-118.129090,1.80,2.00,0.50,3.51,1.90,1.90,1.80,3.51,7701,2022-06-08 00:29:05.366,2022-06-07 17:29:05.366,15,0,0,16.165,34.182596,-118.129088,-0.50,0.00,0.00,3.00,2.40,-174.30,0,1,0,79,100,-7538,2864,16165,3131.50,5,WP,1,0,0,0,0,0,0,1654648145365,4062,4043,4050,4063,0,0,27,,,,,,,0,0,0,-30.00,24.00,-1743.00,0.00,0.00,-1731.00,14,18.00,5.00,35.08,-5.00,0.00,0.00,0,,,100,100,0,2,0,0,0,1,0,,,,,0.0,0.0,0.0,0.0,0.0,0.0,0
34.182565,-118.129090,1.80,2.00,0.40,3.55,1.90,1.90,1.80,3.55,7802,2022-06-08 00:29:05.466,2022-06-07 17:29:05.466,15,0,0,16.165,34.182596,-118.129088,-0.40,0.00,0.00,3.00,2.20,-174.30,0,1,0,79,100,-7538,2864,16165,3131.50,5,WP,1,0,0,0,0,0,0,1654648145466,4062,4043,4050,4063,0,0,27,,,,,,,0,0,0,-30.00,22.00,-1743.00,0.00,0.00,-1731.00,14,18.00,4.00,35.49,-4.00,0.00,0.00,0,,,100,100,0,2,0,0,0,1,0,,,,,0.0,0.0,0.0,0.0,0.0,0.0,0
34.182564,-118.129091,1.80,2.00,0.30,3.59,1.90,1.90,1.80,3.59,7901,2022-06-08 00:29:05.566,2022-06-07 17:29:05.566,15,0,0,16.165,34.182596,-118.129088,-0.30,0.00,0.00,2.70,1.80,-174.30,0,1,0,79,100,-7538,2864,16165,3131.50,5,WP,1,0,0,0,0,0,0,1654648145565,4062,4043,4050,4063,0,0,27,,,,,,,0,0,0,-27.00,18.00,-1743.00,0.00,0.00,-1731.00,14,18.00,3.00,35.92,-3.00,0.00,0.00,0,,,100,100,0,2,0,0,0,1,0,,,,,0.0,0.0,0.0,0.0,0.0,0.0,0
34.182564,-118.129090,1.80,2.00,0.30,3.62,1.90,1.90,1.80,3.62,8002,2022-06-08 00:29:05.666,2022-06-07 17:29:05.666,15,0,0,16.165,34.182596,-118.129088,-0.30,0.00,0.00,5.90,1.30,-174.30,0,1,0,79,100,-7538,2864,16165,3131.50,5,WP,1,0,0,0,0,0,0,1654648145666,4062,4043,4050,4063,0,0,27,,,,,,,0,0,0,-59.00,13.00,-1743.00,0.00,0.00,-1731.00,14,18.00,3.00,36.20,-3.00,0.00,0.00,0,,,100,100,0,2,0,0,0,1,0,,,,,0.0,0.0,0.0,0.0,0.0,0.0,0
34.182564,-118.129090,1.80,2.00,0.20,3.65,1.90,1.90,1.80,3.65,8103,2022-06-08 00:29:05.767,2022-06-07 17:29:05.767,15,0,0,16.165,34.182596,-118.129088,-0.20,0.00,0.00,4.60,1.10,-174.70,0,1,0,79,100,-7538,2864,16165,3131.50,5,WP,1,0,0,0,0,0,0,1654648145767,4062,4043,4050,4063,0,0,27,,,,,,,0,0,0,-46.00,11.00,-1747.00,0.00,0.00,-1731.00,14,18.00,2.00,36.47,-2.00,0.00,0.00,0,,,100,100,0,2,0,0,0,1,0,,,,,0.0,0.0,0.0,0.0,0.0,0.0,0
34.182563,-118.129090,1.80,2.00,0.10,3.67,1.90,1.90,1.80,3.67,8202,2022-06-08 00:29:05.866,2022-06-07 17:29:05.866,15,0,0,16.165,34.182596,-118.129088,-0.10,0.00,0.00,2.80,1.00,-174.90,0,1,0,79,100,-7538,2864,16165,3131.50,5,WP,1,0,0,0,0,0,0,1654648145866,4062,4043,4050,4063,0,0,27,,,,,,,0,0,0,-28.00,10.00,-1749.00,0.00,0.00,-1731.00,14,18.00,1.00,36.66,-1.00,0.00,0.00,0,,,100,100,0,2,0,0,0,1,0,,,,,0.0,0.0,0.0,0.0,0.0,0.0,0
34.182563,-118.129091,1.80,2.00,0.00,3.68,1.90,1.90,1.80,3.68,8302,2022-06-08 00:29:05.967,2022-06-07 17:29:05.967,15,0,0,16.165,34.182596,-118.129088,0.00,0.00,0.00,1.70,0.70,-171.20,0,1,0,79,100,-7538,2864,16165,3131.50,5,WP,1,0,0,0,0,0,0,1654648145966,4062,4043,4050,4063,0,0,27,,,,,,,0,0,0,-17.00,7.00,-1712.00,0.00,0.00,-1731.00,14,18.00,0.00,36.78,0.00,0.00,0.00,0,,,100,100,0,2,0,0,0,1,0,,,,,0.0,0.0,0.0,0.0,0.0,0.0,0
34.182563,-118.129090,1.80,2.00,0.00,3.68,1.90,1.90,1.80,3.68,8403,2022-06-08 00:29:06.067,2022-06-07 17:29:06.067,15,0,0,16.165,34.182596,-118.129088,0.00,0.00,0.00,0.80,1.10,-163.70,0,1,0,79,100,-7538,2864,16165,3131.50,5,WP,1,0,0,0,0,0,0,1654648146067,4062,4043,4050,4063,0,0,27,,,,,,,0,0,0,-8.00,11.00,-1637.00,0.00,0.00,-1727.00,14,18.00,0.00,36.78,0.00,0.00,0.00,0,,,100,100,0,2,0,0,0,1,0,,,,,0.0,0.0,0.0,0.0,0.0,0.0,0
34.182563,-118.129090,1.80,2.00,0.00,3.68,1.90,1.90,1.80,3.68,8503,2022-06-08 00:29:06.168,2022-06-07 17:29:06.168,15,0,0,16.165,34.182596,-118.129088,0.00,0.00,0.00,0.80,1.50,-156.10,0,1,0,79,100,-7538,2864,16165,3131.50,5,WP,1,0,0,0,0,0,0,1654648146167,4062,4043,4050,4063,0,0,27,,,,,,,0,0,0,-8.00,15.00,-1561.00,0.00,0.00,-1677.00,14,18.00,0.00,36.83,0.00,0.00,0.00,0,,,100,100,0,2,0,0,0,1,0,,,,,0.0,0.0,0.0,0.0,0.0,0.0,0
34.182564,-118.129090,1.80,2.00,0.00,3.66,1.90,1.90,1.80,3.68,8603,2022-06-08 00:29:06.267,2022-06-07 17:29:06.267,15,0,0,16.133,34.182596,-118.129088,0.00,0.00,0.00,0.30,1.80,-148.50,0,1,0,79,100,-7632,2860,16133,3131.50,5,WP,1,0,0,0,0,0,0,1654648146267,4062,4043,4050,4063,0,0,27,,,,,,,0,0,0,-3.00,18.00,-1485.00,0.00,0.00,-1593.00,14,18.00,0.00,36.59,0.00,0.00,0.00,0,,,100,100,0,2,0,0,0,1,0,,,,,0.0,0.0,0.0,0.0,0.0,0.0,0
34.182564,-118.129090,1.80,2.00,0.00,3.66,1.90,1.90,1.80,3.68,8703,2022-06-08 00:29:06.367,2022-06-07 17:29:06.367,15,0,0,16.133,34.182596,-118.129088,0.00,0.00,0.00,-0.20,1.20,-141.00,0,1,0,79,100,-7632,2860,16133,3131.50,5,WP,1,0,0,0,0,0,0,1654648146367,4062,4043,4050,4063,0,0,27,,,,,,,0,0,0,2.00,12.00,-1410.00,0.00,0.00,-1509.00,14,18.00,0.00,36.55,0.00,0.00,0.00,0,,,100,100,0,2,0,0,0,1,0,,,,,0.0,0.0,0.0,0.0,0.0,0.0,0
34.182564,-118.129090,1.80,2.00,0.00,3.65,1.90,1.90,1.80,3.68,8802,2022-06-08 00:29:06.467,2022-06-07 17:29:06.467,15,0,0,16.133,34.182596,-118.129088,0.00,0.00,0.00,-0.30,0.50,-133.50,0,1,0,79,100,-7632,2860,16133,3131.50,5,WP,1,0,0,0,0,0,0,1654648146466,4062,4043,4050,4063,0,0,27,,,,,,,0,0,0,3.00,5.00,-1335.00,0.00,0.00,-1428.00,14,18.00,0.00,36.50,0.00,0.00,0.00,0,,,100,100,0,2,0,0,0,1,0,,,,,0.0,0.0,0.0,0.0,0.0,0.0,0
34.182564,-118.129090,1.80,2.00,0.00,3.64,1.90,1.90,1.80,3.68,8903,2022-06-08 00:29:06.567,2022-06-07 17:29:06.567,15,0,0,16.133,34.182596,-118.129088,0.00,0.00,0.00,-0.70,0.00,-126.10,0,1,0,79,100,-7632,2860,16133,3131.50,5,WP,1,0,0,0,0,0,0,1654648146567,4062,4043,4050,4063,0,0,27,,,,,,,0,0,0,7.00,0.00,-1261.00,0.00,0.00,-1349.00,14,18.00,0.00,36.42,0.00,0.00,0.00,0,,,100,100,0,2,0,0,0,1,0,,,,,0.0,0.0,0.0,0.0,0.0,0.0,0
34.182564,-118.129090,1.80,1.90,0.00,3.62,1.90,1.90,1.80,3.68,9003,2022-06-08 00:29:06.667,2022-06-07 17:29:06.667,15,0,0,16.133,34.182596,-118.129088,0.00,0.00,0.00,-1.00,-0.20,-118.70,0,1,0,79,100,-7632,2860,16133,3131.50,5,WP,1,0,0,0,0,0,0,1654648146667,4062,4043,4050,4063,0,0,27,,,,,,,0,0,0,10.00,-2.00,-1187.00,0.00,0.00,-1272.00,14,18.00,0.00,36.22,0.00,0.00,0.00,0,,,100,100,0,2,0,0,0,1,0,,,,,0.0,0.0,0.0,0.0,0.0,0.0,0
34.182564,-118.129090,1.80,2.00,0.00,3.61,1.90,1.90,1.80,3.68,9103,2022-06-08 00:29:06.767,2022-06-07 17:29:06.767,15,0,0,16.133,34.182596,-118.129088,0.00,0.00,0.00,-1.40,-0.50,-111.30,0,1,0,79,100,-7632,2860,16133,3131.50,5,WP,1,0,0,0,0,0,0,1654648146767,4062,4043,4050,4063,0,0,27,,,,,,,0,0,0,14.00,-5.00,-1113.00,0.00,0.00,-1196.00,14,18.00,0.00,36.12,0.00,0.00,0.00,0,,,100,100,0,2,0,0,0,1,0,,,,,0.0,0.0,0.0,0.0,0.0,0.0,0
34.182564,-118.129090,1.80,2.00,0.00,3.58,1.90,1.90,1.80,3.68,9204,2022-06-08 00:29:06.868,2022-06-07 17:29:06.868,15,0,0,16.133,34.182596,-118.129088,0.00,0.00,0.00,-1.50,-0.90,-103.90,0,1,0,79,100,-7632,2860,16133,3131.50,5,WP,1,0,0,0,0,0,0,1654648146868,4062,4043,4050,4063,0,0,27,,,,,,,0,0,0,15.00,-9.00,-1039.00,0.00,0.00,-1120.00,14,18.00,0.00,35.82,0.00,0.00,0.00,0,,,100,100,0,2,0,0,0,1,0,,,,,0.0,0.0,0.0,0.0,0.0,0.0,0
34.182564,-118.129090,1.80,1.90,0.00,3.57,1.90,1.90,1.80,3.68,9303,2022-06-08 00:29:06.968,2022-06-07 17:29:06.968,15,0,0,16.133,34.182596,-118.129088,0.00,0.00,0.00,-1.40,-0.90,-96.50,0,1,0,79,100,-7632,2860,16133,3131.50,5,WP,1,0,0,0,0,0,0,1654648146967,4062,4043,4050,4063,0,0,27,,,,,,,0,0,0,14.00,-9.00,-965.00,0.00,0.00,-1046.00,14,18.00,0.00,35.70,0.00,0.00,0.00,0,,,100,100,0,2,0,0,0,1,0,,,,,0.0,0.0,0.0,0.0,0.0,0.0,0
34.182564,-118.129090,1.80,1.90,0.00,3.57,1.90,1.90,1.80,3.68,9404,2022-06-08 00:29:07.068,2022-06-07 17:29:07.068,15,0,0,16.133,34.182596,-118.129088,0.00,0.00,0.00,-1.20,-0.90,-89.20,0,1,0,79,100,-7632,2860,16133,3131.50,5,WP,1,0,0,0,0,0,0,1654648147068,4062,4043,4050,4063,0,0,27,,,,,,,0,0,0,12.00,-9.00,-892.00,0.00,0.00,-971.00,14,18.00,0.00,35.73,0.00,0.00,0.00,0,,,100,100,0,2,0,0,0,1,0,,,,,0.0,0.0,0.0,0.0,0.0,0.0,0
34.182564,-118.129090,1.80,1.90,0.00,3.56,1.90,1.90,1.80,3.68,9503,2022-06-08 00:29:07.168,2022-06-07 17:29:07.168,15,0,0,16.133,34.182596,-118.129088,0.00,0.00,0.00,-1.00,-1.20,-81.80,0,1,0,79,100,-7632,2860,16133,3131.50,5,WP,1,0,0,0,0,0,0,1654648147167,4062,4043,4050,4063,0,0,27,,,,,,,0,0,0,10.00,-12.00,-818.00,0.00,0.00,-896.00,14,18.00,0.00,35.61,0.00,0.00,0.00,0,,,100,100,0,2,0,0,0,1,0,,,,,0.0,0.0,0.0,0.0,0.0,0.0,0
34.182565,-118.129090,1.80,2.00,0.10,3.55,1.90,1.90,1.80,3.68,9603,2022-06-08 00:29:07.267,2022-06-07 17:29:07.267,15,0,0,16.133,34.182596,-118.129088,0.10,0.00,0.00,-0.60,-1.70,-74.40,0,1,0,79,100,-7632,2860,16133,3131.50,5,WP,1,0,0,0,0,0,0,1654648147267,4062,4043,4050,4063,0,0,27,,,,,,,0,0,0,6.00,-17.00,-744.00,0.00,0.00,-822.00,14,18.00,1.00,35.46,1.00,0.00,0.00,0,,,100,100,0,2,0,0,0,1,0,,,,,0.0,0.0,0.0,0.0,0.0,0.0,0
34.182565,-118.129090,1.80,1.90,0.10,3.53,1.90,1.90,1.80,3.68,9703,2022-06-08 00:29:07.368,2022-06-07 17:29:07.368,15,0,0,16.133,34.182596,-118.129088,0.10,0.00,0.00,-0.10,-1.90,-67.00,0,1,0,79,100,-7632,2860,16133,3131.50,5,WP,1,0,0,0,0,0,0,1654648147367,4062,4043,4050,4063,0,0,27,,,,,,,0,0,0,1.00,-19.00,-670.00,0.00,0.00,-748.00,14,18.00,1.00,35.33,1.00,0.00,0.00,0,,,100,100,0,2,0,0,0,1,0,,,,,0.0,0.0,0.0,0.0,0.0,0.0,0
34.182565,-118.129090,1.80,2.00,0.10,3.52,1.90,1.90,1.80,3.68,9803,2022-06-08 00:29:07.468,2022-06-07 17:29:07.468,15,0,0,16.133,34.182596,-118.129088,0.10,0.00,0.00,0.40,-2.00,-59.60,0,1,0,79,100,-7632,2860,16133,3131.50,5,WP,1,0,0,0,0,0,0,1654648147467,4062,4043,4050,4063,0,0,27,,,,,,,0,0,0,-4.00,-20.00,-596.00,0.00,0.00,-674.00,14,18.00,1.00,35.18,1.00,0.00,0.00,0,,,100,100,0,2,0,0,0,1,0,,,,,0.0,0.0,0.0,0.0,0.0,0.0,0
34.182565,-118.129090,1.80,1.90,0.10,3.50,1.90,1.90,1.80,3.68,9903,2022-06-08 00:29:07.568,2022-06-07 17:29:07.568,15,0,0,16.133,34.182596,-118.129088,0.10,0.00,0.00,1.10,-2.10,-52.40,0,1,0,79,100,-7632,2860,16133,3131.50,5,WP,1,0,0,0,0,0,0,1654648147567,4062,4043,4050,4063,0,0,27,,,,,,,0,0,0,-11.00,-21.00,-524.00,0.00,0.00,-600.00,14,18.00,1.00,35.05,1.00,0.00,0.00,0,,,100,100,0,2,0,0,0,1,0,,,,,0.0,0.0,0.0,0.0,0.0,0.0,0
34.182565,-118.129090,1.80,1.90,0.00,3.49,1.90,1.90,1.80,3.68,10003,2022-06-08 00:29:07.667,2022-06-07 17:29:07.667,15,0,0,16.133,34.182596,-118.129088,0.00,0.00,0.00,1.40,-2.60,-45.30,0,1,0,79,100,-7632,2860,16133,3131.50,5,WP,1,0,0,0,0,0,0,1654648147667,4062,4043,4050,4063,0,0,27,,,,,,,0,0,0,-14.00,-26.00,-453.00,0.00,0.00,-527.00,14,18.00,0.00,34.94,0.00,0.00,0.00,0,,,100,100,0,2,0,0,0,1,0,,,,,0.0,0.0,0.0,0.0,0.0,0.0,0
34.182565,-118.129090,1.80,1.90,0.00,3.48,1.90,1.90,1.80,3.68,10103,2022-06-08 00:29:07.767,2022-06-07 17:29:07.767,15,0,0,16.133,34.182596,-118.129088,0.00,0.00,0.00,1.40,-2.70,-38.00,0,1,0,79,100,-7632,2860,16133,3131.50,5,WP,1,0,0,0,0,0,0,1654648147767,4062,4043,4050,4063,0,0,27,,,,,,,0,0,0,-14.00,-27.00,-380.00,0.00,0.00,-455.00,14,18.00,0.00,34.82,0.00,0.00,0.00,0,,,100,100,0,2,0,0,0,1,0,,,,,0.0,0.0,0.0,0.0,0.0,0.0,0
34.182565,-118.129090,1.80,1.90,0.00,3.46,1.90,1.90,1.80,3.68,10204,2022-06-08 00:29:07.868,2022-06-07 17:29:07.868,15,0,0,16.133,34.182596,-118.129088,0.00,0.00,0.00,1.70,-2.50,-31.10,0,1,0,79,100,-7632,2860,16133,3131.50,5,WP,1,0,0,0,0,0,0,1654648147868,4062,4043,4050,4063,0,0,27,,,,,,,0,0,0,-17.00,-25.00,-311.00,0.00,0.00,-383.00,14,18.00,0.00,34.59,0.00,0.00,0.00,0,,,100,100,0,2,0,0,0,1,0,,,,,0.0,0.0,0.0,0.0,0.0,0.0,0
34.182565,-118.129090,1.80,1.90,0.00,3.45,1.90,1.90,1.80,3.68,10303,2022-06-08 00:29:07.967,2022-06-07 17:29:07.967,15,0,0,16.133,34.182596,-118.129088,0.00,0.00,0.00,1.90,-2.10,-25.20,0,1,0,79,100,-7632,2860,16133,3131.50,5,WP,1,0,0,0,0,0,0,1654648147967,4062,4043,4050,4063,0,0,27,,,,,,,0,0,0,-19.00,-21.00,-252.00,0.00,0.00,-314.00,14,18.00,0.00,34.49,0.00,0.00,0.00,0,,,100,100,0,2,0,0,0,1,0,,,,,0.0,0.0,0.0,0.0,0.0,0.0,0
34.182565,-118.129090,1.80,1.90,0.00,3.44,1.90,1.90,1.80,3.68,10405,2022-06-08 00:29:08.069,2022-06-07 17:29:08.069,15,0,0,16.133,34.182596,-118.129088,0.00,0.00,0.00,2.00,-2.00,-20.50,0,1,0,79,100,-7632,2860,16133,3131.50,5,WP,1,0,0,0,0,0,0,1654648148069,4062,4043,4050,4063,0,0,27,,,,,,,0,0,0,-20.00,-20.00,-205.00,0.00,0.00,-256.00,14,18.00,0.00,34.45,0.00,0.00,0.00,0,,,100,100,0,2,0,0,0,1,0,,,,,0.0,0.0,0.0,0.0,0.0,0.0,0
34.182566,-118.129090,1.80,1.90,0.00,3.44,1.90,1.90,1.80,3.68,10503,2022-06-08 00:29:08.168,2022-06-07 17:29:08.168,15,0,0,16.133,34.182596,-118.129088,0.00,0.00,0.00,1.90,-1.70,-16.60,0,1,0,79,100,-7632,2860,16133,3131.50,5,WP,1,0,0,0,0,0,0,1654648148167,4062,4043,4050,4063,0,0,27,,,,,,,0,0,0,-19.00,-17.00,-166.00,0.00,0.00,-208.00,14,18.00,0.00,34.39,0.00,0.00,0.00,0,,,100,100,0,2,0,0,0,1,0,,,,,0.0,0.0,0.0,0.0,0.0,0.0,0
34.182565,-118.129090,1.80,1.90,0.00,3.45,1.90,1.90,1.80,3.68,10604,2022-06-08 00:29:08.268,2022-06-07 17:29:08.268,15,0,0,16.116,34.182596,-118.129088,0.00,0.00,0.00,1.80,-1.80,-13.60,0,1,0,79,100,-7613,2854,16116,3131.50,5,WP,1,0,0,0,0,0,0,1654648148268,4062,4043,4050,4063,0,0,27,,,,,,,0,0,0,-18.00,-18.00,-136.00,0.00,0.00,-169.00,14,18.00,0.00,34.47,0.00,0.00,0.00,0,,,100,100,0,2,0,0,0,1,0,,,,,0.0,0.0,0.0,0.0,0.0,0.0,0
34.182565,-118.129090,1.80,1.90,0.00,3.45,1.90,1.90,1.80,3.68,10704,2022-06-08 00:29:08.369,2022-06-07 17:29:08.369,15,0,0,16.116,34.182596,-118.129088,0.00,0.00,0.00,1.40,-2.00,-11.20,0,1,0,79,100,-7613,2854,16116,3131.50,5,WP,1,0,0,0,0,0,0,1654648148368,4062,4043,4050,4063,0,0,27,,,,,,,0,0,0,-14.00,-20.00,-112.00,0.00,0.00,-139.00,14,18.00,0.00,34.46,0.00,0.00,0.00,0,,,100,100,0,2,0,0,0,1,0,,,,,0.0,0.0,0.0,0.0,0.0,0.0,0
34.182565,-118.129090,1.80,1.90,0.00,3.46,1.90,1.90,1.80,3.68,10804,2022-06-08 00:29:08.468,2022-06-07 17:29:08.468,15,0,0,16.116,34.182596,-118.129088,0.00,0.00,0.00,1.10,-1.80,-9.30,0,1,0,79,100,-7613,2854,16116,3131.50,5,WP,1,0,0,0,0,0,0,1654648148468,4062,4043,4050,4063,0,0,27,,,,,,,0,0,0,-11.00,-18.00,-93.00,0.00,0.00,-115.00,14,18.00,0.00,34.58,0.00,0.00,0.00,0,,,100,100,0,2,0,0,0,1,0,,,,,0.0,0.0,0.0,0.0,0.0,0.0,0
34.182565,-118.129090,1.80,1.90,0.00,3.46,1.90,1.90,1.80,3.68,10904,2022-06-08 00:29:08.569,2022-06-07 17:29:08.569,15,0,0,16.116,34.182596,-118.129088,0.00,0.00,0.00,0.90,-1.50,-7.60,0,1,0,79,100,-7613,2854,16116,3131.50,5,WP,1,0,0,0,0,0,0,1654648148568,4062,4043,4050,4063,0,0,27,,,,,,,0,0,0,-9.00,-15.00,-76.00,0.00,0.00,-96.00,14,18.00,0.00,34.61,0.00,0.00,0.00,0,,,100,100,0,2,0,0,0,1,0,,,,,0.0,0.0,0.0,0.0,0.0,0.0,0
34.182565,-118.129090,1.80,1.90,0.00,3.46,1.90,1.90,1.80,3.68,11004,2022-06-08 00:29:08.669,2022-06-07 17:29:08.669,15,0,0,16.116,34.182596,-118.129088,0.00,0.00,0.00,0.60,-1.50,-6.40,0,1,0,79,100,-7613,2854,16116,3131.50,5,WP,1,0,0,0,0,0,0,1654648148668,4062,4043,4050,4063,0,0,27,,,,,,,0,0,0,-6.00,-15.00,-64.00,0.00,0.00,-80.00,14,18.00,0.00,34.58,0.00,0.00,0.00,0,,,100,100,0,2,0,0,0,1,0,,,,,0.0,0.0,0.0,0.0,0.0,0.0,0
34.182565,-118.129090,1.80,1.90,0.00,3.46,1.90,1.90,1.80,3.68,11104,2022-06-08 00:29:08.769,2022-06-07 17:29:08.769,15,0,0,16.116,34.182596,-118.129088,0.00,0.00,0.00,0.30,-0.80,-5.50,0,1,0,79,100,-7613,2854,16116,3131.50,5,WP,1,0,0,0,0,0,0,1654648148768,4062,4043,4050,4063,0,0,27,,,,,,,0,0,0,-3.00,-8.00,-55.00,0.00,0.00,-67.00,14,18.00,0.00,34.62,0.00,0.00,0.00,0,,,100,100,0,2,0,0,0,1,0,,,,,0.0,0.0,0.0,0.0,0.0,0.0,0
34.182565,-118.129090,1.80,1.90,0.00,3.48,1.90,1.90,1.80,3.68,11204,2022-06-08 00:29:08.869,2022-06-07 17:29:08.869,15,0,0,16.116,34.182596,-118.129088,0.00,0.00,0.00,-0.10,-0.60,-4.80,0,1,0,79,100,-7613,2854,16116,3131.50,5,WP,1,0,0,0,0,0,0,1654648148868,4062,4043,4050,4063,0,0,27,,,,,,,0,0,0,1.00,-6.00,-48.00,0.00,0.00,-57.00,14,18.00,0.00,34.79,0.00,0.00,0.00,0,,,100,100,0,2,0,0,0,1,0,,,,,0.0,0.0,0.0,0.0,0.0,0.0,0
34.182565,-118.129090,1.80,1.90,0.10,3.48,1.90,1.90,1.80,3.68,11304,2022-06-08 00:29:08.969,2022-06-07 17:29:08.969,15,0,0,16.116,34.182596,-118.129088,0.00,0.10,0.00,-1.30,-2.30,-3.10,0,1,0,79,100,-7613,2854,16116,3131.50,5,WP,1,0,0,0,0,0,0,1654648148968,4062,4043,4050,4063,0,0,27,,,,,,,0,0,0,13.00,-23.00,-31.00,0.00,0.00,-50.00,14,18.00,1.00,34.83,0.00,1.00,0.00,0,,,100,100,0,2,0,0,0,1,0,,,,,0.0,0.0,0.0,0.0,0.0,0.0,0
34.182565,-118.129090,1.80,1.90,0.10,3.51,1.90,1.90,1.80,3.68,11404,2022-06-08 00:29:09.069,2022-06-07 17:29:09.069,15,0,0,16.116,34.182596,-118.129088,0.00,0.10,0.00,-1.40,-2.90,-0.70,0,1,0,79,100,-7613,2854,16116,3131.50,5,WP,1,0,0,0,0,0,0,1654648149068,4062,4043,4050,4063,0,0,27,,,,,,,0,0,0,14.00,-29.00,-7.00,0.00,0.00,-40.00,14,18.00,1.00,35.05,0.00,1.00,0.00,0,,,100,100,0,2,0,0,0,1,0,,,,,0.0,0.0,0.0,0.0,0.0,0.0,0
34.182565,-118.129090,1.80,2.00,0.10,3.50,1.90,1.90,1.80,3.68,11504,2022-06-08 00:29:09.169,2022-06-07 17:29:09.169,15,0,0,16.116,34.182596,-118.129088,0.00,0.10,0.00,-0.50,-3.20,1.00,0,1,0,79,100,-7613,2854,16116,3131.50,5,WP,1,0,0,0,0,0,0,1654648149168,4062,4043,4050,4063,0,0,27,,,,,,,0,0,0,5.00,-32.00,10.00,0.00,0.00,-20.00,14,18.00,1.00,35.04,0.00,1.00,0.00,0,,,100,100,0,2,0,0,0,1,0,,,,,0.0,0.0,0.0,0.0,0.0,0.0,0
34.182565,-118.129090,1.80,2.00,0.00,3.52,1.90,1.90,1.80,3.68,11604,2022-06-08 00:29:09.269,2022-06-07 17:29:09.269,15,0,0,16.116,34.182596,-118.129088,0.00,0.00,0.00,0.20,-3.10,2.30,0,1,0,79,100,-7613,2854,16116,3131.50,5,WP,1,0,0,0,0,0,0,1654648149268,4062,4043,4050,4063,0,0,27,,,,,,,0,0,0,-2.00,-31.00,23.00,0.00,0.00,-2.00,14,18.00,0.00,35.15,0.00,0.00,0.00,0,,,100,100,0,2,0,0,0,1,0,,,,,0.0,0.0,0.0,0.0,0.0,0.0,0
34.182565,-118.129090,1.80,2.00,0.00,3.51,1.90,1.90,1.80,3.68,11704,2022-06-08 00:29:09.369,2022-06-07 17:29:09.369,15,0,0,16.116,34.182596,-118.129088,0.00,0.00,0.00,0.60,-3.00,3.20,0,1,0,79,100,-7613,2854,16116,3131.50,5,WP,1,0,0,0,0,0,0,1654648149368,4062,4043,4050,4063,0,0,27,,,,,,,0,0,0,-6.00,-30.00,32.00,0.00,0.00,11.00,14,18.00,0.00,35.10,0.00,0.00,0.00,0,,,100,100,0,2,0,0,0,1,0,,,,,0.0,0.0,0.0,0.0,0.0,0.0,0
34.182565,-118.129090,1.80,2.00,0.00,3.52,1.90,1.90,1.80,3.68,11805,2022-06-08 00:29:09.469,2022-06-07 17:29:09.469,15,0,0,16.116,34.182596,-118.129088,0.00,0.00,0.00,1.10,-2.80,3.90,0,1,0,79,100,-7613,2854,16116,3131.50,5,WP,1,0,0,0,0,0,0,1654648149469,4062,4043,4050,4063,0,0,27,,,,,,,0,0,0,-11.00,-28.00,39.00,0.00,0.00,21.00,14,18.00,0.00,35.21,0.00,0.00,0.00,0,,,100,100,0,2,0,0,0,1,0,,,,,0.0,0.0,0.0,0.0,0.0,0.0,0
34.182565,-118.129090,1.80,2.00,0.00,3.51,1.90,1.90,1.80,3.68,11904,2022-06-08 00:29:09.569,2022-06-07 17:29:09.569,15,0,0,16.116,34.182596,-118.129088,0.00,0.00,0.00,1.70,-3.20,4.20,0,1,0,79,100,-7613,2854,16116,3131.50,5,WP,1,0,0,0,0,0,0,1654648149568,4062,4043,4050,4063,0,0,27,,,,,,,0,0,0,-17.00,-32.00,42.00,0.00,0.00,27.00,14,18.00,0.00,35.13,0.00,0.00,0.00,0,,,100,100,0,2,0,0,0,1,0,,,,,0.0,0.0,0.0,0.0,0.0,0.0,0
34.182565,-118.129090,1.80,2.00,0.00,3.50,1.90,1.90,1.80,3.68,12006,2022-06-08 00:29:09.670,2022-06-07 17:29:09.670,15,0,0,16.116,34.182596,-118.129088,0.00,0.00,0.00,1.80,-3.00,4.40,0,1,0,79,100,-7613,2854,16116,3131.50,5,WP,1,0,0,0,0,0,0,1654648149670,4062,4043,4050,4063,0,0,27,,,,,,,0,0,0,-18.00,-30.00,44.00,0.00,0.00,32.00,14,18.00,0.00,35.04,0.00,0.00,0.00,0,,,100,100,0,2,0,0,0,1,0,,,,,0.0,0.0,0.0,0.0,0.0,0.0,0
34.182565,-118.129089,1.80,1.90,0.00,3.49,1.90,1.90,1.80,3.68,12104,2022-06-08 00:29:09.769,2022-06-07 17:29:09.769,15,0,0,16.116,34.182596,-118.129088,0.00,0.00,0.00,2.20,-2.40,4.50,0,1,0,79,100,-7613,2854,16116,3131.50,5,WP,1,0,0,0,0,0,0,1654648149768,4062,4043,4050,4063,0,0,27,,,,,,,0,0,0,-22.00,-24.00,45.00,0.00,0.00,35.00,14,18.00,0.00,34.94,0.00,0.00,0.00,0,,,100,100,0,2,0,0,0,1,0,,,,,0.0,0.0,0.0,0.0,0.0,0.0,0
34.182565,-118.129089,1.80,1.90,0.00,3.50,1.90,1.90,1.80,3.68,12205,2022-06-08 00:29:09.869,2022-06-07 17:29:09.869,15,0,0,16.116,34.182596,-118.129088,0.00,0.00,0.00,2.70,-2.10,4.60,0,1,0,79,100,-7613,2854,16116,3131.50,5,WP,1,0,0,0,0,0,0,1654648149869,4062,4043,4050,4063,0,0,27,,,,,,,0,0,0,-27.00,-21.00,46.00,0.00,0.00,37.00,14,18.00,0.00,34.99,0.00,0.00,0.00,0,,,100,100,0,2,0,0,0,1,0,,,,,0.0,0.0,0.0,0.0,0.0,0.0,0
34.182565,-118.129089,1.80,1.90,0.00,3.49,1.90,1.90,1.80,3.68,12306,2022-06-08 00:29:09.971,2022-06-07 17:29:09.971,15,0,0,16.116,34.182596,-118.129088,0.00,0.00,0.00,2.70,-2.10,4.70,0,1,0,79,100,-7613,2854,16116,3131.50,5,WP,1,0,0,0,0,0,0,1654648149970,4062,4043,4050,4063,0,0,27,,,,,,,0,0,0,-27.00,-21.00,47.00,0.00,0.00,39.00,14,18.00,0.00,34.90,0.00,0.00,0.00,0,,,100,100,0,2,0,0,0,1,0,,,,,0.0,0.0,0.0,0.0,0.0,0.0,0
34.182565,-118.129089,1.80,1.90,0.00,3.50,1.90,1.90,1.80,3.68,12406,2022-06-08 00:29:10.070,2022-06-07 17:29:10.070,15,0,0,16.116,34.182596,-118.129088,0.00,0.00,0.00,2.70,-2.10,4.80,0,1,0,79,100,-7613,2854,16116,3131.50,5,WP,1,0,0,0,0,0,0,1654648150070,4062,4043,4050,4063,0,0,27,,,,,,,0,0,0,-27.00,-21.00,48.00,0.00,0.00,42.00,14,18.00,0.00,35.05,0.00,0.00,0.00,0,,,100,100,0,2,0,0,0,1,0,,,,,0.0,0.0,0.0,0.0,0.0,0.0,0
34.182565,-118.129089,1.80,2.00,0.00,3.50,1.90,1.90,1.80,3.68,12506,2022-06-08 00:29:10.170,2022-06-07 17:29:10.170,15,0,0,16.116,34.182596,-118.129088,0.00,0.00,0.00,2.80,-2.10,4.70,0,1,0,79,100,-7613,2854,16116,3131.50,5,WP,1,0,0,0,0,0,0,1654648150170,4062,4043,4050,4063,0,0,27,,,,,,,0,0,0,-28.00,-21.00,47.00,0.00,0.00,44.00,14,18.00,0.00,35.00,0.00,0.00,0.00,0,,,100,100,0,2,0,0,0,1,0,,,,,0.0,0.0,0.0,0.0,0.0,0.0,0
34.182565,-118.129089,1.80,2.00,0.00,3.49,1.90,1.90,1.80,3.68,12606,2022-06-08 00:29:10.270,2022-06-07 17:29:10.270,15,0,0,16.097,34.182596,-118.129088,0.00,0.00,0.00,2.70,-2.00,4.70,0,1,0,79,100,-7693,2849,16097,3131.50,5,WP,1,0,0,0,0,0,0,1654648150270,4035,4016,4025,4022,0,0,27,,,,,,,0,0,0,-27.00,-20.00,47.00,0.00,0.00,45.00,14,18.00,0.00,34.86,0.00,0.00,0.00,0,,,100,100,0,2,0,0,0,1,0,,,,,0.0,0.0,0.0,0.0,0.0,0.0,0
34.182565,-118.129089,1.80,2.00,0.00,3.48,1.90,1.90,1.80,3.68,12706,2022-06-08 00:29:10.370,2022-06-07 17:29:10.370,15,0,0,16.097,34.182596,-118.129088,0.00,0.00,0.00,2.60,-1.90,4.70,0,1,0,79,100,-7693,2849,16097,3131.50,5,WP,1,0,0,0,0,0,0,1654648150370,4035,4016,4025,4022,0,0,27,,,,,,,0,0,0,-26.00,-19.00,47.00,0.00,0.00,46.00,14,18.00,0.00,34.83,0.00,0.00,0.00,0,,,100,100,0,2,0,0,0,1,0,,,,,0.0,0.0,0.0,0.0,0.0,0.0,0
34.182565,-118.129089,1.80,1.90,0.00,3.49,1.90,1.90,1.80,3.68,12806,2022-06-08 00:29:10.471,2022-06-07 17:29:10.471,15,0,0,16.097,34.182596,-118.129088,0.00,0.00,0.00,2.40,-1.60,4.80,0,1,0,79,100,-7693,2849,16097,3131.50,5,WP,1,0,0,0,0,0,0,1654648150470,4035,4016,4025,4022,0,0,27,,,,,,,0,0,0,-24.00,-16.00,48.00,0.00,0.00,47.00,14,18.00,0.00,34.86,0.00,0.00,0.00,0,,,100,100,0,2,0,0,0,1,0,,,,,0.0,0.0,0.0,0.0,0.0,0.0,0
34.182565,-118.129089,1.80,2.00,0.00,3.49,1.90,1.90,1.80,3.68,12907,2022-06-08 00:29:10.571,2022-06-07 17:29:10.571,15,0,0,16.097,34.182596,-118.129088,0.00,0.00,0.00,2.20,-1.70,4.90,0,1,0,79,100,-7693,2849,16097,3131.50,5,WP,1,0,0,0,0,0,0,1654648150571,4035,4016,4025,4022,0,0,27,,,,,,,0,0,0,-22.00,-17.00,49.00,0.00,0.00,48.00,14,18.00,0.00,34.86,0.00,0.00,0.00,0,,,100,100,0,2,0,0,0,1,0,,,,,0.0,0.0,0.0,0.0,0.0,0.0,0
34.182565,-118.129089,1.80,2.00,0.00,3.48,1.90,1.90,1.80,3.68,13007,2022-06-08 00:29:10.671,2022-06-07 17:29:10.671,15,0,0,16.097,34.182596,-118.129088,0.00,0.00,0.00,1.90,-1.90,5.10,0,1,0,79,100,-7693,2849,16097,3131.50,5,WP,1,0,0,0,0,0,0,1654648150671,4035,4016,4025,4022,0,0,27,,,,,,,0,0,0,-19.00,-19.00,51.00,0.00,0.00,49.00,14,18.00,0.00,34.83,0.00,0.00,0.00,0,,,100,100,0,2,0,0,0,1,0,,,,,0.0,0.0,0.0,0.0,0.0,0.0,0
34.182565,-118.129089,1.80,2.00,0.00,3.48,1.90,1.90,1.80,3.68,13120,2022-06-08 00:29:10.784,2022-06-07 17:29:10.784,15,0,0,16.097,34.182596,-118.129088,0.00,0.00,0.00,1.80,-2.10,5.10,0,1,0,79,100,-7693,2849,16097,3131.50,5,WP,1,0,0,0,0,0,0,1654648150784,4035,4016,4025,4022,0,0,27,,,,,,,0,0,0,-18.00,-21.00,51.00,0.00,0.00,50.00,14,18.00,0.00,34.84,0.00,0.00,0.00,0,,,100,100,0,2,0,0,0,1,0,,,,,0.0,0.0,0.0,0.0,0.0,0.0,0
34.182565,-118.129089,1.80,2.00,0.00,3.49,1.90,1.90,1.80,3.68,13206,2022-06-08 00:29:10.870,2022-06-07 17:29:10.870,15,0,0,16.097,34.182596,-118.129088,0.00,0.00,0.00,1.80,-2.30,5.10,0,1,0,79,100,-7693,2849,16097,3131.50,5,WP,1,0,0,0,0,0,0,1654648150870,4035,4016,4025,4022,0,0,27,,,,,,,0,0,0,-18.00,-23.00,51.00,0.00,0.00,51.00,14,18.00,0.00,34.90,0.00,0.00,0.00,0,,,100,100,0,2,0,0,0,1,0,,,,,0.0,0.0,0.0,0.0,0.0,0.0,0
34.182565,-118.129089,1.80,2.00,0.00,3.49,1.90,1.90,1.80,3.68,13305,2022-06-08 00:29:10.970,2022-06-07 17:29:10.970,15,0,0,16.097,34.182596,-118.129088,0.00,0.00,0.00,1.80,-2.30,5.10,0,1,0,79,100,-7693,2849,16097,3131.50,5,WP,1,0,0,0,0,0,0,1654648150969,4035,4016,4025,4022,0,0,27,,,,,,,0,0,0,-18.00,-23.00,51.00,0.00,0.00,51.00,14,18.00,0.00,34.91,0.00,0.00,0.00,0,,,100,100,0,2,0,0,0,1,0,,,,,0.0,0.0,0.0,0.0,0.0,0.0,0
34.182565,-118.129089,1.80,2.00,0.00,3.51,1.90,1.90,1.80,3.68,13405,2022-06-08 00:29:11.070,2022-06-07 17:29:11.070,15,0,0,16.097,34.182596,-118.129088,0.00,0.00,0.00,1.70,-2.60,5.10,0,1,0,79,100,-7693,2849,16097,3131.50,5,WP,1,0,0,0,0,0,0,1654648151069,4035,4016,4025,4022,0,0,27,,,,,,,0,0,0,-17.00,-26.00,51.00,0.00,0.00,52.00,14,18.00,0.00,35.06,0.00,0.00,0.00,0,,,100,100,0,2,0,0,0,1,0,,,,,0.0,0.0,0.0,0.0,0.0,0.0,0
34.182565,-118.129089,1.80,2.00,0.00,3.51,1.90,1.90,1.80,3.68,13506,2022-06-08 00:29:11.170,2022-06-07 17:29:11.170,15,0,0,16.097,34.182596,-118.129088,0.00,0.00,0.00,1.60,-2.80,5.10,0,1,0,79,100,-7693,2849,16097,3131.50,5,WP,1,0,0,0,0,0,0,1654648151170,4035,4016,4025,4022,0,0,27,,,,,,,0,0,0,-16.00,-28.00,51.00,0.00,0.00,53.00,14,18.00,0.00,35.09,0.00,0.00,0.00,0,,,100,100,0,2,0,0,0,1,0,,,,,0.0,0.0,0.0,0.0,0.0,0.0,0
34.182565,-118.129089,1.80,2.00,0.00,3.50,1.90,1.90,1.80,3.68,13605,2022-06-08 00:29:11.270,2022-06-07 17:29:11.270,15,0,0,16.097,34.182596,-118.129088,0.00,0.00,0.00,1.80,-2.70,5.10,0,1,0,79,100,-7693,2849,16097,3131.50,5,WP,1,0,0,0,0,0,0,1654648151269,4035,4016,4025,4022,0,0,27,,,,,,,0,0,0,-18.00,-27.00,51.00,0.00,0.00,53.00,14,18.00,0.00,35.02,0.00,0.00,0.00,0,,,100,100,0,2,0,0,0,1,0,,,,,0.0,0.0,0.0,0.0,0.0,0.0,0
